     3.04           OBSERVATION DATA    M: Mixed            RINEX VERSION / TYPE
CONVBIN demo5 b34f.1                    20220527 015936 UTC PGM / RUN BY / DATE 
log: /home/igor/git/flutter_rtklib/test/data/rcvraw/cres_200COMMENT             
format: Hemisphere                                          COMMENT             
format: Hemisphere                                          COMMENT             
log: /home/igor/git/flutter_rtklib/test/data/rcvraw/cres_200COMMENT             
                                                            MARKER NAME         
                                                            MARKER NUMBER       
                                                            MARKER TYPE         
                                                            OBSERVER / AGENCY   
                                                            REC # / TYPE / VERS 
                                                            ANT # / TYPE        
 -3869283.0715  3436514.6741  3717317.5039                  APPROX POSITION XYZ 
        0.0000        0.0000        0.0000                  ANTENNA: DELTA H/E/N
G    4 C1C L1C D1C S1C                                      SYS / # / OBS TYPES 
S    4 C1C L1C D1C S1C                                      SYS / # / OBS TYPES 
    10.000                                                  INTERVAL            
  2008    05    26    06    01   40.0000000     GPS         TIME OF FIRST OBS   
  2008    05    26    06    06   40.0000000     GPS         TIME OF LAST OBS    
G L1C                                                       SYS / PHASE SHIFT   
S L1C                                                       SYS / PHASE SHIFT   
  0                                                         GLONASS SLOT / FRQ #
 C1C    0.000 C1P    0.000 C2C    0.000 C2P    0.000        GLONASS COD/PHS/BIS 
                                                            END OF HEADER       
> 2008 05 26 06 01 40.0000000  0 11                     
G12  20787423.329    30930531.1101        758.469          50.033  
G14  22938448.925    20927517.4141       2560.950          42.751  
G05  20396762.206    30238560.3841       1867.883          49.134  
G09  20822998.842    29962005.4091      -2120.398          49.428  
G15  23929818.808    -4462026.2001      -2631.238          43.448  
G18  20717214.562    32228123.3291      -1592.820          48.819  
G30  21774393.564    29251426.0851       3167.786          50.172  
G22  21117668.323    29500595.1191       1090.969          49.587  
G26  25516524.206    37118300.8271      -2928.270          40.895  
S29  37174566.076     1393416.2901         -0.299          45.262  
S37  37207493.388     1394890.1331         -3.581          44.319  
> 2008 05 26 06 01 50.0000000  0 11                     
G12  20785989.000    30922994.438         752.233          50.340  
G14  22933581.534    20901936.748        2560.165          43.284  
G05  20393217.700    30219932.123        1862.156          49.346  
G09  20827040.641    29983245.561       -2123.410          48.865  
G15  23934830.913    -4435680.573       -2633.372          43.284  
G18  20720254.002    32244101.487       -1598.761          48.772  
G30  21768373.139    29219787.088        3164.188          50.172  
G22  21115600.240    29489737.599        1085.496          49.468  
G26  25522100.808    37147609.955       -2928.626          41.438  
S29  37174570.823     1393442.363          -0.402          45.045  
S37  37207502.713     1394941.361          -2.979          44.185  
> 2008 05 26 06 02 00.0000000  0 11                     
G12  20784568.559    30915526.114         743.240          50.273  
G14  22928715.584    20876363.982        2556.543          42.751  
G05  20389683.506    30201366.368        1853.397          49.090  
G09  20831088.029    30004516.548       -2128.830          49.548  
G15  23939846.890    -4409313.102       -2638.440          42.936  
G18  20723307.044    32260143.165       -1607.286          48.957  
G30  21762360.593    29188188.853        3157.246          50.595  
G22  21113546.904    29478942.423        1076.385          49.548  
G26  25527678.994    37176928.889       -2932.033          40.273  
S29  37174576.007     1393472.693          -3.320          44.932  
S37  37207513.049     1394995.929          -6.211          43.905  
> 2008 05 26 06 02 10.0000000  0 11                     
G12  20783160.388    30908121.216         736.440          50.103  
G14  22923849.167    20850794.270        2555.719          42.558  
G05  20386162.297    30182858.202        1846.811          49.177  
G09  20835139.387    30025813.376       -2131.079          49.220  
G15  23944867.696    -4382928.796       -2639.791          41.921  
G18  20726373.357    32276243.405       -1613.930          49.387  
G30  21756353.877    29156626.470        3153.610          49.665  
G22  21111503.262    29468204.813        1069.546          49.626  
G26  25533262.151    37206252.645       -2933.931          40.895  
S29  37174579.152     1393500.131          -3.812          45.154  
S37  37207526.353     1395048.335          -5.941          43.605  
> 2008 05 26 06 02 20.0000000  0 11                     
G12  20781763.233    30900780.937         732.083          50.138  
G14  22918984.751    20825228.748        2557.533          43.905  
G05  20382650.672    30164408.918        1843.587          49.090  
G09  20839199.615    30047137.172       -2132.976          49.346  
G15  23949892.506    -4356526.431       -2640.417          42.144  
G18  20729447.109    32292403.290       -1618.072          49.428  
G30  21750354.170    29125101.198        3151.674          50.068  
G22  21109472.210    29457525.939        1065.950          49.262  
G26  25538842.873    37235582.358       -2932.624          40.273  
S29  37174587.016     1393526.971          -2.622          45.154  
S37  37207534.504     1395099.279          -3.794          44.319  
> 2008 05 26 06 02 30.0000000  0 11                     
G12  20780379.007    30893508.025         722.404          49.548  
G14  22914120.530    20799670.205        2554.727          43.605  
G05  20379152.120    30146021.256        1833.810          49.177  
G09  20843262.040    30068490.548       -2138.511          49.177  
G15  23954919.514    -4330103.360       -2644.721          39.926  
G18  20732533.791    32308625.323       -1627.299          49.548  
G30  21744363.529    29093615.884        3144.962          50.273  
G22  21107450.652    29446908.533        1056.955          50.068  
G26  25544425.221    37264920.758       -2935.639          39.548  
S29  37174592.928     1393556.265          -4.918          45.154  
S37  37207541.560     1395152.854          -7.144          43.905  
> 2008 05 26 06 02 40.0000000  0 11                     
G12  20779007.773    30886297.887         717.675          49.468  
G14  22909257.567    20774114.113        2555.370          44.185  
G05  20375662.124    30127690.681        1830.487          49.046  
G09  20847330.589    30089868.885       -2139.860          49.346  
G15  23959952.645    -4303664.072       -2645.056          38.676  
G18  20735631.604    32324904.919       -1630.896          49.508  
G30  21738379.441    29062166.069        3143.377          50.437  
G22  21105441.515    29436348.021        1052.323          49.997  
G26  25550005.965    37294263.161       -2934.352          38.165  
S29  37174596.236     1393581.952          -3.358          44.932  
S37  37207552.165     1395205.197          -4.724          43.605  
> 2008 05 26 06 02 50.0000000  0 11                     
G12  20777646.911    30879154.811         709.879          49.468  
G14  22904395.246    20748564.716        2553.865          44.575  
G05  20372188.081    30109421.534        1823.200          49.304  
G09  20851403.500    30111276.350       -2143.207          49.220  
G15  23964987.134    -4277204.046       -2649.691          37.585  
G18  20738741.076    32341246.410       -1638.265          49.428  
G30  21732402.576    29030756.130        3138.005          50.626  
G22  21103443.178    29425848.787        1045.778          50.068  
G26  25555592.359    37323613.967       -2936.313          37.585  
S29  37174602.617     1393610.990          -3.908          45.154  
S37  37207562.410     1395256.494          -6.115          43.758  
> 2008 05 26 06 03 00.0000000  0 11                     
G12  20776299.819    30872075.895         705.206          49.508  
G14  22899533.672    20723019.164        2555.539          44.575  
G05  20368722.798    30091210.981        1818.762          49.046  
G09  20855482.023    30132709.920       -2143.387          50.240  
G15  23970024.373    -4250726.968       -2648.270          38.165  
G18  20741862.458    32357646.619       -1642.000          49.626  
G30  21726431.468    28999383.189        3136.048          51.009  
G22  21101458.325    29415407.970        1041.828          50.307  
G26  25561180.789    37352970.048       -2934.891          38.165  
S29  37174607.886     1393637.908          -1.101          45.366  
S37  37207571.113     1395308.839          -3.932          43.905  
> 2008 05 26 06 03 10.0000000  0 11                     
G12  20774965.914    30865062.692         698.750          49.587  
G14  22894674.841    20697479.049        2554.631          44.185  
G05  20365267.985    30073060.566        1812.657          48.957  
G09  20859567.295    30154171.082       -2146.307          49.962  
G15  23975067.789    -4224230.937       -2649.374          38.676  
G18  20744994.595    32374107.146       -1648.456          49.304  
G30  21720470.686    28968048.910        3132.190          50.866  
G22  21099481.365    29405027.082        1035.958          50.068  
G26  25566765.664    37382333.164       -2935.507          36.124  
S29  37174613.035     1393664.845          -1.423          44.932  
S37  37207582.559     1395359.956          -4.764          43.448  
> 2008 05 26 06 03 20.0000000  0 11                     
G12  20773643.267    30858115.708         692.763          49.889  
G14  22889813.817    20671944.842        2555.067          45.154  
G05  20361827.005    30054970.819        1807.762          49.587  
G09  20863655.527    30175660.291       -2149.012          49.997  
G15  23980113.019    -4197715.396       -2651.413          39.134  
G18  20748138.706    32390628.339       -1653.582          49.304  
G30  21714514.294    28936753.933        3129.207          50.626  
G22  21097517.523    29394706.727        1030.536          49.962  
G26  25572357.505    37411703.629       -2936.198          38.676  
S29  37174619.426     1393692.783          -0.535          45.154  
S37  37207591.955     1395413.561          -3.387          43.905  
> 2008 05 26 06 03 30.0000000  0 11                     
G12  20772335.795    30851235.139         684.050          50.068  
G14  22884955.948    20646416.852        2551.590          45.262  
G05  20358395.620    30036942.109        1799.012          49.508  
G09  20867750.490    30197177.623       -2153.547          49.626  
G15  23985164.695    -4171180.272       -2654.933          41.438  
G18  20751293.985    32407210.459       -1662.180          49.177  
G30  21708565.921    28905498.565        3122.900          50.895  
G22  21095564.993    29384447.109        1022.448          49.741  
G26  25577944.774    37441081.637       -2939.192          39.134  
S29  37174625.252     1393720.918          -4.639          44.932  
S37  37207602.788     1395466.749          -6.651          43.758  
> 2008 05 26 06 03 40.0000000  0 11                     
G12  20771037.311    30844418.524         677.865          50.437  
G14  22880100.485    20620892.681        2551.712          45.855  
G05  20354976.084    30018972.002        1793.196          49.548  
G09  20871850.149    30218720.650       -2156.018          49.703  
G15  23990217.489    -4144627.962       -2656.038          42.558  
G18  20754460.255    32423851.037       -1668.148          49.002  
G30  21702625.105    28874280.442        3119.056          50.748  
G22  21093624.169    29374245.818        1016.536          49.262  
G26  25583537.740    37470464.853       -2938.967          36.915  
S29  37174630.335     1393750.792          -4.066          45.045  
S37  37207610.876     1395518.628          -4.945          44.185  
> 2008 05 26 06 03 50.0000000  0 11                     
G12  20769751.647    30837666.985         672.494          50.340  
G14  22875244.106    20595373.341        2552.749          45.568  
G05  20351568.654    30001061.501        1788.647          49.387  
G09  20875955.617    30240290.215       -2157.408          49.741  
G15  23995273.659    -4118057.473       -2657.038          43.448  
G18  20757638.344    32440550.977       -1672.134          49.508  
G30  21696692.246    28843100.581        3116.402          51.175  
G22  21091694.592    29364103.997        1011.733          49.626  
G26  25589133.367    37499854.070       -2938.580          36.124  
S29  37174636.076     1393777.263          -2.172          44.932  
S37  37207621.626     1395570.251          -4.809          43.758  
> 2008 05 26 06 04 00.0000000  0 11                     
G12  20768481.286    30830982.403         664.221          49.853  
G14  22870389.292    20569860.744        2549.924          45.262  
G05  20348170.802    29983212.602        1780.686          48.911  
G09  20880064.367    30261888.214       -2161.889          49.428  
G15  24000333.542    -4091466.987       -2661.303          43.448  
G18  20760827.729    32457312.118       -1680.287          48.772  
G30  21690766.532    28811960.961        3110.900          50.718  
G22  21089774.879    29354023.598        1004.143          49.134  
G26  25594725.552    37529251.322       -2940.736          37.585  
S29  37174638.661     1393805.833          -3.569          44.932  
S37  37207634.513     1395625.180          -6.167          43.905  
> 2008 05 26 06 04 10.0000000  0 11                     
G12  20767221.400    30824362.562         656.997          50.033  
G14  22865534.651    20544352.648        2548.423          46.458  
G05  20344785.428    29965423.168        1773.696          49.220  
G09  20884179.013    30283512.344       -2165.597          49.741  
G15  24005396.172    -4064858.688       -2663.878          42.558  
G18  20764028.590    32474132.133       -1686.925          49.262  
G30  21684848.288    28780859.473        3106.039          50.981  
G22  21087869.076    29344002.402         996.821          49.262  
G26  25600320.198    37558654.293       -2942.394          38.165  
S29  37174645.138     1393831.832          -4.211          44.816  
S37  37207644.997     1395675.187          -7.277          43.758  
> 2008 05 26 06 04 20.0000000  0 11                     
G12  20765973.351    30817806.818         654.618          49.889  
G14  22860681.687    20518848.426        2552.741          46.458  
G05  20341410.890    29947692.500        1772.254          48.957  
G09  20888298.914    30305161.838       -2163.739          49.626  
G15  24010464.343    -4038233.343       -2660.672          43.605  
G18  20767239.571    32491010.319       -1688.700          49.134  
G30  21678937.017    28749795.535        3106.511          51.387  
G22  21085973.250    29334039.652         995.398          49.428  
G26  25605916.235    37588062.426       -2938.739          39.134  
S29  37174649.572     1393858.756          -1.356          44.932  
S37  37207654.726     1395727.942          -3.270          44.048  
> 2008 05 26 06 04 30.0000000  0 11                     
G12  20764739.591    30811319.747         643.934          49.962  
G14  22855829.133    20493352.756        2547.822          46.036  
G05  20338050.355    29930025.290        1762.100          48.911  
G09  20892424.520    30326841.238       -2170.694          49.428  
G15  24015533.354    -4011586.253       -2667.648          43.113  
G18  20770464.556    32507951.172       -1698.857          49.428  
G30  21673034.883    28718773.874        3098.468          50.924  
G22  21084088.709    29324140.054         985.127          49.387  
G26  25611516.689    37617479.938       -2943.663          43.448  
S29  37174656.134     1393888.832          -4.814          45.045  
S37  37207663.291     1395780.946          -6.747          44.319  
> 2008 05 26 06 04 40.0000000  0 11                     
G12  20763517.055    30804894.971         640.787          49.304  
G14  22850978.358    20467862.725        2551.159          44.048  
G05  20334699.040    29912414.195        1759.734          48.724  
G09  20896554.766    30348547.070       -2170.052          48.325  
G15  24020607.578    -3984924.499       -2664.838          39.548  
G18  20773699.619    32524947.055       -1701.048          49.262  
G30  21667137.677    28687785.861        3098.523          49.853  
G22  21082214.818    29314298.996         983.111          47.942  
G26  25617113.198    37646899.933       -2941.967          38.165  
S29  37174661.756     1393912.504          -0.852          43.905  
S37  37207672.060     1395829.774          -3.292          42.936  
> 2008 05 26 06 04 50.0000000  0 11                     
G12  20762307.563    30798538.767         631.364          49.428  
G14  22846130.611    20442377.707        2547.498          44.048  
G05  20331358.051    29894867.466        1751.325          49.177  
G09  20900690.330    30370279.463       -2175.198          49.002  
G15  24025683.685    -3958240.666       -2669.867          39.926  
G18  20776944.293    32542006.410       -1709.652          49.220  
G30  21661249.509    28656842.350        3091.521          49.741  
G22  21080354.973    29304519.280         974.508          48.325  
G26  25622717.029    37676329.981       -2944.594          37.585  
S29  37174666.971     1393941.842          -4.454          44.319  
S37  37207680.424     1395883.641          -6.017          43.905  
> 2008 05 26 06 05 00.0000000  0 11                     
G12  20761109.246    30792247.007         625.706          49.134  
G14  22841280.873    20416897.188        2547.543          44.048  
G05  20328029.953    29877380.173        1745.843          48.579  
G09  20904829.913    30392037.399       -2177.438          49.548  
G15  24030764.241    -3931539.522       -2670.876          41.175  
G18  20780201.858    32559124.086       -1714.469          48.628  
G30  21655366.648    28625937.202        3088.793          49.853  
G22  21078506.303    29294798.729         968.987          48.219  
G26  25628314.575    37705765.526       -2944.607          38.165  
S29  37174671.627     1393969.685          -3.139          43.905  
S37  37207690.517     1395936.776          -5.170          43.113  
> 2008 05 26 06 05 10.0000000  0 11                     
G12  20759924.682    30786022.009         613.115          51.387  
G14  22836436.304    20391431.529        2548.506          49.134  
G05  20324714.035    29859943.967        1738.233          51.413  
G09  20908981.247    30413845.932       -2192.353          51.875  
G15  24035851.109    -3904813.749       -2685.010          46.915  
G18  20783466.737    32576284.989       -1718.701          50.372  
G30  21649489.527    28595049.926        3088.468          50.372  
G22  21076667.093    29285137.356         965.654          52.166  
G26  25633918.721    37735213.259       -2957.725          42.751  
S29  37174672.437     1393977.898          -1.434          45.666  
S37  37207697.766     1395972.551          -5.047          43.113  
> 2008 05 26 06 05 20.0000000  0 11                     
G12  20758782.379    30780014.196         588.708          50.103  
G14  22831539.270    20365698.725        2583.983          49.962  
G05  20321417.055    29842624.073        1724.470          51.758  
G09  20913168.976    30435855.481       -2212.288          52.144  
G15  24041013.437    -3877695.321       -2732.659          49.262  
G18  20786729.520    32593432.732       -1716.643          50.626  
G30  21643614.173    28564176.442        3085.037          51.413  
G22  21074797.598    29275308.073         988.981          51.065  
G26  25639600.330    37765056.186       -3005.667          42.144  
S29  37174676.444     1393998.632          -4.395          46.210  
S37  37207716.082     1396058.226         -13.497          44.575  
> 2008 05 26 06 05 30.0000000  0 11                     
G12  20757666.519    30774155.131         587.813          50.533  
G14  22826615.304    20339825.459        2579.395          50.138  
G05  20318138.933    29825398.047        1720.684          51.944  
G09  20917379.999    30457984.035       -2205.328          51.829  
G15  24046217.089    -3850357.899       -2720.777          48.377  
G18  20789999.427    32610604.958       -1723.433          50.777  
G30  21637745.372    28533333.756        3080.059          51.711  
G22  21072915.051    29265418.209         978.477          51.148  
G26  25645322.260    37795113.431       -2990.913          43.605  
S29  37174682.997     1394028.573          -4.098          46.036  
S37  37207736.229     1396175.206         -10.387          44.048  
> 2008 05 26 06 05 40.0000000  0 11                     
G12  20756525.864    30768157.813         598.506          51.944  
G14  22821779.729    20314417.646        2513.722          46.458  
G05  20314846.318    29808088.228        1735.363          50.718  
G09  20921582.253    30480067.888       -2228.661          51.335  
G15  24051324.399    -3823500.924       -2676.826          45.262  
G18  20793276.448    32627825.079       -1717.255          52.315  
G30  21631860.647    28502409.663        3105.403          52.012  
G22  21071105.155    29255911.480         933.311          50.718  
G26  25650939.550    37824649.9641      -2939.482          39.548  
S29  37174659.031     1393908.411          26.885          45.154  
S37  37207721.564     1396095.581          22.374          43.905  
> 2008 05 26 06 05 50.0000000  0 10                     
G12  20755381.617    30762146.869         610.741          51.564  
G14  22816998.086    20289283.966        2498.260          47.585  
G05  20311535.230    29790689.260        1744.978          51.852  
G09  20925822.698    30502356.602       -2218.161          50.895  
G15  24056405.795    -3796831.758       -2643.474          48.055  
G18  20796533.852    32644947.076       -1714.276          50.924  
G30  21625935.127    28471270.298        3117.323          52.751  
G22  21069331.590    29246585.369         917.929          50.748  
S29  37174590.835     1393543.590          43.514          45.855  
S37  37207661.238     1395769.911          42.519          44.816  
> 2008 05 26 06 06 00.0000000  0 10                     
G12  20754231.656    30756107.376         597.318          51.175  
G14  22812254.944    20264359.636        2498.374          48.529  
G05  20308225.296    29773294.260        1734.526          51.464  
G09  20930058.860    30524614.723       -2230.221          51.037  
G15  24061444.417                       -2658.308          45.262  
G18  20799804.430    32662135.380       -1720.924          51.037  
G30  21620011.333    28440138.723        3110.483          52.056  
G22  21067595.953    29237465.707         914.252          51.202  
S29  37174510.486     1393129.482          39.895          46.294  
S37  37207583.608     1395369.758          38.451          45.855  
> 2008 05 26 06 06 10.0000000  0 10                     
G12  20753104.503    30750182.703         589.580          50.718  
G14  22807487.675    20239318.208        2508.370          46.210  
G05  20304932.018    29755991.983        1731.514          50.372  
G09  20934303.520    30546916.497       -2232.588          51.175  
G15  24066512.285    -3743715.588       -2664.483          45.855  
G18  20803084.365    32679375.158       -1721.278          51.989  
G30  21614099.901    28409070.942        3110.597          52.770  
G22  21065853.505    29228314.441         917.431          50.626  
S29  37174439.351     1392744.803          43.387          46.842  
S37  37207515.192     1395013.659          40.302          44.449  
> 2008 05 26 06 06 20.0000000  0 11                     
G12  20751997.093    30744357.632         576.902          51.309  
G14  22802719.258    20214253.108        2512.314          47.522  
G05  20301651.328    29738751.726        1721.181          51.120  
G09  20938566.064    30569315.091       -2245.109          52.056  
G15  24071597.465    -3716994.137       -2679.504          45.666  
G18  20806370.306    32696637.910       -1725.539          52.335  
G30  21608187.035    28378010.153        3107.021          52.079  
G22  21064116.205    29219184.006         916.140          49.346  
G26  25673210.322    45408468.3411      -2939.621          41.438  
S29  37174359.771     1392338.070          42.761          45.366  
S37  37207445.199     1394643.317          38.465          43.758  
> 2008 05 26 06 06 30.0000000  0 11                     
G12  20750906.201    30738628.789         576.237          51.148  
G14  22797944.894    20189167.351        2501.256          46.915  
G05  20298383.578    29721583.558        1716.062          51.202  
G09  20942841.549    30591783.618       -2237.666          51.489  
G15  24076696.157    -3690200.315       -2665.341          47.459  
G18  20809663.751    32713944.895       -1736.630          51.120  
G30  21602281.816    28346980.476        3098.580          52.122  
G22  21062385.835    29210087.139         899.401          51.175  
G26  25678803.397    45437859.348       -2924.208          42.751  
S29  37174281.826     1391926.734          40.475          46.377  
S37  37207376.126     1394274.447          37.116          45.366  
> 2008 05 26 06 06 40.0000000  0 11                     
G12  20749822.838    30732932.527         561.924          51.361  
G14  22793164.179    20164042.732        2531.046          47.329  
G05  20295142.246    29704545.343        1688.253          51.806  
G09  20947077.199    30614049.950       -2207.822          51.614  
G15  24081781.057    -3663475.772       -2681.864          46.294  
G18  20812996.491    32731453.542       -1769.579          51.120  
G30  21596421.615    28316178.349        3054.427          52.397  
G22  21060673.297    29201085.394         902.959          51.735  
G26  25684381.535    45467175.787       -2939.482          38.165  
S29  37174234.020     1391672.681           4.112          45.568  
S37  37207333.614     1394043.758           1.084          45.366  
