     3.01           OBSERVATION DATA    M: Mixed            RINEX VERSION / TYPE
CONVBIN demo5 b34f.1                    20220527 015946 UTC PGM / RUN BY / DATE 
log: /home/igor/git/flutter_rtklib/test/data/rcvraw/GMSD7_20COMMENT             
format: RTCM 3                                              COMMENT             
format: RTCM 3                                              COMMENT             
log: /home/igor/git/flutter_rtklib/test/data/rcvraw/GMSD7_20COMMENT             
0611                                                        MARKER NAME         
                                                            MARKER NUMBER       
                                                            MARKER TYPE         
                                                            OBSERVER / AGENCY   
                    TRIMBLE NETR9                           REC # / TYPE / VERS 
                                                            ANT # / TYPE        
        0.0000        0.0000        0.0000                  APPROX POSITION XYZ 
        0.0000        0.0000        0.0000                  ANTENNA: DELTA H/E/N
C   10 C2I L2I D2I S2I C7I L7I S7I C6I L6I S6I              SYS / # / OBS TYPES 
  2012    10    13    23    59   58.0000000     GPS         TIME OF FIRST OBS   
  2012    10    14    00    04   14.0000000     GPS         TIME OF LAST OBS    
C L2I                                                       SYS / PHASE SHIFT   
C L7I                                                       SYS / PHASE SHIFT   
C L6I                                                       SYS / PHASE SHIFT   
                                                            END OF HEADER       
> 2012 10 13 23 59 58.0000000  0  8                     
C01  36658401.500   190889944.0781        -34.179          44.313    36658394.274   147608203.7911         47.813    36658389.059   155113681.7521         46.625  
C03  38700455.367   201522705.6521         -0.246          40.500    38700452.574   155830142.0771         42.125    38700447.008   163753709.3501         42.500  
C04  37550171.141   195533346.6921        -19.348          42.500    37550167.820   151198775.4161         45.000    37550161.488   158887018.3071         45.688  
C07  36594339.258   190557069.2181      -1040.906          44.500    36594335.340   147350528.2121         48.875    36594326.078   154843371.7781         49.313  
C08  36631036.625   190747409.9701       -210.434          44.625    36631031.922   147497539.0421         48.500    36631024.008   154997414.2861         49.125  
C10  36394080.274   189513795.4491       -441.836          44.813    36394079.148   146543620.1461         48.125    36394069.656   153994999.2201         48.688  
C11  24046707.969   125216837.6761       2140.438          41.875    24046708.875    96826123.5871         45.500    24046699.672   101749479.9641         45.313  
C12  21574253.063   112343534.4361       -148.781          47.313    21574250.238    86870843.8771         52.313    21574242.207    91288005.9381         53.875  
> 2012 10 13 23 59 59.0000000  0  8                     
C01  36658408.140   190889978.187         -34.059          44.188    36658400.660   147608230.168          47.813    36658395.211   155113709.465          46.813  
C03  38700455.555   201522705.884          -0.121          40.500    38700452.918   155830142.252          42.313    38700447.113   163753709.541          42.375  
C04  37550174.945   195533366.045         -19.301          43.000    37550171.496   151198790.382          45.000    37550165.223   158887034.028          45.625  
C07  36594539.344   190558110.135       -1040.973          44.813    36594535.199   147351333.118          48.688    36594526.054   154844217.606          49.375  
C08  36631076.883   190747620.251        -210.195          44.875    36631072.156   147497701.643          48.500    36631064.305   154997585.158          49.188  
C10  36394165.320   189514237.251        -441.793          45.375    36394163.633   146543961.773          47.875    36394154.433   153995358.222          48.625  
C11  24046297.422   125214697.318        2140.258          42.125    24046297.824    96824468.530          45.313    24046288.563   101747740.753          45.375  
C12  21574281.367   112343683.328        -149.008          47.375    21574278.883    86870959.014          53.000    21574270.852    91288126.932          53.875  
> 2012 10 14 00 00 00.0000000  0  8                     
C01  36658414.789   190890012.336         -34.281          44.125    36658407.711   147608256.571          47.813    36658402.203   155113737.213          47.000  
C03  38700455.797   201522706.132          -0.426          40.625    38700452.617   155830142.446          42.813    38700446.992   163753709.744          41.625  
C04  37550178.555   195533385.440         -19.512          42.688    37550175.207   151198805.380          45.125    37550168.817   158887049.787          45.500  
C07  36594739.125   190559151.237       -1041.266          44.625    36594735.277   147352138.167          48.813    36594725.961   154845063.583          49.500  
C08  36631117.492   190747830.556        -210.516          44.688    36631112.324   147497864.262          48.813    36631104.824   154997756.046          49.313  
C10  36394249.953   189514679.240        -442.191          44.688    36394248.308   146544303.547          48.125    36394238.813   153995717.366          48.813  
C11  24045886.453   125212557.234        2139.886          41.813    24045886.863    96822813.683          45.500    24045877.426   101746001.756          45.313  
C12  21574309.922   112343832.586        -149.567          47.188    21574307.613    86871074.430          52.813    21574299.582    91288248.214          54.000  
> 2012 10 14 00 00 01.0000000  0  8                     
C01  36658421.383   190890046.473         -34.289          44.313    36658413.965   147608282.968          47.875    36658408.805   155113764.952          46.875  
C03  38700455.695   201522706.369          -0.398          40.875    38700452.438   155830142.629          42.500    38700447.047   163753709.940          42.125  
C04  37550182.203   195533404.839         -19.574          42.625    37550179.066   151198820.381          45.188    37550172.562   158887065.553          45.188  
C07  36594938.867   190560192.523       -1041.481          44.813    36594934.929   147352943.352          48.625    36594925.672   154845909.717          49.688  
C08  36631157.789   190748040.893        -210.481          44.688    36631152.808   147498026.910          48.375    36631144.899   154997926.960          49.188  
C10  36394335.274   189515121.439        -442.457          44.875    36394333.328   146544645.484          47.688    36394324.246   153996076.688          49.000  
C11  24045475.149   125210417.435        2139.562          42.188    24045475.930    96821159.060          45.375    24045466.492   101744262.988          45.500  
C12  21574338.695   112343982.198        -149.887          47.188    21574336.328    86871190.119          52.813    21574328.180    91288369.784          53.875  
> 2012 10 14 00 00 02.0000000  0  8                     
C01  36658427.859   190890080.778         -34.246          43.688    36658420.426   147608309.489          47.875    36658415.031   155113792.830          47.188  
C03  38700455.117   201522706.764          -0.254          41.000    38700452.543   155830142.934          42.625    38700447.094   163753710.259          42.313  
C04  37550186.039   195533424.341         -19.293          42.375    37550182.719   151198835.457          45.625    37550176.094   158887081.398          45.125  
C07  36595138.804   190561234.108       -1041.539          44.875    36595135.129   147353748.768          48.813    36595125.985   154846756.085          49.813  
C08  36631198.211   190748251.359        -210.398          44.625    36631193.531   147498189.655          48.813    36631185.562   154998097.983          49.500  
C10  36394420.304   189515563.958        -442.426          45.000    36394418.109   146544987.666          47.813    36394408.906   153996436.276          48.875  
C11  24045064.672   125208278.040        2139.340          42.313    24045065.097    96819504.743          45.625    24045055.781   101742524.562          45.813  
C12  21574367.648   112344132.310        -150.180          47.188    21574365.105    86871306.197          52.313    21574356.957    91288491.764          53.875  
> 2012 10 14 00 00 03.0000000  0  8                     
C01  36658434.078   190890115.015         -34.301          43.625    36658427.317   147608335.966          48.000    36658421.984   155113820.652          47.000  
C03  38700455.930   201522707.082          -0.387          40.500    38700452.711   155830143.183          42.188    38700447.203   163753710.518          42.625  
C04  37550189.484   195533443.822         -19.504          42.125    37550186.773   151198850.519          45.000    37550180.094   158887097.222          45.313  
C07  36595338.937   190562275.741       -1041.801          44.500    36595334.727   147354554.223          48.813    36595325.933   154847602.501          49.625  
C08  36631238.899   190748461.751        -210.430          44.500    36631233.613   147498352.345          48.375    36631225.761   154998268.949          49.313  
C10  36394505.265   189516006.591        -442.734          44.875    36394503.891   146545329.935          48.000    36394494.453   153996795.947          48.875  
C11  24044653.898   125206138.846        2138.985          42.313    24044654.266    96817850.581          45.313    24044644.891   101740786.292          45.813  
C12  21574396.414   112344282.676        -150.547          47.188    21574393.781    86871422.465          52.313    21574385.929    91288613.944          53.813  
> 2012 10 14 00 00 04.0000000  0  8                     
C01  36658441.195   190890149.225         -34.082          43.813    36658433.648   147608362.414          47.875    36658428.258   155113848.446          46.688  
C03  38700455.414   201522707.414          -0.289          40.688    38700452.863   155830143.441          42.125    38700447.062   163753710.784          42.625  
C04  37550193.312   195533463.267         -19.223          42.188    37550190.602   151198865.553          45.188    37550183.922   158887113.023          45.313  
C07  36595539.242   190563317.575       -1041.855          44.500    36595535.144   147355359.834          48.625    36595525.941   154848449.074          49.500  
C08  36631279.149   190748672.155        -210.293          44.625    36631274.188   147498515.049          48.313    36631266.336   154998439.920          49.625  
C10  36394590.008   189516449.375        -442.766          44.688    36394588.406   146545672.325          47.875    36394579.148   153997155.746          48.500  
C11  24044242.734   125203999.918        2138.922          42.313    24044243.445    96816196.622          45.188    24044234.008   101739048.243          45.813  
C12  21574425.570   112344433.396        -150.719          47.125    21574423.191    86871539.011          52.313    21574415.219    91288736.413          53.813  
> 2012 10 14 00 00 05.0000000  0  8                     
C01  36658447.711   190890183.422         -34.109          43.875    36658439.789   147608388.861          47.875    36658434.750   155113876.233          47.125  
C03  38700455.727   201522707.688          -0.059          40.688    38700452.805   155830143.651          42.188    38700446.941   163753711.004          42.313  
C04  37550196.898   195533482.697         -19.367          42.500    37550194.434   151198880.575          45.000    37550187.695   158887128.814          45.125  
C07  36595739.203   190564359.509       -1041.895          44.625    36595735.453   147356165.519          48.875    36595726.133   154849295.727          49.313  
C08  36631319.359   190748882.492        -210.207          44.813    36631314.820   147498677.697          48.875    36631306.617   154998610.837          49.313  
C10  36394675.476   189516892.338        -442.847          44.813    36394673.426   146546014.855          48.500    36394664.164   153997515.690          48.625  
C11  24043832.758   125201861.229        2138.711          42.125    24043832.801    96814542.855          45.000    24043823.481   101737310.385          45.813  
C12  21574454.516   112344584.434        -151.110          47.313    21574452.250    86871655.799          52.313    21574444.043    91288859.143          53.688  
> 2012 10 14 00 00 06.0000000  0  8                     
C01  36658454.039   190890217.503         -33.981          44.375    36658446.977   147608415.213          47.813    36658441.469   155113903.925          47.188  
C03  38700455.891   201522707.865          -0.153          40.688    38700452.645   155830143.791          42.313    38700447.254   163753711.152          42.500  
C04  37550201.109   195533501.996         -19.227          42.813    37550198.008   151198895.501          44.688    37550191.504   158887144.495          45.313  
C07  36595939.188   190565401.486       -1042.000          45.000    36595935.074   147356971.239          48.875    36595925.989   154850142.417          49.313  
C08  36631360.000   190749092.741        -210.254          45.125    36631355.172   147498840.273          48.813    36631347.082   154998781.681          49.688  
C10  36394760.180   189517335.367        -443.039          45.188    36394759.098   146546357.430          48.625    36394749.547   153997875.687          48.688  
C11  24043421.680   125199722.677        2138.465          42.625    24043422.203    96812889.195          45.313    24043412.711   101735572.634          45.875  
C12  21574483.476   112344735.719        -151.387          47.313    21574481.191    86871772.784          52.688    21574473.222    91288982.080          53.875  
> 2012 10 14 00 00 07.0000000  0  8                     
C01  36658460.867   190890251.694         -34.406          44.313    36658453.347   147608441.651          47.625    36658447.898   155113931.708          47.313  
C03  38700455.774   201522708.138          -0.320          40.313    38700452.941   155830143.995          41.313    38700447.434   163753711.367          42.313  
C04  37550204.422   195533521.414         -19.594          42.813    37550201.555   151198910.514          44.875    37550194.930   158887160.270          45.188  
C07  36596139.641   190566443.739       -1042.543          45.188    36596135.351   147357777.180          48.375    36596126.445   154850989.331          49.688  
C08  36631400.289   190749303.087        -210.520          45.313    36631395.461   147499002.924          48.813    36631387.551   154998952.607          49.313  
C10  36394845.570   189517778.656        -443.559          44.875    36394843.867   146546700.207          48.375    36394834.430   153998235.895          49.000  
C11  24043010.852   125197584.516        2137.805          42.000    24043011.488    96811235.836          45.188    24043002.109   101733835.211          45.625  
C12  21574512.820   112344887.434        -152.059          47.625    21574510.176    86871890.097          52.500    21574502.148    91289105.357          53.500  
> 2012 10 14 00 00 08.0000000  0  8                     
C01  36658467.305   190890285.894         -34.066          44.500    36658459.910   147608468.099          47.813    36658454.461   155113959.499          47.188  
C03  38700455.742   201522708.409          -0.039          40.188    38700452.820   155830144.208          40.875    38700447.309   163753711.593          42.625  
C04  37550208.594   195533540.818         -19.293          43.000    37550205.606   151198925.517          44.813    37550198.746   158887176.037          45.375  
C07  36596339.735   190567486.133       -1042.305          45.625    36596335.598   147358583.221          48.375    36596326.511   154851836.357          49.313  
C08  36631440.477   190749513.420        -210.188          45.625    36631435.922   147499165.567          48.688    36631427.895   154999123.518          49.375  
C10  36394930.726   189518222.117        -443.398          45.188    36394928.774   146547043.118          48.375    36394919.512   153998596.245          48.813  
C11  24042600.375   125195446.592        2137.832          42.188    24042600.949    96809582.662          45.188    24042591.629   101732097.971          45.313  
C12  21574541.789   112345039.485        -152.121          47.500    21574539.477    86872007.673          52.313    21574531.269    91289228.911          53.375  
> 2012 10 14 00 00 09.0000000  0  8                     
C01  36658473.664   190890320.056         -34.215          45.000    36658467.035   147608494.514          47.625    36658461.289   155113987.254          47.000  
C03  38700456.078   201522708.726          -0.320          40.375    38700453.148   155830144.452          40.875    38700447.520   163753711.847          42.375  
C04  37550212.219   195533560.249         -19.516          43.125    37550208.918   151198940.539          45.000    37550202.473   158887191.828          45.125  
C07  36596540.149   190568528.712       -1042.656          45.500    36596535.918   147359389.410          48.375    36596526.891   154852683.540          49.125  
C08  36631481.047   190749723.781        -210.434          45.625    36631475.711   147499328.227          48.625    36631467.742   154999294.449          49.813  
C10  36395016.226   189518665.801        -443.871          45.313    36395014.086   146547386.207          48.125    36395004.531   153998956.771          48.813  
C11  24042189.883   125193308.948        2137.496          42.875    24042190.422    96807929.702          45.000    24042180.926   101730360.958          45.625  
C12  21574571.305   112345191.888        -152.598          47.500    21574568.695    86872125.522          52.313    21574560.430    91289352.753          53.375  
> 2012 10 14 00 00 10.0000000  0  8                     
C01  36658480.086   190890354.242         -34.160          44.875    36658473.266   147608520.946          48.125    36658467.636   155114015.034          47.125  
C03  38700455.688   201522709.014          -0.289          40.188    38700453.403   155830144.677          41.125    38700447.543   163753712.081          42.375  
C04  37550216.344   195533579.639         -19.309          43.125    37550212.906   151198955.536          44.875    37550206.344   158887207.582          45.125  
C07  36596740.094   190569571.415       -1042.715          45.813    36596735.992   147360195.694          48.688    36596726.793   154853530.820          49.125  
C08  36631521.367   190749934.094        -210.250          45.125    36631516.949   147499490.859          48.813    36631508.918   154999465.347          49.625  
C10  36395100.930   189519109.615        -443.883          45.500    36395099.594   146547729.391          48.188    36395090.277   153999317.406          48.500  
C11  24041779.602   125191171.538        2137.332          43.000    24041780.281    96806276.921          45.375    24041770.613   101728624.140          45.813  
C12  21574600.656   112345344.611        -152.828          47.500    21574597.984    86872243.615          52.500    21574589.723    91289476.834          53.375  
> 2012 10 14 00 00 11.0000000  0  8                     
C01  36658487.047   190890388.455         -34.211          44.875    36658479.918   147608547.404          47.875    36658474.406   155114042.833          47.000  
C03  38700456.312   201522709.320          -0.278          40.313    38700453.453   155830144.912          41.188    38700447.477   163753712.325          42.188  
C04  37550219.351   195533599.086         -19.375          43.313    37550216.610   151198970.572          44.688    37550210.222   158887223.384          45.313  
C07  36596940.531   190570614.338       -1042.949          45.688    36596936.621   147361002.146          48.813    36596927.360   154854378.284          49.313  
C08  36631561.883   190750144.448        -210.254          45.125    36631557.301   147499653.517          48.625    36631549.152   154999636.278          49.500  
C10  36395186.664   189519553.686        -444.098          45.625    36395184.426   146548072.772          48.625    36395175.223   153999678.254          48.813  
C11  24041368.984   125189034.438        2137.039          42.875    24041369.684    96804624.372          45.188    24041360.070   101726887.568          45.375  
C12  21574629.742   112345497.718        -153.176          47.375    21574627.664    86872362.005          52.125    21574619.691    91289601.240          53.688  
> 2012 10 14 00 00 12.0000000  0  8                     
C01  36658493.391   190890422.725         -34.371          44.688    36658486.140   147608573.903          47.813    36658480.746   155114070.682          47.188  
C03  38700456.586   201522709.695          -0.387          40.375    38700453.539   155830145.201          41.125    38700447.383   163753712.626          42.125  
C04  37550223.820   195533618.560         -19.516          43.313    37550220.047   151198985.625          44.688    37550213.539   158887239.202          45.313  
C07  36597140.453   190571657.456       -1043.238          45.125    36597136.629   147361808.748          48.813    36597127.308   154855225.901          48.875  
C08  36631601.922   190750354.845        -210.488          44.813    36631597.461   147499816.210          48.313    36631589.430   154999807.241          49.625  
C10  36395271.484   189519997.944        -444.449          45.000    36395269.918   146548416.302          48.625    36395260.426   154000039.254          48.875  
C11  24040958.922   125186897.659        2136.637          43.000    24040959.199    96802972.080          45.500    24040949.586   101725151.260          46.188  
C12  21574659.344   112345651.192        -153.676          47.188    21574656.719    86872480.683          52.000    21574648.805    91289725.943          53.688  
> 2012 10 14 00 00 13.0000000  0  8                     
C01  36658500.133   190890456.970         -34.324          45.000    36658492.555   147608600.381          47.875    36658487.101   155114098.506          47.188  
C03  38700456.633   201522710.015          -0.312          40.688    38700453.449   155830145.450          41.375    38700447.820   163753712.887          42.000  
C04  37550227.258   195533638.014         -19.449          43.188    37550223.988   151199000.666          45.125    37550217.426   158887255.013          45.375  
C07  36597341.258   190572700.699       -1043.281          45.313    36597336.719   147362615.446          48.500    36597327.750   154856073.625          48.688  
C08  36631642.430   190750565.215        -210.414          44.875    36631637.855   147499978.877          48.313    36631629.883   154999978.182          49.375  
C10  36395357.180   189520442.365        -444.578          45.313    36395355.340   146548759.958          48.375    36395346.136   154000400.382          48.813  
C11  24040548.938   125184761.080        2136.360          42.875    24040549.051    96801319.941          45.813    24040539.613   101723415.116          46.313  
C12  21574688.609   112345805.009        -154.019          47.313    21574686.601    86872599.621          52.313    21574678.688    91289850.933          53.875  
> 2012 10 14 00 00 14.0000000  0  8                     
C01  36658506.609   190890491.164         -34.207          45.000    36658499.234   147608626.820          48.188    36658493.785   155114126.294          46.813  
C03  38700456.890   201522710.332          -0.242          40.500    38700453.281   155830145.695          41.500    38700447.945   163753713.150          42.000  
C04  37550230.820   195533657.449         -19.488          43.188    37550227.851   151199015.691          45.313    37550221.230   158887270.800          45.375  
C07  36597541.109   190573744.069       -1043.414          45.500    36597537.305   147363422.246          48.625    36597528.219   154856921.443          49.000  
C08  36631683.039   190750775.547        -210.379          45.625    36631678.250   147500141.519          48.313    36631670.277   155000149.090          49.375  
C10  36395442.594   189520886.915        -444.727          45.875    36395440.797   146549103.710          48.375    36395431.359   154000761.612          48.813  
C11  24040138.445   125182624.782        2136.133          42.813    24040138.742    96799668.029          45.500    24040129.481   101721679.201          45.813  
C12  21574718.437   112345959.134        -154.324          47.313    21574715.945    86872718.803          52.375    21574708.094    91289976.177          53.875  
> 2012 10 14 00 00 15.0000000  0  8                     
C01  36658513.758   190890525.362         -34.179          45.188    36658505.758   147608653.264          48.125    36658500.543   155114154.084          47.188  
C03  38700456.211   201522710.630          -0.273          40.625    38700453.590   155830145.928          41.875    38700448.020   163753713.396          42.188  
C04  37550234.321   195533676.854         -19.367          43.375    37550231.320   151199030.693          45.125    37550224.641   158887286.563          45.313  
C07  36597741.695   190574787.560       -1043.531          45.375    36597737.695   147364229.134          48.375    36597728.492   154857769.363          49.625  
C08  36631723.211   190750985.869        -210.309          45.375    36631718.820   147500304.150          48.500    36631710.613   155000319.990          49.188  
C10  36395527.797   189521331.640        -444.723          46.125    36395526.168   146549447.603          48.313    36395516.613   154001122.986          48.500  
C11  24039727.851   125180488.688        2135.992          43.188    24039728.570    96798016.264          45.625    24039719.308   101719943.449          46.188  
C12  21574748.000   112346113.576        -154.547          47.625    21574745.617    86872838.227          52.000    21574737.648    91290101.673          54.125  
> 2012 10 14 00 00 16.0000000  0  8                     
C01  36658519.867   190890559.497         -34.297          45.625    36658512.430   147608679.657          48.000    36658507.039   155114181.819          46.688  
C03  38700456.492   201522710.912          -0.500          40.813    38700453.344   155830146.142          41.688    38700447.832   163753713.629          42.000  
C04  37550238.375   195533696.221         -19.519          43.375    37550235.094   151199045.668          45.188    37550228.532   158887302.304          45.500  
C07  36597942.063   190575831.174       -1043.902          45.125    36597938.195   147365036.122          48.688    36597929.227   154858617.383          49.313  
C08  36631763.906   190751196.157        -210.430          45.625    36631759.055   147500466.758          48.500    36631751.028   155000490.869          49.313  
C10  36395613.391   189521776.526        -445.152          46.188    36395611.668   146549791.617          48.500    36395602.406   154001484.492          48.688  
C11  24039317.929   125178352.853        2135.496          43.375    24039318.301    96796364.704          45.375    24039308.692   101718207.909          46.000  
C12  21574777.508   112346268.340        -155.074          47.625    21574774.984    86872957.902          52.125    21574767.011    91290227.430          53.500  
> 2012 10 14 00 00 17.0000000  0  8                     
C01  36658526.578   190890593.682         -34.230          45.313    36658518.610   147608706.093          48.188    36658513.567   155114209.599          46.688  
C03  38700456.547   201522711.170          -0.340          40.188    38700453.519   155830146.342          41.813    38700447.832   163753713.833          42.125  
C04  37550241.547   195533715.612         -19.360          43.188    37550238.707   151199060.664          45.500    37550232.320   158887318.058          45.875  
C07  36598142.672   190576874.987       -1043.867          45.000    36598138.601   147365843.263          48.688    36598129.578   154859465.566          48.875  
C08  36631804.016   190751406.450        -210.183          45.375    36631799.508   147500629.374          48.000    36631791.422   155000661.752          49.500  
C10  36395698.883   189522221.570        -445.082          45.625    36395697.109   146550135.753          48.688    36395687.672   154001846.127          48.688  
C11  24038907.883   125176217.286        2135.469          43.313    24038908.266    96794713.349          45.375    24038898.887   101716472.591          46.125  
C12  21574807.523   112346423.456        -155.219          47.188    21574805.117    86873077.846          52.500    21574797.086    91290353.476          53.688  
> 2012 10 14 00 00 18.0000000  0  8                     
C01  36658532.586   190890627.830         -34.387          45.125    36658525.379   147608732.497          47.625    36658519.926   155114237.343          46.813  
C03  38700456.828   201522711.423          -0.403          40.688    38700453.332   155830146.538          42.000    38700447.469   163753714.037          42.625  
C04  37550245.437   195533734.962         -19.519          43.625    37550242.723   151199075.622          45.625    37550235.863   158887333.776          45.688  
C07  36598342.945   190577918.920       -1044.226          45.188    36598339.492   147366650.500          48.625    36598330.230   154860313.846          48.875  
C08  36631844.492   190751616.723        -210.531          45.188    36631839.750   147500791.974          47.875    36631831.660   155000832.621          49.625  
C10  36395783.961   189522666.772        -445.523          45.813    36395782.528   146550480.006          48.625    36395773.094   154002207.889          48.813  
C11  24038497.953   125174081.995        2134.855          43.813    24038498.270    96793062.210          45.500    24038488.949   101714737.493          45.875  
C12  21574837.485   112346578.911        -155.887          47.313    21574834.910    86873198.055          51.813    21574826.883    91290479.797          53.500  
> 2012 10 14 00 00 19.0000000  0  8                     
C01  36658539.164   190890662.014         -34.156          44.500    36658532.020   147608758.928          47.375    36658526.742   155114265.123          46.688  
C03  38700456.492   201522711.708          -0.266          41.000    38700453.511   155830146.759          42.375    38700447.769   163753714.266          42.500  
C04  37550249.570   195533754.380         -19.426          43.188    37550246.297   151199090.632          45.375    37550239.672   158887349.556          45.813  
C07  36598543.383   190578963.046       -1044.219          45.000    36598539.770   147367457.887          48.688    36598530.449   154861162.282          48.875  
C08  36631884.703   190751827.010        -210.172          45.125    36631880.574   147500954.583          48.188    36631872.254   155001003.495          49.375  
C10  36395869.961   189523112.170        -445.500          45.813    36395867.887   146550824.419          48.625    36395858.566   154002569.809          48.813  
C11  24038087.601   125171946.960        2134.902          43.375    24038088.664    96791411.265          45.875    24038079.109   101713002.606          46.125  
C12  21574867.133   112346734.711        -155.910          47.375    21574864.863    86873318.528          52.000    21574856.894    91290606.396          53.688  
> 2012 10 14 00 00 20.0000000  0  8                     
C01  36658545.836   190890696.227         -34.148          44.813    36658539.000   147608785.386          47.375    36658533.371   155114292.921          46.625  
C03  38700456.266   201522712.034          -0.223          40.813    38700453.629   155830147.006          42.625    38700447.707   163753714.526          42.813  
C04  37550253.015   195533773.815         -19.375          43.313    37550249.867   151199105.665          45.625    37550243.598   158887365.353          45.188  
C07  36598744.547   190580007.366       -1044.320          45.188    36598740.160   147368265.414          48.688    36598731.133   154862010.878          48.875  
C08  36631925.336   190752037.371        -210.293          45.188    36631920.980   147501117.246          47.688    36631912.539   155001174.434          49.125  
C10  36395955.773   189523557.820        -445.683          45.625    36395953.836   146551169.019          48.188    36395944.344   154002931.941          48.875  
C11  24037677.344   125169812.242        2134.566          43.875    24037678.500    96789760.568          45.813    24037669.125   101711267.974          46.375  
C12  21574897.375   112346890.897        -156.332          47.500    21574894.930    86873439.297          52.188    21574887.019    91290733.307          54.125  
> 2012 10 14 00 00 21.0000000  0  8                     
C01  36658552.586   190890730.485         -34.266          44.625    36658545.234   147608811.876          47.688    36658539.961   155114320.759          46.813  
C03  38700457.422   201522712.418          -0.527          41.125    38700454.074   155830147.304          42.125    38700448.332   163753714.842          42.688  
C04  37550256.938   195533793.281         -19.551          43.625    37550253.797   151199120.718          45.375    37550247.289   158887381.169          45.375  
C07  36598944.641   190581051.891       -1044.590          45.375    36598940.754   147369073.108          49.000    36598931.727   154862859.638          48.625  
C08  36631965.672   190752247.738        -210.398          45.375    36631961.078   147501279.912          48.000    36631952.934   155001345.373          49.313  
C10  36396040.899   189524003.689        -446.016          45.688    36396039.047   146551513.793          48.188    36396029.730   154003294.244          48.688  
C11  24037267.570   125167677.842        2134.250          43.125    24037268.715    96788110.121          45.813    24037259.160   101709533.604          46.375  
C12  21574927.102   112347047.465        -156.840          47.313    21574924.902    86873560.365          52.188    21574916.875    91290860.535          54.188  
> 2012 10 14 00 00 22.0000000  0  8                     
C01  36658559.117   190890764.734         -34.254          44.500    36658552.012   147608838.356          47.625    36658546.562   155114348.588          46.875  
C03  38700457.117   201522712.729          -0.320          40.625    38700454.000   155830147.548          41.688    38700448.375   163753715.098          43.188  
C04  37550260.805   195533812.702         -19.262          43.125    37550257.117   151199135.736          45.625    37550250.902   158887396.950          45.500  
C07  36599145.367   190582096.521       -1044.648          45.313    36599141.383   147369880.880          48.625    36599132.414   154863708.486          48.813  
C08  36632005.945   190752458.061        -210.223          44.625    36632001.465   147501442.548          47.500    36631993.316   155001516.278          49.375  
C10  36396126.695   189524449.675        -445.957          45.375    36396125.191   146551858.654          48.188    36396115.754   154003656.646          48.688  
C11  24036857.890   125165543.665        2134.094          43.000    24036858.672    96786459.844          45.625    24036849.238   101707799.406          46.188  
C12  21574957.195   112347204.328        -156.957          47.313    21574955.137    86873681.667          52.313    21574947.106    91290987.995          54.500  
> 2012 10 14 00 00 23.0000000  0  8                     
C01  36658565.890   190890798.971         -34.285          44.313    36658558.555   147608864.830          47.813    36658553.223   155114376.407          47.375  
C03  38700457.391   201522713.098          -0.406          40.625    38700453.855   155830147.833          41.813    38700448.231   163753715.403          43.188  
C04  37550264.367   195533832.170         -19.500          42.875    37550261.312   151199150.785          45.188    37550254.867   158887412.768          45.625  
C07  36599346.102   190583141.332       -1044.922          44.688    36599341.985   147370688.793          49.000    36599332.785   154864557.478          49.000  
C08  36632046.375   190752668.424        -210.403          44.688    36632042.039   147501605.209          47.813    36632033.836   155001687.210          49.688  
C10  36396212.351   189524895.881        -446.328          45.000    36396210.578   146552203.688          48.125    36396201.141   154004019.222          48.500  
C11  24036447.961   125163409.756        2133.715          42.813    24036448.992    96784809.777          45.813    24036439.441   101706065.435          46.313  
C12  21574987.976   112347361.580        -157.453          47.313    21574985.582    86873803.262          51.875    21574977.610    91291115.778          54.375  
> 2012 10 14 00 00 24.0000000  0  8                     
C01  36658572.367   190890833.209         -34.281          44.313    36658564.980   147608891.304          47.313    36658559.527   155114404.228          47.625  
C03  38700456.898   201522713.445          -0.476          40.688    38700453.848   155830148.108          42.313    38700448.277   163753715.690          43.125  
C04  37550268.094   195533851.621         -19.516          43.000    37550265.430   151199165.826          45.000    37550258.746   158887428.569          45.500  
C07  36599546.680   190584186.317       -1045.149          45.125    36599542.965   147371496.840          48.813    36599533.703   154865406.614          49.188  
C08  36632086.875   190752878.764        -210.496          44.875    36632082.453   147501767.859          48.313    36632074.308   155001858.127          49.625  
C10  36396297.828   189525342.260        -446.590          45.188    36396296.242   146552548.856          48.125    36396286.863   154004381.937          48.875  
C11  24036038.289   125161276.118        2133.434          42.688    24036038.949    96783159.920          45.500    24036029.336   101704331.674          46.000  
C12  21575017.719   112347519.152        -157.840          47.500    21575015.508    86873925.108          51.875    21575007.598    91291243.812          54.375  
> 2012 10 14 00 00 25.0000000  0  8                     
C01  36658578.797   190890867.383         -34.254          44.688    36658571.684   147608917.730          46.688    36658566.410   155114431.996          47.188  
C03  38700457.516   201522713.731          -0.320          41.125    38700454.098   155830148.326          42.313    38700448.356   163753715.916          43.000  
C04  37550271.437   195533871.049         -19.610          43.313    37550268.617   151199180.851          45.188    37550262.402   158887444.362          45.500  
C07  36599747.430   190585231.378       -1045.211          45.375    36599743.445   147372304.943          48.688    36599734.363   154866255.809          49.313  
C08  36632127.406   190753089.031        -210.371          45.000    36632122.672   147501930.447          48.125    36632114.586   155002028.986          49.313  
C10  36396383.930   189525788.752        -446.707          45.000    36396382.367   146552894.113          48.000    36396372.754   154004744.753          49.000  
C11  24035628.492   125159142.699        2133.215          42.813    24035629.312    96781510.222          45.375    24035619.933   101702598.099          45.875  
C12  21575048.453   112347677.012        -158.121          47.500    21575046.094    86874047.176          51.875    21575038.121    91291372.088          53.813  
> 2012 10 14 00 00 26.0000000  0  8                     
C01  36658585.875   190890901.651         -34.313          44.813    36658578.258   147608944.231          46.375    36658573.043   155114459.841          47.188  
C03  38700457.305   201522714.081          -0.328          40.625    38700454.324   155830148.599          42.188    38700448.519   163753716.198          42.813  
C04  37550275.133   195533890.475         -19.394          43.375    37550272.664   151199195.870          45.125    37550266.039   158887460.137          45.188  
C07  36599948.336   190586276.653       -1045.328          45.875    36599944.012   147373113.213          48.625    36599934.929   154867105.182          49.125  
C08  36632167.492   190753299.361        -210.328          45.500    36632163.355   147502093.089          48.125    36632155.094   155002199.897          49.313  
C10  36396469.477   189526235.492        -446.890          45.188    36396467.863   146553239.562          48.000    36396458.484   154005107.763          49.188  
C11  24035218.836   125157009.585        2133.047          43.188    24035219.457    96779860.763          45.000    24035210.078   101700864.773          45.813  
C12  21575078.601   112347835.256        -158.438          47.625    21575076.324    86874169.535          51.875    21575068.414    91291500.679          53.875  
> 2012 10 14 00 00 27.0000000  0  8                     
C01  36658592.469   190890935.839         -34.285          44.500    36658584.969   147608970.661          46.375    36658579.578   155114487.622          47.313  
C03  38700457.094   201522714.359          -0.336          41.125    38700454.211   155830148.809          42.125    38700448.348   163753716.419          42.875  
C04  37550278.821   195533909.867         -19.500          43.188    37550276.336   151199210.864          45.313    37550269.711   158887475.898          45.688  
C07  36600148.672   190587322.039       -1045.574          45.313    36600145.008   147373921.573          48.625    36600135.863   154867954.643          48.625  
C08  36632207.844   190753509.642        -210.317          45.125    36632203.391   147502255.686          48.125    36632195.246   155002370.764          49.125  
C10  36396555.563   189526682.329        -446.957          45.500    36396553.793   146553585.084          47.875    36396544.180   154005470.855          49.188  
C11  24034809.812   125154876.691        2132.692          43.000    24034809.801    96778211.473          45.188    24034800.367   101699131.622          45.875  
C12  21575109.430   112347993.785        -158.746          47.375    21575106.500    86874292.121          52.500    21575098.586    91291629.495          53.875  
> 2012 10 14 00 00 28.0000000  0  8                     
C01  36658598.773   190890970.135         -34.297          44.375    36658591.375   147608997.184          46.813    36658586.097   155114515.486          47.188  
C03  38700457.703   201522714.740          -0.270          41.000    38700454.472   155830149.106          42.188    38700448.554   163753716.729          42.625  
C04  37550283.563   195533929.331         -19.394          43.500    37550279.777   151199225.914          45.188    37550273.269   158887491.712          45.375  
C07  36600349.680   190588367.657       -1045.656          44.688    36600345.664   147374730.110          48.500    36600336.402   154868804.294          48.625  
C08  36632248.406   190753720.022        -210.391          45.000    36632243.559   147502418.367          47.813    36632235.472   155002541.714          48.813  
C10  36396641.242   189527129.441        -447.172          45.375    36396639.836   146553930.819          47.875    36396630.227   154005834.170          49.313  
C11  24034399.758   125152744.157        2132.481          42.813    24034400.691    96776562.464          45.000    24034391.137   101697398.768          45.625  
C12  21575139.836   112348152.780        -159.066          47.375    21575137.398    86874415.069          52.500    21575129.367    91291758.692          54.313  
> 2012 10 14 00 00 29.0000000  0  8                     
C01  36658605.422   190891004.418         -34.266          44.500    36658598.000   147609023.687          47.313    36658592.668   155114543.342          47.125  
C03  38700457.156   201522715.102          -0.301          41.188    38700454.715   155830149.384          42.625    38700448.621   163753717.029          42.688  
C04  37550286.547   195533948.814         -19.449          43.188    37550283.809   151199240.973          45.000    37550277.125   158887507.541          45.625  
C07  36600550.344   190589413.421       -1045.746          45.125    36600546.672   147375538.765          48.813    36600537.590   154869654.064          48.813  
C08  36632288.836   190753930.352        -210.270          45.188    36632284.176   147502581.006          48.000    36632275.973   155002712.619          48.813  
C10  36396727.180   189527576.742        -447.305          45.375    36396725.258   146554276.699          48.000    36396715.707   154006197.638          48.625  
C11  24033990.508   125150611.861        2132.203          43.313    24033991.207    96774913.641          45.125    24033981.652   101695666.106          45.625  
C12  21575170.359   112348312.078        -159.461          47.375    21575167.926    86874538.246          52.313    21575160.070    91291888.132          54.375  
> 2012 10 14 00 00 30.0000000  0  8                     
C01  36658611.946   190891038.575         -34.352          44.313    36658604.238   147609050.099          47.625    36658599.258   155114571.096          46.688  
C03  38700457.617   201522715.391          -0.403          40.813    38700454.480   155830149.608          42.313    38700448.504   163753717.268          42.625  
C04  37550290.391   195533968.138         -19.348          43.313    37550287.594   151199255.916          45.313    37550280.797   158887523.246          45.313  
C07  36600750.961   190590459.249       -1045.949          45.125    36600747.586   147376347.463          49.000    36600738.152   154870503.884          48.813  
C08  36632329.156   190754140.604        -210.352          44.875    36632324.469   147502743.587          48.313    36632316.379   155002883.468          48.813  
C10  36396813.078   189528024.105        -447.496          45.313    36396811.336   146554622.629          48.813    36396802.074   154006561.153          48.313  
C11  24033580.774   125148479.722        2131.961          43.125    24033581.801    96773264.934          44.875    24033572.188   101693933.570          45.625  
C12  21575200.508   112348471.613        -159.773          47.188    21575198.321    86874661.608          52.375    21575190.465    91292017.763          54.313  
> 2012 10 14 00 00 31.0000000  0  8                     
C01  36658618.430   190891072.837         -34.156          44.125    36658611.074   147609076.588          46.875    36658605.738   155114598.937          46.688  
C03  38700457.586   201522715.779          -0.359          41.000    38700454.465   155830149.906          42.125    38700448.601   163753717.580          42.875  
C04  37550294.266   195533987.608         -19.406          42.875    37550291.145   151199270.967          45.125    37550284.461   158887539.062          45.500  
C07  36600952.359   190591505.334       -1046.039          44.688    36600948.430   147377156.359          48.625    36600939.227   154871353.908          48.813  
C08  36632369.610   190754350.905        -210.102          44.875    36632364.734   147502906.206          48.313    36632356.762   155003054.360          49.000  
C10  36396899.297   189528471.755        -447.652          45.000    36396897.195   146554968.779          48.625    36396887.821   154006924.907          48.188  
C11  24033171.695   125146347.940        2131.820          43.375    24033172.192    96771616.515          44.875    24033162.578   101692201.323          45.625  
C12  21575231.680   112348631.592        -160.055          47.375    21575229.313    86874785.311          52.313    21575221.402    91292147.766          54.188  
> 2012 10 14 00 00 32.0000000  0  8                     
C01  36658624.844   190891107.130         -34.281          43.875    36658617.563   147609103.111          47.000    36658612.054   155114626.807          46.813  
C03  38700457.789   201522716.146          -0.281          40.625    38700454.418   155830150.190          42.000    38700448.672   163753717.884          42.875  
C04  37550297.984   195534007.069         -19.438          42.813    37550294.598   151199286.017          44.875    37550288.269   158887554.878          45.375  
C07  36601153.219   190592551.576       -1046.305          44.500    36601149.340   147377965.375          49.000    36601140.136   154872204.064          49.188  
C08  36632410.086   190754561.258        -210.356          44.688    36632405.602   147503068.864          48.188    36632397.399   155003225.287          49.125  
C10  36396985.235   189528919.556        -447.875          44.875    36396983.434   146555315.053          48.875    36396974.055   154007288.784          48.375  
C11  24032762.578   125144216.451        2131.375          43.625    24032763.047    96769968.309          45.313    24032753.437   101690469.311          45.625  
C12  21575262.344   112348791.936        -160.476          47.375    21575260.258    86874909.303          52.125    21575252.114    91292278.053          54.188  
> 2012 10 14 00 00 33.0000000  0  8                     
C01  36658631.555   190891141.372         -34.227          44.125    36658624.019   147609129.589          47.188    36658618.571   155114654.632          46.625  
C03  38700458.258   201522716.489          -0.344          40.625    38700454.582   155830150.458          42.375    38700448.898   163753718.158          43.000  
C04  37550301.781   195534026.502         -19.426          43.125    37550298.836   151199301.045          44.625    37550291.981   158887570.666          45.500  
C07  36601354.031   190593597.953       -1046.445          44.875    36601350.129   147378774.501          48.813    36601341.102   154873054.336          49.500  
C08  36632450.555   190754771.536        -210.317          44.875    36632445.699   147503231.462          48.188    36632437.727   155003396.152          49.313  
C10  36397071.273   189529367.515        -448.090          45.125    36397069.625   146555661.438          48.500    36397059.953   154007652.787          48.313  
C11  24032352.961   125142085.168        2131.164          43.375    24032353.684    96768320.263          45.375    24032344.070   101688737.473          45.813  
C12  21575293.070   112348952.561        -160.730          47.375    21575291.027    86875033.511          52.188    21575283.176    91292408.583          54.375  
> 2012 10 14 00 00 34.0000000  0  8                     
C01  36658638.359   190891175.744         -34.242          44.500    36658631.039   147609156.164          47.688    36658625.469   155114682.563          46.500  
C03  38700457.633   201522716.974          -0.379          40.500    38700454.848   155830150.834          42.375    38700448.926   163753718.556          43.000  
C04  37550305.148   195534046.054         -19.449          43.000    37550302.488   151199316.161          44.625    37550295.804   158887586.557          45.500  
C07  36601555.133   190594644.598       -1046.551          44.625    36601550.973   147379583.829          48.813    36601542.008   154873904.819          49.625  
C08  36632490.734   190754981.950        -210.317          44.688    36632486.063   147503394.165          48.188    36632477.973   155003567.131          49.125  
C10  36397157.086   189529815.752        -448.148          45.000    36397155.555   146556008.037          48.688    36397146.176   154008017.015          48.375  
C11  24031943.812   125139954.285        2130.941          43.375    24031944.699    96766672.535          45.375    24031934.914   101687005.952          45.688  
C12  21575324.390   112349113.659        -161.102          47.500    21575321.808    86875158.082          52.375    21575313.777    91292539.489          54.813  
> 2012 10 14 00 00 35.0000000  0  8                     
C01  36658644.726   190891209.988         -34.176          45.000    36658637.390   147609182.643          47.500    36658631.883   155114710.387          46.688  
C03  38700458.320   201522717.345          -0.289          40.625    38700455.332   155830151.117          42.313    38700449.297   163753718.858          42.875  
C04  37550309.422   195534065.478         -19.293          43.000    37550306.133   151199331.175          44.688    37550299.391   158887602.334          45.125  
C07  36601756.102   190595691.301       -1046.664          44.625    36601752.164   147380393.204          48.688    36601743.078   154874755.345          49.500  
C08  36632530.867   190755192.243        -210.188          44.875    36632526.340   147503556.779          48.125    36632518.250   155003738.010          49.000  
C10  36397243.328   189530264.082        -448.285          45.000    36397241.578   146556354.715          48.500    36397232.082   154008381.321          48.375  
C11  24031534.781   125137823.546        2130.679          43.375    24031535.707    96765024.920          45.500    24031525.859   101685274.553          45.875  
C12  21575354.984   112349274.993        -161.430          47.500    21575352.937    86875282.833          52.375    21575344.734    91292670.586          54.188  
> 2012 10 14 00 00 36.0000000  0  8                     
C01  36658651.258   190891244.289         -34.363          45.188    36658643.969   147609209.165          47.813    36658638.692   155114738.256          46.625  
C03  38700457.922   201522717.757          -0.437          40.188    38700455.265   155830151.438          42.313    38700449.110   163753719.192          42.375  
C04  37550312.984   195534084.955         -19.445          43.313    37550310.031   151199346.235          44.875    37550303.465   158887618.158          45.313  
C07  36601956.961   190596738.190       -1046.945          45.000    36601953.164   147381202.725          48.500    36601944.312   154875606.028          49.625  
C08  36632571.758   190755402.586        -210.383          45.000    36632567.172   147503719.423          48.313    36632558.965   155003908.929          48.875  
C10  36397329.789   189530712.583        -448.535          45.188    36397328.168   146556701.523          48.313    36397318.438   154008745.762          48.500  
C11  24031125.649   125135693.103        2130.379          43.375    24031126.148    96763377.529          45.813    24031116.359   101683543.393          46.000  
C12  21575386.094   112349436.682        -161.894          47.500    21575383.895    86875407.858          52.500    21575375.984    91292801.971          53.875  
> 2012 10 14 00 00 37.0000000  0  8                     
C01  36658658.117   190891278.465         -34.125          45.000    36658650.418   147609235.595          47.875    36658645.320   155114766.023          46.813  
C03  38700458.508   201522718.028          -0.156          41.125    38700455.176   155830151.645          42.125    38700449.078   163753719.415          42.875  
C04  37550316.625   195534104.304         -19.367          43.688    37550313.680   151199361.197          44.813    37550307.113   158887633.882          45.375  
C07  36602158.133   190597785.119       -1046.965          45.000    36602154.566   147382012.276          48.625    36602145.363   154876456.741          49.375  
C08  36632612.133   190755612.807        -210.207          45.375    36632607.289   147503881.980          48.313    36632599.320   155004079.748          49.188  
C10  36397415.508   189531161.200        -448.766          45.000    36397413.738   146557048.427          48.000    36397404.301   154009110.303          48.375  
C11  24030715.945   125133562.824        2130.184          42.875    24030716.899    96761730.257          45.875    24030707.461   101681812.375          46.000  
C12  21575417.305   112349598.593        -162.062          47.500    21575414.824    86875533.062          52.688    21575407.027    91292933.531          53.813  
> 2012 10 14 00 00 38.0000000  0  8                     
C01  36658664.398   190891312.724         -34.316          44.875    36658657.106   147609262.084          48.000    36658651.535   155114793.864          46.688  
C03  38700458.172   201522718.386          -0.340          41.000    38700454.856   155830151.922          41.688    38700448.992   163753719.703          42.625  
C04  37550320.281   195534123.711         -19.375          43.625    37550317.395   151199376.201          44.875    37550310.832   158887649.650          45.375  
C07  36602359.336   190598832.286       -1047.285          45.313    36602355.418   147382822.013          48.688    36602346.160   154877307.650          49.188  
C08  36632652.797   190755823.084        -210.273          45.625    36632647.636   147504044.580          48.375    36632639.723   155004250.622          48.875  
C10  36397501.867   189531610.047        -448.953          45.188    36397500.160   146557395.508          48.125    36397490.785   154009475.032          48.688  
C11  24030307.422   125131432.910        2129.758          43.000    24030308.164    96760083.278          46.000    24030298.613   101680081.646          45.625  
C12  21575448.477   112349760.926        -162.469          47.313    21575446.367    86875658.590          52.688    21575438.277    91293065.441          53.375  
> 2012 10 14 00 00 39.0000000  0  8                     
C01  36658671.141   190891346.998         -34.305          43.875    36658663.906   147609288.585          47.875    36658658.574   155114821.712          46.875  
C03  38700458.492   201522718.752          -0.375          40.625    38700455.527   155830152.206          41.688    38700449.492   163753719.994          42.625  
C04  37550323.992   195534143.161         -19.524          43.000    37550320.887   151199391.246          44.500    37550314.441   158887665.455          45.375  
C07  36602560.570   190599879.629       -1047.485          44.875    36602556.269   147383631.884          48.625    36602547.359   154878158.698          49.500  
C08  36632692.961   190756033.426        -210.344          44.688    36632687.984   147504207.230          48.375    36632680.012   155004421.543          49.500  
C10  36397588.015   189532059.124        -449.203          45.125    36397586.141   146557742.764          48.313    36397576.703   154009839.948          48.813  
C11  24029898.649   125129303.255        2129.406          42.625    24029898.945    96758436.495          45.625    24029889.512   101678351.123          45.875  
C12  21575479.765   112349923.653        -162.887          47.500    21575477.414    86875784.415          52.875    21575469.324    91293197.671          53.000  
> 2012 10 14 00 00 40.0000000  0  8                     
C01  36658677.758   190891381.368         -34.191          43.875    36658670.250   147609315.162          48.000    36658664.976   155114849.640          47.188  
C03  38700458.532   201522719.216          -0.278          40.375    38700455.301   155830152.565          41.375    38700449.437   163753720.367          42.625  
C04  37550327.492   195534162.703         -19.387          42.813    37550324.949   151199406.355          44.625    37550318.386   158887681.338          45.813  
C07  36602761.344   190600927.208       -1047.477          44.313    36602757.399   147384441.938          48.688    36602748.547   154879009.939          49.625  
C08  36632733.102   190756243.799        -210.168          44.625    36632728.367   147504369.903          48.375    36632720.340   155004592.487          49.375  
C10  36397674.156   189532508.434        -449.207          45.000    36397672.731   146558090.197          47.813    36397663.176   154010205.047          48.875  
C11  24029490.156   125127173.941        2129.398          42.688    24029489.903    96756789.974          45.813    24029480.582   101676620.878          46.188  
C12  21575510.867   112350086.785        -163.133          47.375    21575508.738    86875910.561          52.813    21575500.590    91293330.227          53.625  
> 2012 10 14 00 00 41.0000000  0  8                     
C01  36658684.219   190891415.707         -34.355          43.875    36658676.973   147609341.711          48.000    36658671.640   155114877.541          47.000  
C03  38700458.656   201522719.687          -0.508          40.313    38700455.250   155830152.933          42.125    38700449.274   163753720.751          42.313  
C04  37550331.992   195534182.224         -19.610          42.625    37550328.465   151199421.450          44.813    37550321.840   158887697.200          45.500  
C07  36602962.641   190601974.959       -1047.891          44.625    36602958.727   147385252.128          48.688    36602949.586   154879861.323          49.313  
C08  36632773.492   190756454.187        -210.410          44.688    36632768.977   147504532.590          48.813    36632760.711   155004763.441          49.625  
C10  36397760.469   189532957.943        -449.696          45.000    36397758.723   146558437.786          48.313    36397749.344   154010570.308          48.688  
C11  24029080.437   125125044.918        2128.832          43.000    24029081.293    96755143.677          45.813    24029071.738   101674890.879          45.875  
C12  21575542.391   112350250.261        -163.738          47.313    21575540.137    86876036.973          53.000    21575532.164    91293463.061          53.688  
> 2012 10 14 00 00 42.0000000  0  8                     
C01  36658690.844   190891450.004         -34.191          44.313    36658683.172   147609368.234          48.125    36658677.957   155114905.412          47.000  
C03  38700458.399   201522720.107          -0.434          40.313    38700455.820   155830153.253          41.813    38700449.899   163753721.091          42.125  
C04  37550335.110   195534201.681         -19.321          42.500    37550332.101   151199436.496          44.375    37550325.598   158887713.011          45.688  
C07  36603163.742   190603022.772       -1047.828          44.688    36603160.180   147386062.360          48.625    36603151.098   154880712.758          49.625  
C08  36632813.859   190756664.478        -210.239          45.188    36632809.164   147504695.202          48.813    36632801.078   155004934.321          49.500  
C10  36397846.781   189533407.554        -449.633          45.125    36397845.289   146558785.449          48.688    36397835.676   154010935.651          48.625  
C11  24028671.773   125122916.075        2128.758          43.000    24028671.902    96753497.530          45.688    24028662.816   101673161.025          45.813  
C12  21575573.758   112350414.004        -163.828          47.500    21575571.707    86876163.587          53.000    21575563.617    91293596.117          53.375  
> 2012 10 14 00 00 43.0000000  0  8                     
C01  36658697.148   190891484.271         -34.270          44.188    36658689.965   147609394.731          48.125    36658684.574   155114933.255          46.875  
C03  38700458.516   201522720.446          -0.500          40.188    38700455.437   155830153.520          41.813    38700449.871   163753721.368          42.625  
C04  37550339.375   195534221.112         -19.457          42.688    37550335.899   151199451.516          44.125    37550329.390   158887728.796          45.375  
C07  36603364.992   190604070.721       -1048.070          45.000    36603361.090   147386872.700          48.125    36603352.125   154881564.305          49.625  
C08  36632854.594   190756874.746        -210.246          44.875    36632849.289   147504857.788          49.188    36632841.375   155005105.180          49.125  
C10  36397933.625   189533857.279        -449.832          45.125    36397931.476   146559133.207          48.375    36397922.215   154011301.089          48.813  
C11  24028263.227   125120787.442        2128.488          42.875    24028263.309    96751851.533          45.688    24028253.988   101671431.336          45.500  
C12  21575605.336   112350578.052        -164.227          47.375    21575603.039    86876290.437          52.500    21575595.070    91293729.421          53.375  
> 2012 10 14 00 00 44.0000000  0  8                     
C01  36658703.867   190891518.519         -34.289          44.125    36658696.383   147609421.213          48.188    36658691.105   155114961.086          46.875  
C03  38700458.477   201522720.818          -0.278          40.000    38700455.324   155830153.809          41.688    38700449.934   163753721.676          42.313  
C04  37550343.016   195534240.531         -19.461          42.313    37550339.617   151199466.531          44.000    37550333.113   158887744.573          45.313  
C07  36603566.399   190605118.834       -1048.129          44.688    36603562.375   147387683.160          48.188    36603553.465   154882415.980          49.188  
C08  36632894.766   190757085.033        -210.344          44.688    36632890.094   147505020.399          48.875    36632881.887   155005276.056          48.813  
C10  36398019.938   189534307.231        -450.008          44.875    36398017.898   146559481.135          48.375    36398008.754   154011666.709          49.000  
C11  24027854.586   125118659.093        2128.211          43.125    24027854.621    96750205.757          46.125    24027845.359   101669701.884          45.875  
C12  21575636.891   112350742.436        -164.531          47.188    21575635.273    86876417.551          52.500    21575627.008    91293862.998          53.813  
> 2012 10 14 00 00 45.0000000  0  8                     
C01  36658710.476   190891552.837         -34.383          44.125    36658703.566   147609447.746          48.000    36658698.176   155114988.972          47.188  
C03  38700458.438   201522721.280          -0.527          40.813    38700455.598   155830154.160          41.813    38700449.914   163753722.053          42.688  
C04  37550346.758   195534260.008         -19.539          42.625    37550343.289   151199481.590          43.813    37550336.898   158887760.396          45.375  
C07  36603767.774   190606167.137       -1048.418          45.125    36603763.559   147388493.771          48.188    36603754.590   154883267.808          49.188  
C08  36632934.961   190757295.341        -210.301          44.813    36632930.016   147505183.019          48.813    36632922.160   155005446.948          49.188  
C10  36398105.945   189534757.393        -450.371          45.000    36398104.445   146559829.234          48.813    36398095.008   154012032.501          48.625  
C11  24027445.773   125116531.052        2127.887          42.875    24027446.078    96748560.214          46.000    24027436.699   101667972.669          46.000  
C12  21575668.750   112350907.228        -165.020          47.313    21575666.430    86876544.978          52.313    21575658.344    91293996.906          53.625  
> 2012 10 14 00 00 46.0000000  0  8                     
C01  36658717.156   190891587.089         -34.227          44.688    36658710.157   147609474.233          47.625    36658704.472   155115016.804          47.000  
C03  38700458.586   201522721.622          -0.270          40.500    38700455.879   155830154.423          41.813    38700449.961   163753722.334          42.625  
C04  37550350.703   195534279.457         -19.441          42.875    37550347.488   151199496.627          43.875    37550340.805   158887776.204          45.625  
C07  36603969.156   190607215.562       -1048.391          45.125    36603965.223   147389304.478          48.313    36603956.140   154884119.740          49.500  
C08  36632975.524   190757505.617        -210.168          44.625    36632971.156   147505345.618          49.000    36632962.953   155005617.810          49.313  
C10  36398192.781   189535207.656        -450.332          45.000    36398191.238   146560177.404          48.688    36398181.801   154012398.380          48.313  
C11  24027036.758   125114403.270        2127.797          42.813    24027036.992    96746914.880          45.875    24027027.848   101666243.674          46.000  
C12  21575699.953   112351072.305        -165.203          47.313    21575697.992    86876672.630          52.500    21575689.789    91294131.049          54.125  
> 2012 10 14 00 00 47.0000000  0  8                     
C01  36658723.805   190891621.397         -34.293          44.500    36658716.207   147609500.765          47.500    36658710.871   155115044.684          47.125  
C03  38700459.141   201522722.059          -0.395          40.188    38700455.605   155830154.765          42.000    38700449.981   163753722.690          43.188  
C04  37550353.571   195534298.917         -19.352          42.875    37550351.242   151199511.676          43.813    37550344.270   158887792.012          45.375  
C07  36604170.555   190608264.180       -1048.637          45.125    36604166.352   147390115.340          48.313    36604157.442   154884971.826          49.375  
C08  36633015.641   190757715.937        -210.356          44.875    36633010.977   147505508.254          48.875    36633002.887   155005788.714          49.125  
C10  36398279.367   189535658.178        -450.570          45.188    36398277.351   146560525.774          48.688    36398268.035   154012764.465          48.500  
C11  24026628.438   125112275.736        2127.359          42.500    24026628.930    96745269.744          45.375    24026619.844   101664514.880          45.375  
C12  21575732.227   112351237.752        -165.547          47.313    21575730.023    86876800.564          52.625    21575721.758    91294265.485          54.125  
> 2012 10 14 00 00 48.0000000  0  8                     
C01  36658730.235   190891655.785         -34.406          44.500    36658723.051   147609527.353          47.375    36658717.719   155115072.626          47.500  
C03  38700458.758   201522722.554          -0.473          40.625    38700455.699   155830155.149          42.000    38700450.016   163753723.095          42.875  
C04  37550358.062   195534318.476         -19.574          42.875    37550354.508   151199526.796          44.125    37550347.887   158887807.906          45.500  
C07  36604371.867   190609313.034       -1048.898          44.813    36604367.422   147390926.380          48.500    36604358.457   154885824.103          49.375  
C08  36633056.297   190757926.328        -210.500          44.688    36633052.012   147505670.938          48.625    36633043.808   155005959.672          49.375  
C10  36398366.062   189536108.958        -450.891          45.188    36398363.965   146560874.346          48.625    36398354.531   154013130.763          48.813  
C11  24026219.875   125110148.580        2126.886          42.625    24026220.398    96743624.902          45.000    24026211.141   101662786.397          45.625  
C12  21575764.000   112351403.647        -166.074          47.313    21575761.793    86876928.843          52.375    21575753.590    91294400.284          54.188  
> 2012 10 14 00 00 49.0000000  0  8                     
C01  36658736.891   190891690.072         -34.262          44.313    36658729.605   147609553.865          47.188    36658724.270   155115100.485          47.313  
C03  38700459.281   201522722.987          -0.473          40.625    38700456.054   155830155.483          41.875    38700450.308   163753723.449          43.000  
C04  37550361.742   195534337.945         -19.535          42.875    37550358.508   151199541.853          44.125    37550351.766   158887823.725          45.313  
C07  36604573.359   190610361.965       -1048.981          44.625    36604569.707   147391737.478          48.500    36604560.621   154886676.445          49.625  
C08  36633096.672   190758136.613        -210.430          44.500    36633091.840   147505833.542          48.625    36633083.750   155006130.546          49.188  
C10  36398452.360   189536559.830        -451.051          44.813    36398450.578   146561222.987          48.688    36398441.145   154013497.134          48.813  
C11  24025811.602   125108021.598        2126.812          42.625    24025811.484    96741980.186          45.000    24025802.461   101661058.053          45.125  
C12  21575795.844   112351569.793        -166.344          47.313    21575793.719    86877057.317          52.500    21575785.516    91294535.296          54.000  
> 2012 10 14 00 00 50.0000000  0  8                     
C01  36658743.492   190891724.307         -34.410          43.875    36658736.234   147609580.334          47.500    36658730.844   155115128.305          46.875  
C03  38700459.102   201522723.320          -0.449          40.375    38700455.895   155830155.740          42.000    38700450.265   163753723.715          42.875  
C04  37550365.211   195534357.312         -19.485          42.500    37550362.000   151199556.821          44.125    37550355.437   158887839.457          45.125  
C07  36604774.797   190611410.981       -1049.187          44.500    36604771.082   147392548.647          48.813    36604762.058   154887528.855          49.500  
C08  36633137.383   190758346.858        -210.481          44.688    36633132.406   147505996.115          48.188    36633124.320   155006301.385          49.188  
C10  36398539.039   189537010.809        -451.223          44.813    36398537.406   146561571.712          48.500    36398528.086   154013863.591          48.875  
C11  24025402.930   125105894.807        2126.524          42.813    24025403.215    96740335.609          45.188    24025394.191   101659329.860          45.375  
C12  21575827.500   112351736.177        -166.699          47.313    21575825.746    86877185.977          52.688    21575817.602    91294670.492          53.875  
> 2012 10 14 00 00 51.0000000  0  8                     
C01  36658750.219   190891758.630         -34.449          44.125    36658742.937   147609606.875          47.875    36658737.543   155115156.192          46.688  
C03  38700459.305   201522723.749          -0.535          40.625    38700456.187   155830156.074          42.000    38700450.211   163753724.056          42.688  
C04  37550368.703   195534376.781         -19.570          42.875    37550366.145   151199571.875          44.500    37550359.403   158887855.276          45.125  
C07  36604976.148   190612460.236       -1049.492          45.000    36604972.367   147393359.992          48.813    36604963.398   154888381.466          49.313  
C08  36633177.476   190758557.135        -210.387          44.813    36633172.617   147506158.716          48.000    36633164.762   155006472.249          49.125  
C10  36398625.578   189537462.043        -451.473          45.125    36398623.696   146561920.636          48.375    36398614.317   154014230.252          49.313  
C11  24024994.805   125103768.359        2126.188          42.875    24024994.859    96738691.310          45.688    24024985.719   101657601.949          45.375  
C12  21575859.742   112351903.007        -167.090          47.500    21575857.805    86877314.981          52.813    21575849.539    91294806.052          53.813  
> 2012 10 14 00 00 52.0000000  0  8                     
C01  36658756.445   190891792.972         -34.332          44.500    36658749.266   147609633.432          48.125    36658743.875   155115184.097          47.000  
C03  38700458.961   201522724.178          -0.449          40.625    38700456.250   155830156.407          42.000    38700450.449   163753724.404          42.500  
C04  37550372.695   195534396.300         -19.590          43.313    37550369.769   151199586.970          44.375    37550363.262   158887871.138          45.375  
C07  36605177.797   190613509.667       -1049.496          45.000    36605173.985   147394171.475          48.688    36605164.840   154889234.210          49.313  
C08  36633217.726   190758767.466        -210.320          45.000    36633212.680   147506321.352          48.188    36633204.766   155006643.159          49.188  
C10  36398712.141   189537913.492        -451.574          45.125    36398710.574   146562269.723          48.625    36398701.019   154014597.089          49.313  
C11  24024586.360   125101642.227        2126.020          43.125    24024586.633    96737047.250          45.188    24024577.547   101655874.296          45.125  
C12  21575891.867   112352070.209        -167.437          47.500    21575889.719    86877444.268          52.500    21575881.512    91294941.918          53.688  
> 2012 10 14 00 00 53.0000000  0  8                     
C01  36658762.946   190891827.247         -34.375          44.625    36658755.938   147609659.935          47.688    36658750.371   155115211.945          47.188  
C03  38700459.429   201522724.563          -0.465          40.813    38700456.121   155830156.703          41.875    38700450.555   163753724.723          42.375  
C04  37550376.274   195534415.709         -19.629          42.813    37550373.207   151199601.975          44.313    37550366.523   158887886.911          45.188  
C07  36605379.687   190614559.186       -1049.645          45.125    36605375.562   147394983.030          48.813    36605366.652   154890087.028          49.125  
C08  36633258.109   190758977.693        -210.317          44.688    36633253.414   147506483.915          48.000    36633245.500   155006813.986          49.625  
C10  36398799.063   189538365.007        -451.684          45.375    36398797.414   146562618.868          48.688    36398787.859   154014963.983          49.000  
C11  24024178.195   125099516.237        2125.765          43.500    24024178.133    96735403.301          45.375    24024169.164   101654146.755          45.375  
C12  21575923.898   112352237.656        -167.695          47.313    21575921.707    86877573.754          52.313    21575913.793    91295077.985          53.313  
> 2012 10 14 00 00 54.0000000  0  8                     
C01  36658770.031   190891861.521         -34.301          44.813    36658762.519   147609686.442          47.688    36658757.129   155115239.798          47.188  
C03  38700459.422   201522724.942          -0.418          40.875    38700456.676   155830156.997          42.188    38700450.699   163753725.034          42.125  
C04  37550379.953   195534435.120         -19.363          43.188    37550377.187   151199616.987          44.500    37550370.683   158887902.682          45.188  
C07  36605581.008   190615608.874       -1049.766          45.000    36605576.750   147395794.712          48.813    36605567.844   154890939.983          49.313  
C08  36633298.523   190759187.939        -210.227          45.125    36633293.961   147506646.490          48.000    36633286.047   155006984.829          49.500  
C10  36398885.836   189538816.712        -451.828          45.500    36398883.945   146562968.153          48.813    36398874.684   154015331.032          49.000  
C11  24023769.477   125097390.537        2125.527          43.125    24023770.008    96733759.576          45.188    24023760.863   101652419.449          45.688  
C12  21575956.344   112352405.470        -168.015          47.375    21575954.367    86877703.517          52.625    21575946.277    91295214.343          53.813  
> 2012 10 14 00 00 55.0000000  0  8                     
C01  36658776.070   190891895.825         -34.512          45.188    36658769.023   147609712.963          47.375    36658763.750   155115267.671          47.000  
C03  38700459.375   201522725.367          -0.637          41.125    38700456.617   155830157.325          42.188    38700450.641   163753725.378          42.188  
C04  37550383.703   195534454.600         -19.691          43.375    37550381.164   151199632.051          44.813    37550374.656   158887918.510          45.313  
C07  36605782.391   190616658.750       -1050.137          45.125    36605778.684   147396606.544          49.125    36605769.539   154891793.096          49.500  
C08  36633338.555   190759398.224        -210.422          45.000    36633334.086   147506809.095          48.000    36633326.293   155007155.702          48.875  
C10  36398972.391   189539268.657        -452.230          45.500    36398970.859   146563317.623          48.813    36398961.363   154015698.272          49.125  
C11  24023361.828   125095265.174        2125.051          43.125    24023361.992    96732116.112          45.000    24023352.906   101650692.416          45.625  
C12  21575988.453   112352573.645        -168.516          47.625    21575986.457    86877833.561          52.125    21575978.367    91295351.003          53.813  
> 2012 10 14 00 00 56.0000000  0  8                     
C01  36658782.969   190891930.060         -34.355          44.500    36658775.824   147609739.438          47.188    36658770.375   155115295.489          46.375  
C03  38700459.625   201522725.730          -0.320          40.500    38700456.332   155830157.604          42.313    38700450.586   163753725.673          42.875  
C04  37550387.273   195534473.959         -19.387          43.125    37550384.563   151199647.018          44.688    37550377.942   158887934.240          45.188  
C07  36605984.000   190617708.716       -1050.055          44.625    36605980.531   147397418.445          48.875    36605971.274   154892646.276          49.188  
C08  36633378.945   190759608.426        -210.152          44.500    36633374.902   147506971.639          48.000    36633366.817   155007326.510          49.000  
C10  36399059.453   189539720.688        -452.160          45.188    36399057.847   146563667.166          48.500    36399048.352   154016065.588          49.188  
C11  24022953.766   125093139.967        2125.125          43.000    24022953.906    96730472.767          45.000    24022944.590   101648965.513          45.375  
C12  21576020.844   112352742.095        -168.594          47.313    21576018.699    86877963.817          52.313    21576010.668    91295487.884          53.875  
> 2012 10 14 00 00 57.0000000  0  8                     
C01  36658789.430   190891964.372         -34.289          44.125    36658782.453   147609765.966          47.625    36658776.945   155115323.370          46.813  
C03  38700459.859   201522726.153          -0.403          40.688    38700456.680   155830157.937          42.125    38700450.996   163753726.019          42.500  
C04  37550391.461   195534493.428         -19.453          42.875    37550388.277   151199662.069          44.875    37550381.652   158887950.064          45.375  
C07  36606185.203   190618758.908       -1050.188          44.625    36606181.715   147398230.520          49.000    36606172.809   154893499.639          48.813  
C08  36633419.414   190759818.706        -210.156          44.625    36633415.066   147507134.236          48.125    36633407.039   155007497.376          49.125  
C10  36399146.172   189540172.982        -452.371          45.000    36399144.828   146564016.906          48.625    36399135.215   154016433.108          49.125  
C11  24022545.672   125091015.104        2124.824          42.625    24022545.918    96728829.698          45.375    24022536.660   101647238.890          45.813  
C12  21576053.352   112352910.963        -168.953          47.188    21576051.149    86878094.391          52.688    21576043.117    91295625.108          54.000  
> 2012 10 14 00 00 58.0000000  0  8                     
C01  36658796.289   190891998.674         -34.254          44.313    36658788.785   147609792.487          47.500    36658783.512   155115351.243          47.000  
C03  38700459.687   201522726.568          -0.387          40.000    38700456.606   155830158.255          41.688    38700450.922   163753726.349          42.375  
C04  37550395.406   195534512.887         -19.469          42.375    37550392.149   151199677.115          44.875    37550385.465   158887965.875          45.625  
C07  36606388.000   190619809.274       -1050.438          44.500    36606383.578   147399042.725          49.125    36606374.672   154894353.146          49.000  
C08  36633460.578   190760028.967        -210.239          44.688    36633455.391   147507296.826          48.000    36633447.535   155007668.233          48.813  
C10  36399233.219   189540625.450        -452.504          44.875    36399231.078   146564366.783          48.625    36399221.875   154016800.775          49.125  
C11  24022137.320   125088890.517        2124.445          42.625    24022137.801    96727186.833          45.313    24022128.598   101645512.494          45.313  
C12  21576085.961   112353080.172        -169.410          47.375    21576083.742    86878225.240          52.688    21576075.715    91295762.601          54.188  
> 2012 10 14 00 00 59.0000000  0  8                     
C01  36658803.055   190892033.032         -34.418          43.875    36658795.277   147609819.057          48.125    36658789.828   155115379.161          46.813  
C03  38700459.250   201522727.041          -0.601          40.313    38700456.656   155830158.621          41.625    38700450.914   163753726.736          42.125  
C04  37550398.961   195534532.369         -19.664          42.375    37550396.129   151199692.181          44.375    37550389.449   158887981.701          45.500  
C07  36606589.562   190620859.802       -1050.805          44.313    36606585.379   147399855.060          48.688    36606576.180   154895206.781          49.125  
C08  36633500.258   190760239.275        -210.465          44.625    36633495.472   147507459.452          48.313    36633487.563   155007839.130          49.188  
C10  36399319.937   189541078.137        -452.914          45.000    36399318.234   146564716.829          48.625    36399308.855   154017168.627          49.125  
C11  24021729.742   125086766.220        2124.094          42.625    24021730.188    96725544.195          45.500    24021720.871   101643786.332          45.813  
C12  21576118.805   112353249.759        -169.906          47.313    21576116.055    86878356.373          52.813    21576108.141    91295900.402          53.875  
> 2012 10 14 00 01 00.0000000  0  8                     
C01  36658809.766   190892067.363         -34.219          43.875    36658802.352   147609845.601          48.188    36658796.844   155115407.055          46.500  
C03  38700459.360   201522727.487          -0.547          40.688    38700456.219   155830158.963          41.375    38700450.711   163753727.099          42.125  
C04  37550402.531   195534551.850         -19.480          42.375    37550399.438   151199707.241          44.188    37550392.817   158887997.530          45.625  
C07  36606790.906   190621910.471       -1050.719          44.625    36606786.855   147400667.499          48.375    36606778.238   154896060.538          48.875  
C08  36633540.867   190760449.563        -210.289          44.875    36633536.508   147507622.054          48.625    36633528.187   155008010.005          49.313  
C10  36399407.156   189541530.972        -452.887          45.000    36399405.226   146565066.985          48.375    36399395.848   154017536.584          49.313  
C11  24021321.476   125084642.178        2123.895          43.125    24021322.285    96723901.750          45.188    24021312.676   101642060.376          45.375  
C12  21576151.055   112353419.671        -170.086          47.375    21576148.746    86878487.760          52.688    21576140.715    91296038.470          54.188  
> 2012 10 14 00 01 01.0000000  0  8                     
C01  36658816.000   190892101.776         -34.270          44.500    36658808.644   147609872.208          48.000    36658803.195   155115435.022          46.500  
C03  38700459.422   201522728.029          -0.403          41.313    38700457.058   155830159.379          41.813    38700451.199   163753727.538          42.625  
C04  37550406.320   195534571.382         -19.297          43.000    37550403.430   151199722.341          44.125    37550396.687   158888013.398          45.500  
C07  36606993.031   190622961.389       -1050.871          44.813    36606988.828   147401480.140          48.125    36606979.922   154896914.493          49.625  
C08  36633581.312   190760659.927        -210.336          45.188    36633576.277   147507784.719          48.313    36633568.426   155008180.941          49.625  
C10  36399493.938   189541984.081        -453.121          45.375    36399492.285   146565417.360          48.313    36399482.910   154017904.771          48.813  
C11  24020914.117   125082518.481        2123.594          42.813    24020914.352    96722259.573          44.875    24020904.977   101640334.700          45.500  
C12  21576183.828   112353589.982        -170.351          47.375    21576181.758    86878619.455          52.688    21576173.668    91296176.863          54.000  
> 2012 10 14 00 01 02.0000000  0  8                     
C01  36658822.602   190892136.222         -34.633          44.688    36658815.586   147609898.846          48.000    36658810.074   155115463.007          46.688  
C03  38700459.820   201522728.554          -0.812          41.125    38700456.969   155830159.787          41.813    38700451.109   163753727.969          42.500  
C04  37550409.976   195534590.959         -19.785          43.375    37550407.324   151199737.480          44.125    37550400.524   158888029.307          45.000  
C07  36607194.609   190624012.459       -1051.332          44.875    36607190.942   147402292.892          48.125    36607181.914   154897768.575          49.188  
C08  36633621.656   190760870.281        -210.539          45.125    36633616.852   147507947.378          48.688    36633608.820   155008351.871          49.500  
C10  36399581.070   189542437.379        -453.637          45.125    36399579.547   146565767.875          48.375    36399569.996   154018273.116          49.000  
C11  24020505.703   125080395.035        2123.043          43.000    24020506.613    96720617.592          45.688    24020497.351   101638609.224          45.813  
C12  21576216.820   112353760.652        -171.000          47.375    21576214.281    86878751.424          52.813    21576206.484    91296315.545          54.125  
> 2012 10 14 00 01 03.0000000  0  8                     
C01  36658829.172   190892170.587         -34.426          44.813    36658822.035   147609925.414          48.125    36658816.527   155115490.933          46.813  
C03  38700459.594   201522729.037          -0.570          41.313    38700457.254   155830160.160          41.813    38700451.336   163753728.356          42.375  
C04  37550413.578   195534610.465         -19.485          43.188    37550411.094   151199752.565          44.000    37550404.355   158888045.154          45.188  
C07  36607396.812   190625063.639       -1051.199          45.313    36607392.598   147403105.728          48.000    36607383.629   154898622.753          48.813  
C08  36633662.102   190761080.568        -210.211          45.625    36633657.027   147508109.982          48.813    36633649.113   155008522.742          49.625  
C10  36399668.047   189542890.794        -453.528          45.688    36399666.390   146566118.488          48.500    36399656.953   154018641.554          48.500  
C11  24020098.242   125078271.813        2123.098          43.375    24020098.914    96718975.782          45.813    24020089.359   101636883.929          46.125  
C12  21576249.289   112353931.606        -171.168          47.813    21576247.105    86878883.619          53.000    21576239.250    91296454.460          53.875  
> 2012 10 14 00 01 04.0000000  0  8                     
C01  36658835.922   190892204.864         -34.406          44.875    36658828.594   147609951.926          48.125    36658823.145   155115518.783          46.813  
C03  38700460.359   201522729.434          -0.445          41.188    38700457.152   155830160.471          42.188    38700451.117   163753728.673          42.188  
C04  37550417.820   195534629.879         -19.570          43.000    37550414.563   151199767.571          43.625    37550407.938   158888060.926          44.813  
C07  36607598.609   190626114.887       -1051.481          45.000    36607594.567   147403918.620          48.313    36607585.539   154899476.972          48.625  
C08  36633702.563   190761290.753        -210.246          45.500    36633697.812   147508272.515          48.500    36633689.727   155008693.531          49.500  
C10  36399755.179   189543344.269        -453.621          45.813    36399753.356   146566469.143          48.625    36399743.977   154019010.041          48.500  
C11  24019690.594   125076148.768        2122.797          43.188    24019690.891    96717334.112          45.813    24019681.863   101635158.781          45.813  
C12  21576282.273   112354102.814        -171.480          47.625    21576279.957    86879016.007          52.688    21576271.871    91296593.580          53.688  
> 2012 10 14 00 01 05.0000000  0  8                     
C01  36658842.445   190892239.233         -34.215          44.813    36658835.461   147609978.499          48.188    36658830.008   155115546.712          46.688  
C03  38700460.070   201522729.922          -0.453          40.625    38700457.172   155830160.848          42.188    38700451.191   163753729.070          42.313  
C04  37550421.586   195534649.359         -19.422          42.875    37550418.332   151199782.636          43.688    37550411.887   158888076.760          45.375  
C07  36607800.961   190627166.377       -1051.449          44.688    36607796.578   147404731.698          48.375    36607787.551   154900331.392          48.688  
C08  36633742.477   190761501.043        -210.117          45.313    36633737.774   147508435.120          48.375    36633729.863   155008864.406          49.875  
C10  36399842.125   189543798.084        -453.770          45.500    36399840.727   146566820.054          48.500    36399831.289   154019378.799          48.813  
C11  24019282.898   125074026.076        2122.676          43.125    24019283.750    96715692.715          45.813    24019274.488   101633433.923          46.313  
C12  21576315.195   112354274.450        -171.621          47.500    21576312.762    86879148.721          52.500    21576304.851    91296733.050          53.813  
> 2012 10 14 00 01 06.0000000  0  8                     
C01  36658849.016   190892273.658         -34.215          45.188    36658841.953   147610005.113          47.813    36658836.328   155115574.684          46.813  
C03  38700459.977   201522730.457          -0.242          41.000    38700457.492   155830161.268          42.000    38700451.398   163753729.506          42.625  
C04  37550424.968   195534668.906         -19.313          43.188    37550422.133   151199797.748          43.688    37550415.336   158888092.641          45.813  
C07  36608002.617   190628218.065       -1051.492          45.000    36607998.145   147405544.929          48.188    36607989.238   154901185.971          48.875  
C08  36633783.133   190761711.379        -210.066          45.500    36633778.406   147508597.764          48.625    36633770.492   155009035.319          49.313  
C10  36399929.735   189544252.092        -453.891          45.688    36399928.125   146567171.121          48.375    36399918.512   154019747.711          49.000  
C11  24018875.274   125071903.691        2122.516          43.000    24018876.242    96714051.552          46.000    24018866.691   101631709.307          46.000  
C12  21576348.141   112354446.489        -171.980          47.813    21576346.262    86879281.753          52.313    21576338.055    91296872.849          53.500  
> 2012 10 14 00 01 07.0000000  0  8                     
C01  36658855.547   190892307.994         -34.355          45.188    36658848.457   147610031.662          47.688    36658843.004   155115602.577          46.813  
C03  38700460.250   201522730.909          -0.488          41.188    38700457.019   155830161.613          41.813    38700451.391   163753729.871          42.375  
C04  37550429.179   195534688.360         -19.387          43.625    37550425.645   151199812.791          43.813    37550419.136   158888108.448          46.000  
C07  36608204.492   190629269.843       -1051.848          44.688    36608200.449   147406358.227          48.313    36608191.422   154902040.627          48.688  
C08  36633823.672   190761921.626        -210.227          45.375    36633818.746   147508760.341          48.625    36633810.715   155009206.163          49.625  
C10  36400016.953   189544706.165        -454.152          46.000    36400015.184   146567522.233          48.625    36400005.746   154020116.671          49.000  
C11  24018467.734   125069781.484        2122.078          43.125    24018468.664    96712410.532          45.813    24018458.992   101629984.838          46.125  
C12  21576381.367   112354618.761        -172.484          47.500    21576379.418    86879414.969          52.500    21576371.328    91297012.835          53.688  
> 2012 10 14 00 01 08.0000000  0  8                     
C01  36658862.195   190892342.376         -34.512          45.313    36658854.930   147610058.248          47.625    36658849.656   155115630.519          46.625  
C03  38700460.437   201522731.419          -0.601          40.875    38700457.543   155830162.008          41.625    38700451.914   163753730.289          41.875  
C04  37550432.687   195534707.866         -19.644          43.375    37550429.312   151199827.874          44.125    37550422.926   158888124.298          45.813  
C07  36608406.867   190630321.848       -1052.258          44.875    36608402.648   147407171.700          48.188    36608393.621   154902895.469          48.875  
C08  36633863.930   190762131.953        -210.551          45.813    36633859.035   147508922.980          48.500    36633851.180   155009377.074          49.625  
C10  36400104.086   189545160.491        -454.531          45.813    36400102.242   146567873.545          48.688    36400092.926   154020485.850          49.188  
C11  24018060.492   125067659.623        2121.680          42.875    24018061.043    96710769.783          46.000    24018051.785   101628260.653          46.000  
C12  21576414.633   112354791.448        -172.942          47.500    21576412.430    86879548.500          52.625    21576404.223    91297153.154          53.688  
> 2012 10 14 00 01 09.0000000  0  8                     
C01  36658868.727   190892376.739         -34.277          44.813    36658861.781   147610084.819          47.500    36658856.211   155115658.439          46.500  
C03  38700460.758   201522731.914          -0.461          41.000    38700457.664   155830162.389          41.375    38700451.805   163753730.696          41.875  
C04  37550436.313   195534727.368         -19.379          43.188    37550433.219   151199842.952          44.188    37550426.539   158888140.143          46.125  
C07  36608608.500   190631373.972       -1052.168          45.125    36608604.543   147407985.271          48.000    36608595.457   154903750.403          49.125  
C08  36633904.453   190762342.239        -210.312          45.313    36633899.297   147509085.585          48.000    36633891.621   155009547.949          49.500  
C10  36400191.320   189545614.997        -454.566          45.813    36400189.508   146568224.997          48.688    36400180.246   154020855.175          48.625  
C11  24017652.984   125065537.989        2121.465          42.625    24017653.871    96709129.202          45.813    24017644.316   101626536.650          45.813  
C12  21576447.672   112354964.462        -173.140          47.500    21576445.758    86879682.283          51.875    21576437.609    91297293.744          53.688  
> 2012 10 14 00 01 10.0000000  0  8                     
C01  36658875.086   190892411.024         -34.062          45.313    36658867.750   147610111.327          47.625    36658862.477   155115686.297          46.188  
C03  38700460.985   201522732.334          -0.238          41.000    38700457.914   155830162.718          41.375    38700452.051   163753731.036          42.188  
C04  37550440.109   195534746.782         -19.199          43.375    37550436.804   151199857.958          44.125    37550430.066   158888155.912          45.625  
C07  36608810.547   190632426.161       -1052.054          45.375    36608806.504   147408798.886          48.125    36608797.597   154904605.390          49.125  
C08  36633944.594   190762552.420        -210.008          45.313    36633940.187   147509248.108          48.313    36633932.043   155009718.742          49.813  
C10  36400278.735   189546069.583        -454.496          45.875    36400276.652   146568576.519          48.375    36400267.215   154021224.566          48.688  
C11  24017245.195   125063416.541        2121.543          43.000    24017246.274    96707488.767          46.125    24017236.899   101624812.803          45.813  
C12  21576481.242   112355137.725        -173.223          47.500    21576478.652    86879816.267          52.125    21576471.031    91297434.541          53.813  
> 2012 10 14 00 01 11.0000000  0  8                     
C01  36658881.820   190892445.358         -34.101          45.313    36658874.777   147610137.878          47.625    36658869.387   155115714.195          46.375  
C03  38700460.633   201522732.793          -0.387          41.000    38700457.953   155830163.071          42.188    38700452.035   163753731.415          42.125  
C04  37550443.640   195534766.242         -19.254          43.375    37550440.766   151199873.009          44.188    37550434.145   158888171.726          45.688  
C07  36609012.820   190633478.565       -1052.313          45.375    36609008.523   147409612.669          48.313    36608999.496   154905460.548          49.188  
C08  36633984.945   190762762.653        -210.039          45.625    36633980.547   147509410.671          47.875    36633972.340   155009889.568          49.875  
C10  36400366.172   189546524.390        -454.840          45.688    36400364.340   146568928.206          48.375    36400354.902   154021594.132          48.625  
C11  24016837.563   125061295.408        2121.176          43.188    24016839.219    96705848.576          46.375    24016829.781   101623089.214          46.000  
C12  21576514.523   112355311.372        -173.660          47.500    21576512.156    86879950.542          52.313    21576503.891    91297575.659          53.813  
> 2012 10 14 00 01 12.0000000  0  8                     
C01  36658888.430   190892479.716         -34.535          44.625    36658881.395   147610164.442          47.813    36658875.828   155115742.113          46.688  
C03  38700461.078   201522733.263          -0.516          40.813    38700458.176   155830163.433          41.813    38700452.258   163753731.800          42.188  
C04  37550447.055   195534785.741         -19.707          43.188    37550444.496   151199888.083          44.500    37550437.812   158888187.568          45.813  
C07  36609215.016   190634531.138       -1052.801          45.313    36609210.605   147410426.587          48.125    36609201.930   154906315.856          49.188  
C08  36634025.430   190762972.907        -210.395          45.188    36634020.570   147509573.256          48.125    36634012.715   155010060.418          49.688  
C10  36400453.250   189546979.371        -455.141          45.813    36400451.719   146569280.024          48.375    36400442.227   154021963.842          48.625  
C11  24016430.891   125059174.555        2120.586          43.313    24016431.676    96704208.597          46.375    24016422.242   101621365.838          45.813  
C12  21576547.906   112355485.365        -174.301          47.500    21576545.640    86880085.082          52.313    21576537.433    91297717.046          54.125  
> 2012 10 14 00 01 13.0000000  0  8                     
C01  36658895.211   190892514.032         -34.274          45.313    36658887.910   147610190.975          47.813    36658882.402   155115769.997          46.813  
C03  38700460.891   201522733.702          -0.406          40.500    38700457.984   155830163.777          41.688    38700452.180   163753732.156          42.188  
C04  37550451.164   195534805.177         -19.477          43.813    37550448.391   151199903.111          44.875    37550441.653   158888203.366          45.625  
C07  36609417.234   190635583.807       -1052.746          45.875    36609412.996   147411240.579          48.188    36609404.090   154907171.233          48.813  
C08  36634065.633   190763183.109        -210.109          45.875    36634061.074   147509735.795          48.000    36634053.164   155010231.223          50.000  
C10  36400541.047   189547434.509        -455.195          46.188    36400539.348   146569631.965          48.688    36400529.735   154022333.679          48.625  
C11  24016023.586   125057053.925        2120.554          43.875    24016024.215    96702568.796          46.688    24016014.664   101619642.650          45.500  
C12  21576581.594   112355659.655        -174.453          47.688    21576579.090    86880219.856          52.625    21576570.883    91297858.672          54.125  
> 2012 10 14 00 01 14.0000000  0  8                     
C01  36658902.016   190892548.440         -34.543          45.375    36658894.809   147610217.586          47.625    36658889.418   155115797.956          46.813  
C03  38700461.172   201522734.223          -0.617          40.688    38700457.945   155830164.176          41.500    38700452.203   163753732.575          42.625  
C04  37550455.000   195534824.704         -19.785          43.813    37550452.039   151199918.212          45.125    37550445.414   158888219.230          45.688  
C07  36609619.000   190636636.729       -1053.129          45.625    36609615.058   147412054.766          48.188    36609605.918   154908026.822          49.125  
C08  36634106.141   190763393.393        -210.492          45.500    36634101.067   147509898.397          48.188    36634093.035   155010402.095          50.188  
C10  36400628.203   189547889.900        -455.641          46.000    36400626.059   146569984.101          48.500    36400616.856   154022703.721          48.875  
C11  24015616.469   125054933.656        2119.942          43.500    24015617.074    96700929.271          46.000    24015607.699   101617919.758          45.625  
C12  21576614.828   112355834.392        -175.039          47.625    21576612.863    86880354.974          52.813    21576604.598    91298000.652          54.375  
> 2012 10 14 00 01 15.0000000  0  8                     
C01  36658908.578   190892582.733         -34.348          45.313    36658901.367   147610244.102          47.875    36658896.031   155115825.821          46.375  
C03  38700461.281   201522734.647          -0.469          40.500    38700458.023   155830164.507          41.688    38700452.336   163753732.918          42.000  
C04  37550458.836   195534844.105         -19.457          43.625    37550455.817   151199933.210          45.125    37550449.020   158888234.993          45.625  
C07  36609821.242   190637689.720       -1053.125          45.625    36609817.441   147412868.999          48.375    36609808.649   154908882.462          49.375  
C08  36634146.477   190763603.569        -210.262          45.313    36634141.707   147510060.924          48.313    36634133.680   155010572.882          49.875  
C10  36400715.476   189548345.361        -455.613          46.125    36400713.922   146570336.294          48.813    36400704.601   154023073.822          48.875  
C11  24015209.406   125052813.520        2120.000          43.000    24015210.024    96699289.855          46.375    24015200.645   101616196.976          45.625  
C12  21576648.469   112356009.349        -175.223          47.500    21576646.344    86880490.262          52.813    21576638.078    91298142.820          54.125  
> 2012 10 14 00 01 16.0000000  0  8                     
C01  36658914.813   190892617.045         -34.399          45.500    36658907.836   147610270.632          47.813    36658902.500   155115853.701          46.625  
C03  38700461.437   201522735.120          -0.578          40.500    38700458.168   155830164.871          41.125    38700452.422   163753733.299          42.125  
C04  37550462.617   195534863.511         -19.496          43.500    37550459.457   151199948.213          44.625    37550452.953   158888250.760          45.813  
C07  36610023.477   190638742.851       -1053.195          45.625    36610019.691   147413683.345          48.500    36610010.429   154909738.216          49.688  
C08  36634186.899   190763813.740        -210.183          45.125    36634182.141   147510223.439          48.625    36634174.231   155010743.659          50.125  
C10  36400803.383   189548801.031        -455.781          46.188    36400801.496   146570688.648          48.875    36400792.121   154023444.096          49.125  
C11  24014802.617   125050693.672        2119.707          43.625    24014802.891    96697650.655          46.375    24014793.570   101614474.430          45.875  
C12  21576682.445   112356184.641        -175.488          47.375    21576679.906    86880625.808          52.688    21576671.820    91298285.254          53.813  
> 2012 10 14 00 01 17.0000000  0  8                     
C01  36658921.844   190892651.380         -34.297          45.813    36658914.340   147610297.180          48.313    36658908.949   155115881.602          46.875  
C03  38700461.226   201522735.561          -0.574          40.313    38700457.832   155830165.214          41.313    38700452.320   163753733.661          42.500  
C04  37550466.219   195534882.934         -19.301          43.125    37550462.851   151199963.233          44.875    37550456.582   158888266.540          46.188  
C07  36610225.813   190639796.168       -1053.414          45.188    36610221.863   147414497.840          48.813    36610212.840   154910594.117          49.313  
C08  36634227.219   190764023.936        -210.125          44.875    36634222.422   147510385.976          48.688    36634214.508   155010914.462          49.375  
C10  36400890.758   189549256.906        -455.922          45.875    36400889.035   146571041.160          49.125    36400879.539   154023814.530          48.625  
C11  24014395.312   125048574.122        2119.398          43.688    24014395.828    96696011.688          46.000    24014386.567   101612752.131          45.813  
C12  21576715.813   112356360.314        -175.781          47.313    21576713.726    86880761.649          52.688    21576705.641    91298428.005          53.500  
> 2012 10 14 00 01 18.0000000  0  8                     
C01  36658928.515   190892685.670         -34.328          45.813    36658921.031   147610323.696          48.375    36658915.465   155115909.468          46.375  
C03  38700461.281   201522735.963          -0.488          40.875    38700457.973   155830165.523          41.688    38700452.406   163753733.990          42.813  
C04  37550470.000   195534902.346         -19.492          43.188    37550466.719   151199978.246          44.875    37550460.390   158888282.315          45.813  
C07  36610428.125   190640849.607       -1053.582          44.875    36610423.805   147415312.422          49.000    36610414.953   154911450.124          48.813  
C08  36634267.711   190764234.091        -210.254          45.313    36634262.902   147510548.480          49.000    36634254.875   155011085.232          49.313  
C10  36400978.250   189549712.923        -456.192          45.813    36400976.648   146571393.781          48.875    36400966.859   154024185.082          48.813  
C11  24013988.398   125046454.785        2119.180          43.625    24013988.797    96694372.887          45.875    24013979.301   101611029.993          45.188  
C12  21576749.969   112356536.276        -176.164          47.500    21576747.637    86880897.711          53.000    21576739.488    91298570.990          53.500  
> 2012 10 14 00 01 19.0000000  0  8                     
C01  36658934.773   190892720.116         -34.457          44.625    36658927.699   147610350.329          48.313    36658922.070   155115937.457          46.375  
C03  38700461.391   201522736.525          -0.516          40.188    38700458.781   155830165.960          41.688    38700452.746   163753734.448          42.813  
C04  37550473.539   195534921.899         -19.586          43.313    37550470.668   151199993.360          44.625    37550464.047   158888298.204          45.188  
C07  36610630.578   190641903.326       -1053.836          44.688    36610626.472   147416127.222          49.313    36610617.508   154912306.354          48.813  
C08  36634307.782   190764444.374        -210.359          44.625    36634303.438   147510711.081          49.000    36634295.176   155011256.103          49.313  
C10  36401065.828   189550169.254        -456.395          45.313    36401064.238   146571746.643          48.813    36401054.805   154024555.890          49.188  
C11  24013581.766   125044335.872        2118.801          43.188    24013581.926    96692734.416          46.313    24013572.254   101609308.205          45.188  
C12  21576783.437   112356712.729        -176.656          47.313    21576781.188    86881034.157          52.875    21576773.156    91298714.373          53.813  
> 2012 10 14 00 01 20.0000000  0  8                     
C01  36658941.430   190892754.386         -34.207          44.625    36658934.016   147610376.824          48.000    36658928.625   155115965.301          47.125  
C03  38700461.367   201522736.919          -0.414          40.500    38700458.512   155830166.262          42.313    38700452.649   163753734.766          42.813  
C04  37550477.695   195534941.260         -19.363          43.188    37550474.242   151200008.328          44.375    37550467.739   158888313.934          45.625  
C07  36610833.000   190642957.049       -1053.864          44.688    36610829.012   147416942.030          49.000    36610819.930   154913162.594          49.000  
C08  36634348.375   190764654.498        -210.156          44.500    36634343.590   147510873.556          48.625    36634335.617   155011426.847          49.500  
C10  36401153.601   189550625.573        -456.484          45.375    36401151.851   146572099.495          48.813    36401142.414   154024926.680          49.313  
C11  24013174.508   125042217.039        2118.633          43.125    24013175.270    96691096.000          46.000    24013165.597   101607586.482          45.500  
C12  21576817.570   112356889.356        -176.840          47.625    21576815.223    86881170.740          52.813    21576807.133    91298857.896          54.000  
> 2012 10 14 00 01 21.0000000  0  8                     
C01  36658947.844   190892788.695         -34.324          44.625    36658940.570   147610403.356          48.313    36658935.234   155115993.177          46.875  
C03  38700461.906   201522737.356          -0.445          40.500    38700458.664   155830166.603          42.125    38700452.918   163753735.123          42.688  
C04  37550481.430   195534960.698         -19.473          43.188    37550478.184   151200023.356          44.500    37550471.680   158888329.724          45.500  
C07  36611035.265   190644010.994       -1054.133          44.625    36611031.567   147417757.006          49.125    36611022.422   154914019.013          49.188  
C08  36634388.164   190764864.662        -210.172          44.688    36634383.805   147511036.075          48.625    36634375.660   155011597.616          49.188  
C10  36401241.383   189551082.110        -456.715          45.188    36401239.680   146572452.518          48.813    36401230.301   154025297.659          48.813  
C11  24012767.500   125040098.513        2118.379          43.313    24012768.094    96689457.829          45.813    24012758.480   101605865.005          45.500  
C12  21576851.680   112357066.372        -177.207          47.375    21576849.184    86881307.621          52.813    21576841.035    91299001.737          53.813  
> 2012 10 14 00 01 22.0000000  0  8                     
C01  36658954.742   190892823.129         -34.293          44.188    36658947.500   147610429.976          48.188    36658941.933   155116021.155          47.125  
C03  38700461.742   201522737.868          -0.340          40.875    38700458.988   155830166.997          42.375    38700453.129   163753735.542          42.500  
C04  37550484.570   195534980.213         -19.430          42.688    37550481.738   151200038.442          44.625    37550475.351   158888345.579          45.688  
C07  36611237.805   190645065.196       -1054.160          44.625    36611233.715   147418572.180          48.875    36611224.692   154914875.637          48.875  
C08  36634429.023   190765074.910        -210.074          44.500    36634424.231   147511198.649          48.813    36634416.375   155011768.461          49.188  
C10  36401329.023   189551538.988        -456.867          45.000    36401327.367   146572805.810          48.188    36401317.813   154025668.910          49.125  
C11  24012360.656   125037980.370        2118.117          43.125    24012361.500    96687819.943          45.875    24012351.594   101604143.839          45.625  
C12  21576885.383   112357243.804        -177.469          47.500    21576883.226    86881444.816          53.000    21576875.258    91299145.914          53.813  
> 2012 10 14 00 01 23.0000000  0  8                     
C01  36658961.344   190892857.522         -34.399          44.375    36658953.906   147610456.576          48.125    36658948.457   155116049.101          47.000  
C03  38700462.039   201522738.392          -0.676          40.875    38700458.781   155830167.404          42.688    38700452.918   163753735.968          42.688  
C04  37550488.649   195534999.702         -19.504          43.125    37550485.441   151200053.518          44.688    37550478.879   158888361.415          45.688  
C07  36611440.148   190646119.537       -1054.465          44.688    36611436.433   147419387.457          49.000    36611427.527   154915732.373          49.188  
C08  36634469.289   190765285.167        -210.305          44.688    36634464.847   147511361.238          48.625    36634456.758   155011939.312          49.125  
C10  36401417.039   189551995.996        -457.094          45.375    36401415.492   146573159.197          48.500    36401405.883   154026040.265          49.125  
C11  24011953.773   125035862.485        2117.739          43.313    24011954.715    96686182.254          45.625    24011945.101   101602422.880          45.813  
C12  21576919.875   112357421.598        -178.008          47.500    21576917.461    86881582.301          52.813    21576909.316    91299290.388          53.875  
> 2012 10 14 00 01 24.0000000  0  8                     
C01  36658967.563   190892891.895         -34.383          44.688    36658960.672   147610483.154          47.813    36658955.106   155116077.035          47.188  
C03  38700462.000   201522738.907          -0.504          41.000    38700459.386   155830167.799          42.875    38700453.293   163753736.384          42.500  
C04  37550492.117   195535019.195         -19.535          43.000    37550489.297   151200068.586          44.625    37550482.735   158888377.255          45.813  
C07  36611642.742   190647173.999       -1054.527          44.875    36611638.520   147420202.834          49.125    36611629.609   154916589.207          49.188  
C08  36634509.672   190765495.406        -210.320          45.000    36634505.289   147511523.809          48.188    36634497.258   155012110.150          49.500  
C10  36401504.742   189552453.139        -457.250          45.813    36401502.937   146573512.687          48.375    36401493.324   154026411.725          49.125  
C11  24011547.320   125033744.825        2117.461          43.813    24011548.258    96684544.744          45.875    24011538.352   101600702.111          45.875  
C12  21576953.906   112357599.706        -178.277          47.625    21576951.766    86881720.020          52.813    21576943.680    91299435.114          53.813  
> 2012 10 14 00 01 25.0000000  0  8                     
C01  36658974.195   190892926.268         -34.473          45.000    36658967.078   147610509.738          47.688    36658961.746   155116104.971          47.000  
C03  38700462.094   201522739.416          -0.656          40.875    38700459.047   155830168.191          42.500    38700453.481   163753736.798          42.313  
C04  37550496.055   195535038.674         -19.598          43.625    37550493.500   151200083.651          44.625    37550486.469   158888393.083          45.625  
C07  36611845.391   190648228.596       -1054.699          45.188    36611841.770   147421018.314          49.000    36611832.625   154917446.154          49.313  
C08  36634550.203   190765705.613        -210.281          45.125    36634545.519   147511686.354          48.125    36634537.430   155012280.966          49.313  
C10  36401592.336   189552910.458        -457.531          46.125    36401590.750   146573866.310          48.375    36401581.195   154026783.332          49.313  
C11  24011140.867   125031627.419        2117.136          43.625    24011141.656    96682907.432          46.000    24011131.692   101598981.552          45.813  
C12  21576987.984   112357778.119        -178.625          47.688    21576985.863    86881857.980          52.688    21576977.774    91299580.089          53.500  
> 2012 10 14 00 01 26.0000000  0  8                     
C01  36658980.945   190892960.653         -34.422          45.375    36658973.570   147610536.329          47.813    36658968.356   155116132.911          47.000  
C03  38700462.172   201522739.903          -0.527          41.313    38700458.871   155830168.568          42.625    38700453.070   163753737.193          42.313  
C04  37550499.828   195535058.111         -19.480          43.813    37550496.824   151200098.678          44.813    37550490.199   158888408.876          45.813  
C07  36612047.640   190649283.375       -1054.879          45.313    36612043.629   147421833.938          48.625    36612034.606   154918303.246          49.000  
C08  36634590.805   190765915.798        -210.195          45.000    36634585.945   147511848.881          48.125    36634577.856   155012451.756          49.000  
C10  36401680.422   189553367.959        -457.605          45.875    36401678.305   146574220.081          48.625    36401668.984   154027155.088          49.188  
C11  24010734.547   125029510.274        2117.031          43.688    24010735.019    96681270.327          45.813    24010725.117   101597261.202          45.688  
C12  21577022.422   112357956.902        -179.051          47.500    21577020.273    86881996.233          52.500    21577011.949    91299725.367          53.500  
> 2012 10 14 00 01 27.0000000  0  8                     
C01  36658987.656   190892995.181         -34.649          45.500    36658980.403   147610563.029          47.688    36658975.012   155116160.968          47.000  
C03  38700462.242   201522740.581          -0.851          41.625    38700459.340   155830169.098          42.375    38700453.422   163753737.744          42.375  
C04  37550503.789   195535077.733         -19.688          44.188    37550500.691   151200113.851          44.688    37550493.836   158888424.821          45.500  
C07  36612250.578   190650338.457       -1055.332          45.625    36612246.352   147422649.795          48.688    36612237.441   154919160.581          48.688  
C08  36634630.860   190766126.162        -210.406          45.625    36634626.078   147512011.549          48.313    36634618.047   155012622.693          48.625  
C10  36401768.140   189553825.807        -458.102          46.313    36401766.715   146574574.120          48.813    36401757.219   154027527.127          49.125  
C11  24010327.812   125027393.582        2116.383          43.625    24010328.313    96679633.573          45.688    24010318.640   101595541.219          45.313  
C12  21577056.828   112358136.156        -179.523          47.813    21577054.340    86882134.839          52.813    21577046.250    91299871.024          53.875  
> 2012 10 14 00 01 28.0000000  0  8                     
C01  36658994.227   190893029.480         -34.140          45.188    36658986.934   147610589.547          47.500    36658981.539   155116188.836          46.875  
C03  38700462.258   201522740.997          -0.242          41.375    38700459.039   155830169.421          42.375    38700453.469   163753738.084          42.625  
C04  37550506.984   195535097.137         -19.235          44.125    37550504.270   151200128.851          44.875    37550497.707   158888440.590          45.125  
C07  36612452.969   190651393.489       -1054.895          45.313    36612448.602   147423465.611          48.688    36612439.984   154920017.879          49.000  
C08  36634671.086   190766336.291        -209.992          45.375    36634666.426   147512174.033          48.000    36634658.571   155012793.437          48.625  
C10  36401856.086   189554283.606        -457.672          46.500    36401854.547   146574928.117          48.625    36401845.114   154027899.123          48.625  
C11  24009921.289   125025276.912        2116.668          43.313    24009922.102    96677996.836          45.813    24009912.141   101593821.254          45.688  
C12  21577091.071   112358315.534        -179.383          47.688    21577089.027    86882273.547          52.813    21577080.820    91300016.785          54.375  
> 2012 10 14 00 01 29.0000000  0  8                     
C01  36659001.039   190893063.744         -34.164          45.375    36658993.250   147610616.035          47.500    36658987.914   155116216.675          46.688  
C03  38700462.164   201522741.379          -0.227          41.375    38700459.215   155830169.719          42.375    38700453.531   163753738.394          42.313  
C04  37550511.383   195535116.475         -19.254          44.188    37550508.328   151200143.802          45.125    37550501.414   158888456.296          45.000  
C07  36612655.922   190652448.629       -1055.074          45.500    36612651.387   147424281.511          48.813    36612642.477   154920875.272          48.625  
C08  36634711.625   190766546.362        -209.953          45.125    36634707.000   147512336.471          47.875    36634698.793   155012964.138          49.125  
C10  36401944.188   189554741.523        -457.863          46.375    36401942.258   146575282.204          48.813    36401932.762   154028271.220          48.875  
C11  24009515.219   125023160.438        2116.430          43.500    24009515.535    96676360.243          45.375    24009505.574   101592101.446          45.875  
C12  21577125.797   112358495.197        -179.719          47.500    21577123.746    86882412.476          53.188    21577115.539    91300162.776          54.375  
> 2012 10 14 00 01 30.0000000  0  8                     
C01  36659007.422   190893098.100         -34.140          45.188    36658999.980   147610642.599          47.313    36658994.707   155116244.586          46.875  
C03  38700462.414   201522741.873          -0.293          41.688    38700459.457   155830170.102          42.000    38700453.656   163753738.797          42.125  
C04  37550514.719   195535135.932         -19.269          44.125    37550511.730   151200158.845          45.375    37550504.933   158888472.108          45.313  
C07  36612858.297   190653504.022       -1055.371          45.813    36612854.676   147425097.603          48.813    36612845.473   154921732.862          48.688  
C08  36634751.836   190766756.548        -210.094          45.188    36634747.277   147512498.998          47.875    36634739.129   155013134.929          49.500  
C10  36402032.094   189555199.742        -458.121          46.500    36402030.230   146575636.530          48.813    36402020.851   154028643.563          49.000  
C11  24009108.523   125021044.376        2116.051          43.375    24009109.097    96674723.975          45.813    24009099.309   101590381.975          46.125  
C12  21577160.266   112358675.318        -180.090          47.813    21577157.895    86882551.755          53.000    21577149.926    91300309.137          54.125  
> 2012 10 14 00 01 31.0000000  0  8                     
C01  36659014.047   190893132.478         -34.399          44.625    36659006.519   147610669.185          47.500    36659001.066   155116272.528          46.625  
C03  38700462.524   201522742.406          -0.492          41.313    38700459.469   155830170.513          42.000    38700453.902   163753739.234          42.625  
C04  37550518.422   195535155.390         -19.449          43.688    37550515.906   151200173.892          44.688    37550509.226   158888487.917          45.188  
C07  36613061.055   190654559.564       -1055.602          45.375    36613056.699   147425913.820          48.813    36613048.027   154922590.579          48.688  
C08  36634792.414   190766966.717        -210.125          44.688    36634787.566   147512661.510          47.625    36634779.360   155013305.707          49.313  
C10  36402119.945   189555658.119        -458.465          46.125    36402118.524   146575990.977          48.875    36402109.148   154029016.029          49.313  
C11  24008701.516   125018928.548        2115.695          43.125    24008703.141    96673087.883          45.375    24008693.000   101588662.691          45.875  
C12  21577194.992   112358855.759        -180.617          47.375    21577192.847    86882691.282          52.375    21577184.816    91300455.760          54.125  
> 2012 10 14 00 01 32.0000000  0  8                     
C01  36659020.391   190893166.901         -34.485          44.875    36659013.117   147610695.806          47.313    36659008.020   155116300.497          46.813  
C03  38700462.703   201522742.928          -0.492          41.625    38700459.953   155830170.915          42.000    38700454.090   163753739.657          42.125  
C04  37550521.844   195535174.874         -19.445          43.375    37550519.563   151200188.961          44.500    37550512.766   158888503.753          44.875  
C07  36613263.485   190655615.296       -1055.875          45.313    36613259.961   147426730.173          48.625    36613251.051   154923448.449          48.688  
C08  36634832.586   190767176.926        -210.242          44.813    36634828.024   147512824.063          48.000    36634819.937   155013476.523          49.313  
C10  36402208.328   189556116.722        -458.703          45.813    36402206.496   146576345.598          48.500    36402197.234   154029388.678          48.500  
C11  24008295.969   125016813.051        2115.324          43.625    24008296.629    96671452.052          45.375    24008286.723   101586943.680          45.813  
C12  21577229.765   112359036.589        -180.992          47.500    21577227.461    86882831.113          52.625    21577219.489    91300602.697          53.875  
> 2012 10 14 00 01 33.0000000  0  8                     
C01  36659027.180   190893201.365         -34.485          45.313    36659020.078   147610722.453          47.313    36659014.625   155116328.506          47.000  
C03  38700462.508   201522743.524          -0.543          40.875    38700459.856   155830171.373          42.000    38700454.051   163753740.136          42.625  
C04  37550525.836   195535194.419         -19.535          43.375    37550523.028   151200204.074          45.000    37550516.461   158888519.633          45.500  
C07  36613466.758   190656671.247       -1056.047          45.500    36613462.707   147427546.704          48.813    36613453.680   154924306.496          48.625  
C08  36634872.969   190767387.181        -210.188          44.688    36634868.414   147512986.642          47.875    36634860.211   155013647.369          49.188  
C10  36402296.281   189556575.564        -458.934          46.313    36402294.218   146576700.401          48.688    36402284.961   154029761.526          48.500  
C11  24007889.422   125014697.850        2115.074          43.500    24007890.586    96669816.444          45.500    24007880.684   101585224.910          45.813  
C12  21577264.477   112359217.802        -181.355          47.625    21577262.039    86882971.241          52.500    21577254.187    91300749.948          53.688  
> 2012 10 14 00 01 34.0000000  0  8                     
C01  36659033.883   190893235.696         -34.281          45.500    36659026.500   147610749.001          47.500    36659021.051   155116356.398          46.625  
C03  38700462.586   201522743.976          -0.523          41.125    38700460.184   155830171.720          41.375    38700454.203   163753740.508          42.500  
C04  37550529.414   195535213.845         -19.367          43.125    37550526.707   151200219.091          44.875    37550519.965   158888535.417          45.500  
C07  36613669.523   190657727.249       -1056.031          45.500    36613665.524   147428363.270          48.125    36613656.500   154925164.579          48.688  
C08  36634913.492   190767597.333        -210.168          44.688    36634908.898   147513149.148          47.875    36634900.809   155013818.136          49.375  
C10  36402384.469   189557034.462        -458.926          46.625    36402382.613   146577055.254          48.375    36402373.355   154030134.423          48.875  
C11  24007483.547   125012582.812        2114.898          43.625    24007483.821    96668180.963          45.500    24007474.152   101583506.270          45.813  
C12  21577299.274   112359399.222        -181.508          47.625    21577296.770    86883111.521          52.125    21577288.977    91300897.368          54.000  
> 2012 10 14 00 01 35.0000000  0  8                     
C01  36659040.445   190893269.933         -33.945          45.813    36659033.254   147610775.471          47.688    36659027.625   155116384.215          47.000  
C03  38700462.696   201522744.326          -0.055          40.875    38700460.215   155830171.991          41.313    38700454.238   163753740.787          42.625  
C04  37550533.328   195535233.118         -18.910          43.375    37550530.617   151200233.994          45.313    37550523.875   158888551.075          45.625  
C07  36613872.047   190658783.263       -1055.863          46.125    36613867.977   147429179.842          48.125    36613859.070   154926022.671          49.125  
C08  36634953.562   190767807.317        -209.683          45.125    36634949.129   147513311.515          47.625    36634940.984   155013988.761          49.313  
C10  36402472.656   189557493.399        -458.770          46.188    36402470.594   146577410.134          48.875    36402461.332   154030507.341          48.813  
C11  24007077.336   125010467.899        2115.028          43.313    24007078.129    96666545.580          45.375    24007068.164   101581787.728          46.125  
C12  21577334.172   112359580.880        -181.496          47.625    21577331.883    86883251.991          52.125    21577324.031    91301044.980          54.000  
> 2012 10 14 00 01 36.0000000  0  8                     
C01  36659046.758   190893304.300         -34.418          45.375    36659039.559   147610802.046          47.875    36659034.226   155116412.138          46.813  
C03  38700463.125   201522744.854          -0.652          41.188    38700460.188   155830172.403          41.000    38700454.386   163753741.217          42.500  
C04  37550537.476   195535252.586         -19.457          43.625    37550533.664   151200249.046          44.688    37550527.508   158888566.892          45.625  
C07  36614075.188   190659839.614       -1056.512          46.000    36614071.059   147429996.677          48.000    36614062.152   154926881.037          49.125  
C08  36634994.094   190768017.496        -210.254          45.313    36634989.547   147513474.035          47.625    36634981.457   155014159.549          49.375  
C10  36402561.164   189557952.700        -459.473          46.125    36402558.652   146577765.292          49.000    36402549.332   154030880.563          48.688  
C11  24006671.086   125008353.435        2114.234          43.313    24006671.883    96664910.543          45.500    24006661.922   101580069.548          45.625  
C12  21577369.078   112359763.030        -182.395          47.625    21577366.902    86883392.844          52.125    21577358.871    91301192.991          54.188  
> 2012 10 14 00 01 37.0000000  0  8                     
C01  36659053.461   190893338.635         -34.301          45.188    36659046.168   147610828.595          47.688    36659040.836   155116440.038          46.500  
C03  38700463.023   201522745.340          -0.469          40.875    38700460.063   155830172.778          40.813    38700454.437   163753741.613          42.500  
C04  37550541.187   195535272.002         -19.367          43.625    37550537.965   151200264.055          45.000    37550531.461   158888582.671          45.625  
C07  36614277.836   190660896.059       -1056.504          45.875    36614273.832   147430813.581          48.125    36614264.805   154927739.489          49.313  
C08  36635034.391   190768227.608        -210.109          45.688    36635029.832   147513636.510          47.500    36635021.625   155014330.275          49.125  
C10  36402648.906   189558412.131        -459.554          45.813    36402647.356   146578120.550          49.000    36402638.035   154031253.889          48.625  
C11  24006265.304   125006239.175        2114.082          43.375    24006266.004    96663275.670          45.500    24006255.981   101578351.542          45.313  
C12  21577404.555   112359945.482        -182.664          47.375    21577402.078    86883533.931          52.313    21577393.988    91301341.250          54.313  
> 2012 10 14 00 01 38.0000000  0  8                     
C01  36659060.351   190893373.062         -34.512          45.313    36659052.934   147610855.210          47.813    36659047.656   155116468.015          46.625  
C03  38700462.953   201522745.902          -0.684          41.000    38700460.277   155830173.217          41.125    38700454.359   163753742.065          42.375  
C04  37550544.805   195535291.492         -19.543          44.000    37550541.356   151200279.127          45.000    37550534.852   158888598.502          45.625  
C07  36614480.688   190661952.757       -1056.832          45.813    36614477.012   147431630.684          47.875    36614468.106   154928598.135          49.313  
C08  36635074.922   190768437.791        -210.239          45.500    36635070.137   147513799.037          47.875    36635061.988   155014501.068          49.500  
C10  36402737.281   189558871.798        -459.863          45.875    36402735.285   146578475.993          48.875    36402726.023   154031627.404          48.625  
C11  24005859.524   125004125.262        2113.656          43.688    24005860.203    96661641.066          45.875    24005850.004   101576633.814          45.500  
C12  21577439.391   112360128.343        -183.098          47.500    21577437.379    86883675.326          52.188    21577429.406    91301489.841          54.125  
> 2012 10 14 00 01 39.0000000  0  8                     
C01  36659066.664   190893407.306         -34.148          45.375    36659059.293   147610881.689          47.313    36659053.961   155116495.842          47.125  
C03  38700463.141   201522746.265          -0.410          40.813    38700460.285   155830173.497          40.875    38700454.426   163753742.359          42.313  
C04  37550548.172   195535310.817         -19.375          44.188    37550545.246   151200294.070          44.875    37550538.801   158888614.206          45.000  
C07  36614683.851   190663009.442       -1056.719          45.625    36614679.703   147432447.781          47.813    36614670.914   154929456.783          49.000  
C08  36635115.258   190768647.816        -209.984          45.375    36635110.652   147513961.441          48.000    36635102.449   155014671.731          49.375  
C10  36402825.648   189559331.496        -459.750          45.688    36402824.043   146578831.462          48.875    36402814.492   154032000.947          48.625  
C11  24005453.328   125002011.468        2113.699          43.500    24005454.469    96660006.546          46.125    24005444.094   101574916.190          45.000  
C12  21577474.773   112360311.388        -183.223          47.625    21577472.488    86883816.871          52.125    21577464.402    91301638.581          53.688  
> 2012 10 14 00 01 40.0000000  0  8                     
C01  36659073.602   190893441.625         -34.285          44.688    36659065.930   147610908.229          47.313    36659060.652   155116523.725          47.125  
C03  38700463.039   201522746.718          -0.375          40.000    38700460.320   155830173.844          41.125    38700454.515   163753742.728          42.188  
C04  37550552.211   195535330.211         -19.332          43.500    37550548.754   151200309.060          44.875    37550542.480   158888629.962          45.188  
C07  36614886.578   190664066.319       -1056.883          44.813    36614882.922   147433265.032          48.125    36614873.953   154930315.584          49.188  
C08  36635155.773   190768857.879        -210.000          44.813    36635151.004   147514123.878          48.125    36635142.972   155014842.430          49.188  
C10  36402913.789   189559791.424        -459.930          45.500    36402911.875   146579187.104          48.813    36402902.555   154032374.671          48.688  
C11  24005047.476   124999897.965        2113.391          43.000    24005048.476    96658372.254          45.875    24005038.277   101573198.795          45.188  
C12  21577509.860   112360494.808        -183.570          47.375    21577507.395    86883958.700          52.188    21577499.543    91301787.623          53.688  
> 2012 10 14 00 01 41.0000000  0  8                     
C01  36659079.914   190893475.969         -34.113          44.375    36659072.918   147610934.787          47.500    36659067.352   155116551.631          46.813  
C03  38700463.219   201522747.225          -0.305          40.000    38700460.543   155830174.238          40.688    38700454.859   163753743.149          42.688  
C04  37550555.922   195535349.651         -19.246          43.625    37550552.851   151200324.093          44.875    37550546.344   158888645.760          45.375  
C07  36615089.852   190665123.423       -1056.965          44.500    36615085.902   147434082.449          48.000    36615076.875   154931174.562          48.813  
C08  36635195.649   190769067.990        -209.891          44.500    36635191.043   147514286.349          48.125    36635183.012   155015013.167          49.375  
C10  36403002.086   189560251.598        -460.039          45.125    36403000.394   146579542.941          48.375    36402991.015   154032748.600          48.500  
C11  24004641.758   124997784.787        2113.301          43.125    24004642.156    96656738.212          45.500    24004632.191   101571481.670          45.313  
C12  21577545.219   112360678.625        -183.781          47.188    21577542.812    86884100.839          52.625    21577534.840    91301936.992          53.688  
> 2012 10 14 00 01 42.0000000  0  8                     
C01  36659086.727   190893510.372         -34.477          44.625    36659079.515   147610961.391          47.500    36659073.891   155116579.591          47.125  
C03  38700464.235   201522747.753          -0.555          40.375    38700460.414   155830174.652          41.313    38700454.672   163753743.573          42.625  
C04  37550559.578   195535369.117         -19.570          43.375    37550556.355   151200339.146          44.688    37550549.906   158888661.577          45.500  
C07  36615292.813   190666180.723       -1057.383          44.813    36615288.621   147434900.023          48.125    36615279.832   154932033.704          48.813  
C08  36635236.234   190769278.140        -210.117          44.688    36635231.136   147514448.848          48.000    36635223.285   155015183.927          49.375  
C10  36403090.445   189560711.959        -460.500          45.000    36403088.875   146579898.918          48.375    36403079.438   154033122.679          48.813  
C11  24004235.914   124995671.910        2112.723          43.000    24004236.715    96655104.403          45.500    24004226.691   101569764.784          45.188  
C12  21577580.578   112360862.828        -184.340          47.313    21577578.500    86884243.278          52.688    21577570.238    91302086.670          54.125  
> 2012 10 14 00 01 43.0000000  0  8                     
C01  36659093.000   190893544.694         -34.168          44.313    36659086.168   147610987.928          47.000    36659080.719   155116607.479          47.125  
C03  38700463.953   201522748.207          -0.340          40.625    38700460.461   155830174.998          41.125    38700454.719   163753743.946          42.813  
C04  37550563.695   195535388.492         -19.207          43.375    37550560.480   151200354.126          45.000    37550553.918   158888677.323          45.313  
C07  36615495.922   190667238.073       -1057.324          44.625    36615491.664   147435717.632          47.875    36615482.871   154932892.891          48.813  
C08  36635276.492   190769488.198        -209.949          44.688    36635271.918   147514611.273          48.000    36635263.832   155015354.615          49.625  
C10  36403179.250   189561172.435        -460.422          45.375    36403177.121   146580254.988          48.000    36403167.805   154033496.854          48.375  
C11  24003830.273   124993559.230        2112.637          43.000    24003831.226    96653470.752          46.000    24003821.090   101568048.065          45.375  
C12  21577615.820   112361047.265        -184.410          47.375    21577613.817    86884385.899          52.125    21577605.730    91302236.544          53.813  
> 2012 10 14 00 01 44.0000000  0  8                     
C01  36659099.469   190893579.053         -34.402          44.313    36659092.520   147611014.494          47.125    36659087.070   155116635.396          47.188  
C03  38700463.828   201522748.683          -0.504          40.375    38700460.770   155830175.369          41.313    38700455.258   163753744.334          42.313  
C04  37550567.117   195535407.922         -19.496          43.375    37550564.125   151200369.149          44.500    37550557.500   158888693.107          45.313  
C07  36615698.953   190668295.629       -1057.680          44.688    36615694.512   147436535.393          48.188    36615685.664   154933752.240          49.188  
C08  36635316.914   190769698.282        -210.133          44.813    36635312.234   147514773.726          48.188    36635303.969   155015525.327          49.625  
C10  36403267.641   189561633.107        -460.816          45.375    36403265.629   146580611.207          48.500    36403256.254   154033871.191          48.813  
C11  24003424.414   124991446.831        2112.172          42.813    24003425.270    96651837.310          46.000    24003415.187   101566331.568          45.313  
C12  21577651.367   112361232.111        -185.055          47.688    21577649.082    86884528.836          52.313    21577640.937    91302386.741          53.500  
> 2012 10 14 00 01 45.0000000  0  8                     
C01  36659106.297   190893613.358         -34.297          44.625    36659099.160   147611041.023          47.313    36659093.707   155116663.270          47.313  
C03  38700463.844   201522749.126          -0.469          40.875    38700460.527   155830175.712          41.125    38700454.840   163753744.693          42.625  
C04  37550571.000   195535427.286         -19.383          43.500    37550567.734   151200384.125          44.500    37550560.992   158888708.840          45.625  
C07  36615902.141   190669353.299       -1057.797          45.000    36615898.023   147437353.248          48.125    36615889.117   154934611.685          49.000  
C08  36635357.305   190769908.322        -210.066          45.125    36635352.785   147514936.138          48.625    36635344.582   155015695.995          49.875  
C10  36403356.148   189562093.935        -460.996          45.625    36403354.207   146580967.549          48.625    36403344.887   154034245.648          48.813  
C11  24003019.008   124989334.658        2111.945          43.125    24003019.988    96650204.049          45.813    24003009.969   101564615.256          45.688  
C12  21577686.899   112361417.223        -185.359          47.500    21577684.492    86884671.976          52.500    21577676.402    91302537.160          53.500  
> 2012 10 14 00 01 46.0000000  0  8                     
C01  36659112.719   190893647.647         -34.324          44.688    36659105.317   147611067.529          47.188    36659099.922   155116691.127          47.188  
C03  38700463.922   201522749.529          -0.293          40.313    38700460.856   155830176.023          41.000    38700454.996   163753745.018          42.375  
C04  37550574.274   195535446.637         -19.321          43.688    37550571.226   151200399.081          44.688    37550564.371   158888724.564          45.625  
C07  36616105.227   190670411.099       -1057.852          44.813    36616101.430   147438171.206          48.000    36616092.347   154935471.235          49.125  
C08  36635397.609   190770118.340        -209.945          45.125    36635393.086   147515098.540          48.688    36635385.055   155015866.655          49.875  
C10  36403444.578   189562554.901        -461.106          45.375    36403442.750   146581323.992          48.500    36403433.488   154034620.225          49.313  
C11  24002613.172   124987222.710        2111.867          43.313    24002613.946    96648570.958          46.000    24002604.156   101562899.124          45.625  
C12  21577722.703   112361602.657        -185.594          47.500    21577720.129    86884815.361          52.500    21577712.102    91302687.840          53.375  
> 2012 10 14 00 01 47.0000000  0  8                     
C01  36659119.273   190893682.135         -34.399          45.188    36659112.355   147611094.202          47.000    36659107.078   155116719.152          47.000  
C03  38700463.750   201522750.173          -0.609          40.625    38700461.316   155830176.519          40.875    38700455.512   163753745.538          42.375  
C04  37550578.180   195535466.186         -19.473          43.375    37550575.344   151200414.198          44.688    37550568.723   158888740.445          45.313  
C07  36616308.477   190671469.288       -1058.254          45.000    36616304.055   147438989.465          47.625    36616295.321   154936331.094          49.000  
C08  36635438.070   190770328.565        -210.141          45.500    36635433.336   147515261.100          48.625    36635425.305   155016037.478          49.500  
C10  36403533.250   189563016.251        -461.457          45.688    36403531.246   146581680.743          48.813    36403521.985   154034995.109          48.875  
C11  24002208.156   124985111.271        2111.344          43.688    24002208.426    96646938.265          45.875    24002198.758   101561183.411          45.625  
C12  21577758.399   112361788.661        -186.172          47.625    21577756.070    86884959.196          52.313    21577747.863    91302838.985          53.313  
> 2012 10 14 00 01 48.0000000  0  8                     
C01  36659126.102   190893716.512         -34.394          45.125    36659118.844   147611120.784          46.875    36659113.391   155116747.089          47.188  
C03  38700463.883   201522750.693          -0.481          40.813    38700460.457   155830176.918          41.188    38700455.004   163753745.961          42.313  
C04  37550581.774   195535485.605         -19.469          43.313    37550578.949   151200429.212          44.625    37550572.383   158888756.227          45.375  
C07  36616511.602   190672527.466       -1058.336          44.875    36616507.504   147439807.714          47.625    36616498.597   154937190.953          49.500  
C08  36635478.297   190770538.656        -210.027          45.375    36635473.707   147515423.551          48.375    36635465.562   155016208.194          49.313  
C10  36403621.844   189563477.647        -461.582          45.688    36403619.730   146582037.520          48.375    36403610.410   154035370.037          48.813  
C11  24001802.375   124982999.937        2111.145          43.000    24001803.090    96645305.647          45.688    24001793.594   101559467.786          45.875  
C12  21577794.219   112361974.820        -186.418          47.688    21577792.015    86885103.141          52.125    21577783.926    91302990.257          53.688  
> 2012 10 14 00 01 49.0000000  0  8                     
C01  36659132.719   190893750.889         -34.316          44.688    36659125.703   147611147.364          47.313    36659120.254   155116775.026          47.000  
C03  38700464.344   201522751.205          -0.508          40.688    38700461.226   155830177.316          41.188    38700455.715   163753746.379          42.500  
C04  37550585.617   195535505.016         -19.285          43.188    37550582.496   151200444.219          44.813    37550575.758   158888771.997          45.375  
C07  36616714.930   190673585.828       -1058.363          44.875    36616710.719   147440626.110          47.688    36616702.047   154938050.961          48.813  
C08  36635518.547   190770748.725        -209.965          44.875    36635513.996   147515585.991          48.125    36635505.789   155016378.887          49.500  
C10  36403710.398   189563939.239        -461.570          45.000    36403708.523   146582394.455          48.000    36403698.969   154035745.117          48.875  
C11  24001396.906   124980888.873        2110.969          42.500    24001397.731    96643673.236          45.625    24001388.176   101557752.371          45.813  
C12  21577829.961   112362161.359        -186.610          47.188    21577827.566    86885247.387          52.375    21577819.535    91303141.830          53.500  
> 2012 10 14 00 01 50.0000000  0  8                     
C01  36659139.406   190893785.340         -34.379          45.313    36659132.074   147611174.006          47.625    36659126.562   155116803.016          47.313  
C03  38700464.680   201522751.791          -0.567          40.813    38700461.676   155830177.765          41.188    38700456.051   163753746.857          42.688  
C04  37550589.484   195535524.530         -19.473          43.500    37550586.394   151200459.310          45.000    37550579.711   158888787.859          45.313  
C07  36616918.226   190674644.425       -1058.648          45.313    36616914.195   147441444.679          47.813    36616905.344   154938911.160          49.000  
C08  36635559.063   190770958.904        -210.180          45.125    36635554.602   147515748.514          48.188    36635546.453   155016549.673          49.688  
C10  36403799.203   189564401.094        -461.890          45.188    36403797.391   146582751.585          48.625    36403787.836   154036120.409          49.000  
C11  24000991.524   124978778.211        2110.629          43.000    24000992.051    96642041.134          45.688    24000982.558   101556037.284          45.688  
C12  21577866.008   112362348.308        -187.078          47.500    21577863.433    86885391.941          53.000    21577855.172    91303293.744          53.688  
> 2012 10 14 00 01 51.0000000  0  8                     
C01  36659145.984   190893819.805         -34.352          45.688    36659138.586   147611200.650          47.688    36659133.137   155116831.021          47.000  
C03  38700464.508   201522752.345          -0.551          41.125    38700461.633   155830178.195          41.188    38700455.946   163753747.309          41.688  
C04  37550593.172   195535544.053         -19.519          43.813    37550590.203   151200474.404          45.313    37550583.406   158888803.716          45.375  
C07  36617121.883   190675703.164       -1058.793          45.313    36617117.242   147442263.360          47.813    36617108.449   154939771.468          49.188  
C08  36635599.203   190771169.041        -210.066          45.625    36635594.324   147515911.004          48.000    36635586.297   155016720.430          49.500  
C10  36403887.625   189564863.123        -462.086          45.875    36403886.035   146583108.858          48.875    36403876.715   154036495.840          49.188  
C11  24000586.586   124976667.778        2110.348          43.375    24000586.519    96640409.216          45.813    24000577.144   101554322.384          45.688  
C12  21577901.797   112362535.583        -187.379          47.813    21577899.317    86885536.755          52.625    21577891.172    91303445.920          53.875  
> 2012 10 14 00 01 52.0000000  0  8                     
C01  36659152.578   190893854.216         -34.399          45.313    36659145.391   147611227.258          47.875    36659140.117   155116858.983          46.688  
C03  38700464.063   201522752.908          -0.578          41.000    38700461.602   155830178.636          41.500    38700455.801   163753747.769          42.313  
C04  37550597.047   195535563.506         -19.516          43.813    37550593.808   151200489.444          45.813    37550587.305   158888819.521          45.500  
C07  36617324.562   190676762.021       -1058.965          45.313    36617320.820   147443082.134          48.000    36617311.793   154940631.871          49.313  
C08  36635639.555   190771379.148        -210.102          45.375    36635634.902   147516073.475          48.313    36635626.930   155016891.161          49.688  
C10  36403976.367   189565325.268        -462.238          46.313    36403974.617   146583466.215          49.000    36403965.238   154036871.367          49.125  
C11  24000180.781   124974557.561        2110.020          43.000    24000181.535    96638777.466          45.875    24000172.278   101552607.659          45.500  
C12  21577937.641   112362723.154        -187.781          47.688    21577935.309    86885681.798          52.813    21577927.394    91303598.336          54.000  
> 2012 10 14 00 01 53.0000000  0  8                     
C01  36659159.063   190893888.595         -34.367          45.813    36659151.722   147611253.842          48.000    36659146.332   155116886.913          47.125  
C03  38700464.586   201522753.416          -0.481          40.875    38700461.688   155830179.026          41.688    38700456.121   163753748.177          42.500  
C04  37550600.484   195535582.918         -19.406          43.813    37550597.586   151200504.452          45.813    37550591.078   158888835.300          45.688  
C07  36617527.828   190677821.004       -1059.059          44.875    36617524.195   147443901.008          47.813    36617515.344   154941492.381          49.500  
C08  36635680.133   190771589.214        -210.070          45.625    36635675.778   147516235.907          48.625    36635667.629   155017061.851          49.500  
C10  36404065.242   189565787.575        -462.387          45.313    36404063.605   146583823.700          48.188    36404054.285   154037247.034          49.000  
C11  23999775.852   124972447.568        2109.887          43.500    23999776.196    96637145.889          46.125    23999766.992   101550893.122          45.375  
C12  21577973.914   112362911.031        -188.023          47.375    21577971.524    86885827.079          52.813    21577963.375    91303751.002          53.875  
> 2012 10 14 00 01 54.0000000  0  8                     
C01  36659165.391   190893922.958         -34.379          46.000    36659158.789   147611280.410          48.000    36659152.988   155116914.837          47.188  
C03  38700464.305   201522753.902          -0.481          41.188    38700461.590   155830179.404          41.688    38700456.140   163753748.572          42.625  
C04  37550604.078   195535602.304         -19.457          43.875    37550601.168   151200519.441          45.500    37550594.664   158888851.049          45.688  
C07  36617731.375   190678880.127       -1059.359          45.375    36617727.343   147444719.988          47.500    36617718.848   154942353.000          49.625  
C08  36635720.531   190771799.247        -210.160          45.688    36635715.895   147516398.320          48.375    36635707.574   155017232.517          49.313  
C10  36404154.157   189566250.062        -462.688          45.813    36404152.531   146584181.318          48.000    36404142.918   154037622.834          49.313  
C11  23999370.914   124970337.824        2109.457          43.500    23999370.836    96635514.504          45.875    23999361.516   101549178.783          45.688  
C12  21578010.110   112363099.238        -188.496          47.625    21578007.953    86885972.615          52.813    21577999.746    91303903.939          54.313  
> 2012 10 14 00 01 55.0000000  0  8                     
C01  36659172.524   190893957.399         -34.426          46.313    36659165.195   147611307.040          48.188    36659159.805   155116942.820          47.000  
C03  38700464.601   201522754.472          -0.512          41.125    38700461.590   155830179.843          41.688    38700456.019   163753749.038          42.313  
C04  37550608.711   195535621.791         -19.438          44.188    37550604.957   151200534.513          45.625    37550598.395   158888866.880          45.813  
C07  36617935.133   190679939.469       -1059.371          45.813    36617930.910   147445539.143          47.875    36617922.117   154943213.804          49.625  
C08  36635760.812   190772009.363        -210.097          46.188    36635756.246   147516560.796          48.313    36635747.981   155017403.248          49.188  
C10  36404243.281   189566712.765        -462.863          46.313    36404241.234   146584539.105          48.125    36404231.973   154037998.817          49.375  
C11  23998965.539   124968228.403        2109.273          44.000    23998965.664    96633883.370          45.688    23998956.578   101547464.712          45.688  
C12  21578046.289   112363287.852        -188.742          47.875    21578044.015    86886118.460          52.688    21578035.984    91304057.202          54.313  
> 2012 10 14 00 01 56.0000000  0  8                     
C01  36659178.711   190893991.732         -34.187          46.000    36659171.758   147611333.585          48.313    36659166.250   155116970.715          46.625  
C03  38700464.742   201522754.943          -0.320          41.500    38700461.871   155830180.206          41.688    38700456.246   163753749.423          42.375  
C04  37550611.836   195535641.173         -19.305          44.125    37550608.910   151200549.497          45.125    37550602.113   158888882.631          45.875  
C07  36618138.399   190680998.891       -1059.348          45.813    36618134.188   147446358.354          48.125    36618125.394   154944074.674          49.625  
C08  36635801.273   190772219.351        -209.824          46.188    36635796.379   147516723.171          48.313    36635788.289   155017573.881          49.313  
C10  36404331.961   189567175.551        -462.781          45.813    36404330.242   146584896.962          48.375    36404320.809   154038374.865          49.000  
C11  23998560.219   124966119.160        2109.261          43.688    23998560.859    96632252.372          45.875    23998551.481   101545750.782          45.813  
C12  21578082.391   112363476.702        -188.906          48.000    21578080.160    86886264.488          52.500    21578072.250    91304210.659          54.125  
> 2012 10 14 00 01 57.0000000  0  8                     
C01  36659185.523   190894026.098         -34.344          45.500    36659178.164   147611360.157          47.500    36659173.008   155116998.639          46.500  
C03  38700465.375   201522755.435          -0.442          41.500    38700461.852   155830180.586          41.688    38700456.344   163753749.823          42.625  
C04  37550615.000   195535660.585         -19.340          43.688    37550612.559   151200564.505          45.000    37550606.055   158888898.402          45.625  
C07  36618341.844   190682058.482       -1059.695          45.313    36618337.965   147447177.695          48.375    36618328.942   154944935.676          49.125  
C08  36635841.461   190772429.396        -210.063          45.688    36635837.086   147516885.592          48.000    36635828.703   155017744.560          49.500  
C10  36404420.883   189567638.543        -463.078          45.625    36404419.149   146585254.975          48.000    36404409.770   154038751.088          49.000  
C11  23998155.640   124964010.233        2108.735          43.813    23998156.168    96630621.621          45.625    23998146.672   101544037.109          46.000  
C12  21578118.859   112363665.928        -189.383          47.375    21578116.324    86886410.813          52.375    21578108.297    91304364.417          54.313  
> 2012 10 14 00 01 58.0000000  0  8                     
C01  36659192.008   190894060.403         -34.285          45.625    36659184.996   147611386.687          47.375    36659179.488   155117026.517          46.688  
C03  38700465.000   201522755.891          -0.406          41.313    38700461.848   155830180.942          41.375    38700456.340   163753750.193          42.625  
C04  37550619.508   195535679.916         -19.399          43.313    37550616.414   151200579.452          44.875    37550609.789   158888914.108          45.813  
C07  36618545.352   190683118.146       -1059.812          45.125    36618541.547   147447997.089          48.500    36618532.461   154945796.740          48.813  
C08  36635881.687   190772639.356        -209.938          45.500    36635876.859   147517047.946          47.875    36635868.652   155017915.169          49.625  
C10  36404509.774   189568101.621        -463.082          45.813    36404508.309   146585613.057          48.188    36404498.813   154039127.381          49.000  
C11  23997750.602   124961901.494        2108.598          43.813    23997751.141    96628991.011          45.813    23997741.473   101542323.588          45.813  
C12  21578155.039   112363855.413        -189.644          47.500    21578152.879    86886557.335          52.313    21578144.906    91304518.388          54.125  
> 2012 10 14 00 01 59.0000000  0  8                     
C01  36659198.890   190894094.794         -34.367          45.500    36659191.582   147611413.280          47.875    36659186.250   155117054.468          46.688  
C03  38700465.430   201522756.425          -0.562          41.125    38700462.410   155830181.351          41.313    38700456.727   163753750.621          42.813  
C04  37550622.961   195535699.347         -19.469          43.313    37550620.148   151200594.472          45.125    37550613.465   158888929.893          45.688  
C07  36618749.242   190684178.087       -1059.961          45.313    36618745.039   147448816.701          48.625    36618736.071   154946658.029          48.625  
C08  36635922.180   190772849.416        -210.039          46.000    36635917.602   147517210.376          48.000    36635909.340   155018085.866          49.375  
C10  36404599.024   189568565.031        -463.606          45.813    36404596.793   146585971.399          48.500    36404587.472   154039503.936          49.125  
C11  23997345.367   124959793.115        2108.226          44.188    23997346.070    96627360.678          45.813    23997336.750   101540610.357          45.813  
C12  21578191.586   112364045.349        -190.098          47.688    21578189.140    86886704.200          52.375    21578181.231    91304672.730          53.813  
> 2012 10 14 00 02 00.0000000  0  8                     
C01  36659205.219   190894129.148         -34.402          45.813    36659197.855   147611439.842          47.625    36659192.344   155117082.381          46.813  
C03  38700465.211   201522756.929          -0.594          41.188    38700462.492   155830181.745          42.125    38700456.805   163753751.040          42.500  
C04  37550626.820   195535718.756         -19.578          43.688    37550623.434   151200609.480          45.125    37550616.809   158888945.664          45.688  
C07  36618952.555   190685238.139       -1060.262          45.375    36618948.469   147449636.395          48.500    36618939.441   154947519.404          48.875  
C08  36635962.250   190773059.431        -210.133          45.813    36635957.465   147517372.769          48.188    36635949.317   155018256.516          49.500  
C10  36404687.985   189569028.566        -463.723          46.000    36404686.172   146586329.830          48.688    36404676.676   154039880.595          49.188  
C11  23996940.992   124957684.954        2107.941          43.813    23996941.055    96625730.514          45.875    23996931.734   101538897.300          45.875  
C12  21578228.446   112364235.574        -190.500          47.875    21578226.039    86886851.297          52.875    21578218.070    91304827.303          53.688  
> 2012 10 14 00 02 01.0000000  0  8                     
C01  36659212.203   190894163.584         -34.430          45.688    36659204.532   147611466.473          47.688    36659199.254   155117110.360          46.625  
C03  38700465.664   201522757.478          -0.617          41.000    38700462.266   155830182.166          42.000    38700456.758   163753751.489          42.313  
C04  37550630.477   195535738.211         -19.399          43.625    37550627.316   151200624.523          44.625    37550620.633   158888961.478          45.500  
C07  36619155.813   190686298.410       -1060.394          45.500    36619152.422   147450456.269          48.625    36619143.453   154948380.960          48.500  
C08  36636003.125   190773269.497        -210.016          45.875    36635998.199   147517535.201          48.188    36635990.055   155018427.215          49.500  
C10  36404776.820   189569492.311        -463.824          46.125    36404774.922   146586688.428          48.625    36404765.543   154040257.428          49.000  
C11  23996536.492   124955577.134        2107.679          43.875    23996536.777    96624100.618          45.688    23996527.105   101537184.528          45.813  
C12  21578264.851   112364426.196        -190.723          47.625    21578262.453    86886998.696          52.875    21578254.481    91304982.200          53.375  
> 2012 10 14 00 02 02.0000000  0  8                     
C01  36659218.922   190894198.039         -34.762          45.500    36659211.594   147611493.111          47.813    36659206.203   155117138.357          46.625  
C03  38700466.140   201522758.050          -0.957          41.375    38700462.457   155830182.613          42.375    38700456.832   163753751.956          42.688  
C04  37550634.164   195535757.671         -19.789          43.688    37550631.160   151200639.573          44.875    37550624.481   158888977.288          45.375  
C07  36619359.703   190687358.856       -1060.859          45.375    36619355.719   147451276.268          48.813    36619346.809   154949242.655          48.688  
C08  36636043.000   190773479.568        -210.410          45.813    36636038.543   147517697.642          48.625    36636030.570   155018597.917          49.625  
C10  36404865.867   189569956.261        -464.348          46.313    36404864.156   146587047.180          48.625    36404854.781   154040634.424          48.813  
C11  23996131.484   124953469.593        2107.137          43.875    23996131.707    96622470.934          45.875    23996122.504   101535471.980          45.813  
C12  21578301.430   112364617.179        -191.461          47.813    21578299.293    86887146.380          53.188    21578291.203    91305137.391          53.813  
> 2012 10 14 00 02 03.0000000  0  8                     
C01  36659225.266   190894232.476         -34.352          45.625    36659217.516   147611519.741          47.625    36659212.359   155117166.341          46.375  
C03  38700465.985   201522758.639          -0.570          41.500    38700462.765   155830183.072          42.375    38700456.965   163753752.434          42.813  
C04  37550637.523   195535777.154         -19.449          43.500    37550634.929   151200654.635          44.688    37550628.187   158888993.121          45.375  
C07  36619563.484   190688419.484       -1060.641          45.375    36619559.266   147452096.413          48.500    36619550.356   154950104.501          48.688  
C08  36636083.125   190773689.657        -210.008          45.375    36636078.610   147517860.096          48.500    36636070.578   155018768.631          49.625  
C10  36404955.273   189570420.425        -464.098          45.875    36404953.387   146587406.099          48.313    36404943.949   154041011.587          48.688  
C11  23995726.977   124951362.322        2107.270          43.625    23995727.160    96620841.468          45.813    23995717.723   101533759.658          45.625  
C12  21578338.344   112364808.501        -191.418          47.500    21578336.035    86887294.320          53.000    21578327.945    91305292.855          53.625  
> 2012 10 14 00 02 04.0000000  0  8                     
C01  36659231.766   190894266.901         -34.399          44.625    36659224.797   147611546.355          47.875    36659219.168   155117194.307          46.688  
C03  38700466.195   201522759.179          -0.598          41.125    38700462.812   155830183.490          42.313    38700456.953   163753752.870          42.625  
C04  37550642.039   195535796.588         -19.355          43.000    37550638.750   151200669.662          44.688    37550632.188   158889008.912          45.813  
C07  36619767.140   190689480.200       -1060.652          45.000    36619763.285   147452916.629          47.875    36619754.258   154950966.422          48.875  
C08  36636123.945   190773899.706        -210.004          45.188    36636119.183   147518022.518          48.375    36636111.035   155018939.312          49.500  
C10  36405043.821   189570884.720        -464.309          45.813    36405042.437   146587765.122          48.500    36405033.062   154041388.867          49.000  
C11  23995322.141   124949255.311        2106.855          43.375    23995322.297    96619212.206          45.625    23995313.152   101532047.549          45.688  
C12  21578374.930   112365000.127        -191.742          47.375    21578372.836    86887442.498          52.875    21578364.867    91305448.571          53.375  
> 2012 10 14 00 02 05.0000000  0  8                     
C01  36659238.500   190894301.309         -34.410          44.500    36659230.969   147611572.963          47.313    36659225.695   155117222.261          47.000  
C03  38700466.031   201522759.723          -0.582          41.375    38700463.098   155830183.909          42.313    38700457.062   163753753.306          42.375  
C04  37550646.000   195535816.045         -19.430          43.500    37550642.449   151200684.703          44.500    37550635.883   158889024.717          45.813  
C07  36619970.664   190690541.082       -1060.891          45.188    36619967.012   147453736.967          47.813    36619958.223   154951828.473          49.188  
C08  36636163.891   190774109.708        -209.918          45.625    36636159.258   147518184.906          48.500    36636151.172   155019109.950          49.625  
C10  36405133.453   189571349.187        -464.476          45.688    36405131.789   146588124.277          48.000    36405122.234   154041766.287          49.125  
C11  23994917.265   124947148.515        2106.715          43.188    23994917.926    96617583.099          45.625    23994908.312   101530335.612          45.500  
C12  21578411.883   112365192.081        -192.000          47.375    21578409.902    86887590.929          52.500    21578401.754    91305604.542          53.688  
> 2012 10 14 00 02 06.0000000  0  8                     
C01  36659245.367   190894335.710         -34.469          44.625    36659237.766   147611599.559          47.375    36659232.141   155117250.213          46.688  
C03  38700466.172   201522760.246          -0.676          41.125    38700462.945   155830184.312          42.000    38700456.969   163753753.728          42.375  
C04  37550649.211   195535835.468         -19.590          43.188    37550646.203   151200699.724          44.375    37550639.465   158889040.499          46.000  
C07  36620174.617   190691602.117       -1061.242          45.188    36620170.672   147454557.421          47.875    36620161.820   154952690.650          48.813  
C08  36636204.578   190774319.753        -210.203          45.188    36636199.898   147518347.327          48.688    36636191.754   155019280.630          49.688  
C10  36405222.516   189571813.821        -464.832          45.813    36405220.746   146588483.562          48.375    36405211.426   154042143.843          49.000  
C11  23994513.360   124945042.006        2106.215          43.375    23994513.262    96615954.216          46.188    23994503.711   101528623.904          45.625  
C12  21578448.633   112365384.369        -192.559          47.500    21578446.313    86887739.618          52.688    21578438.223    91305760.796          53.688  
> 2012 10 14 00 02 07.0000000  0  8                     
C01  36659252.156   190894370.160         -34.598          44.000    36659244.445   147611626.200          47.625    36659239.113   155117278.209          46.375  
C03  38700466.406   201522760.818          -0.652          41.125    38700462.988   155830184.754          42.125    38700457.066   163753754.193          42.313  
C04  37550652.906   195535854.920         -19.570          43.000    37550650.027   151200714.764          44.813    37550643.230   158889056.304          45.813  
C07  36620378.617   190692663.330       -1061.484          44.813    36620374.539   147455378.016          47.688    36620365.633   154953552.973          48.875  
C08  36636244.672   190774529.790        -210.136          44.688    36636240.359   147518509.740          48.500    36636232.211   155019451.296          49.500  
C10  36405311.851   189572278.690        -465.078          45.375    36405310.117   146588843.025          48.313    36405300.680   154042521.581          48.875  
C11  23994108.750   124942935.785        2105.875          43.125    23994108.645    96614325.555          46.000    23994099.090   101526912.426          45.688  
C12  21578485.601   112365577.029        -192.926          47.500    21578483.691    86887888.595          52.813    21578475.484    91305917.348          53.188  
> 2012 10 14 00 02 08.0000000  0  8                     
C01  36659258.320   190894404.653         -34.566          44.000    36659250.742   147611652.872          46.688    36659245.586   155117306.235          47.000  
C03  38700466.406   201522761.465          -0.765          40.813    38700463.391   155830185.250          42.688    38700457.649   163753754.721          42.375  
C04  37550656.851   195535874.437         -19.469          43.125    37550653.304   151200729.849          44.313    37550646.683   158889072.162          45.813  
C07  36620582.211   190693724.761       -1061.562          44.875    36620578.121   147456198.777          47.875    36620569.562   154954415.471          49.000  
C08  36636284.617   190774739.893        -210.011          44.875    36636280.738   147518672.202          48.375    36636272.473   155019622.028          50.000  
C10  36405401.266   189572743.767        -465.211          45.500    36405399.481   146589202.652          48.375    36405390.102   154042899.492          49.125  
C11  23993704.336   124940829.881        2105.703          43.000    23993704.625    96612697.143          46.000    23993694.781   101525201.204          45.625  
C12  21578522.742   112365770.078        -193.246          47.625    21578520.547    86888037.872          52.625    21578512.519    91306074.216          53.125  
> 2012 10 14 00 02 09.0000000  0  8                     
C01  36659264.797   190894439.056         -34.441          44.375    36659257.672   147611679.471          46.688    36659252.106   155117334.188          46.813  
C03  38700466.727   201522761.989          -0.648          40.500    38700463.687   155830185.655          42.375    38700457.535   163753755.151          42.688  
C04  37550660.953   195535893.847         -19.441          43.188    37550657.430   151200744.864          44.813    37550650.746   158889087.932          45.813  
C07  36620786.055   190694786.263       -1061.660          44.688    36620781.808   147457019.595          47.875    36620773.196   154955278.025          49.500  
C08  36636325.571   190774949.891        -210.094          44.625    36636320.797   147518834.587          48.188    36636312.946   155019792.669          49.875  
C10  36405490.609   189573208.941        -465.289          45.000    36405488.890   146589562.356          48.625    36405479.336   154043277.483          49.125  
C11  23993299.789   124938724.144        2105.547          43.000    23993300.516    96611068.861          46.000    23993290.789   101523490.128          45.375  
C12  21578560.281   112365963.385        -193.523          47.500    21578557.988    86888187.348          52.188    21578549.781    91306231.287          53.500  
> 2012 10 14 00 02 10.0000000  0  8                     
C01  36659271.571   190894473.511         -34.402          44.125    36659264.371   147611706.114          46.813    36659258.805   155117362.183          47.500  
C03  38700466.976   201522762.602          -0.598          40.500    38700463.571   155830186.128          42.375    38700457.594   163753755.645          43.125  
C04  37550664.336   195535913.310         -19.410          42.625    37550661.164   151200759.911          45.000    37550654.543   158889103.743          45.625  
C07  36620990.211   190695847.954       -1061.731          44.625    36620986.317   147457840.567          48.000    36620977.586   154956140.740          49.875  
C08  36636365.531   190775159.958        -209.996          44.500    36636361.356   147518997.020          48.313    36636353.090   155019963.366          49.813  
C10  36405579.836   189573674.293        -465.348          45.188    36405578.223   146589922.195          48.813    36405568.848   154043655.619          49.125  
C11  23992895.273   124936618.743        2105.223          42.625    23992896.203    96609440.830          45.875    23992886.355   101521779.317          45.688  
C12  21578597.328   112366157.072        -193.879          47.625    21578594.965    86888337.123          52.313    21578586.817    91306388.675          53.688  
> 2012 10 14 00 02 11.0000000  0  8                     
C01  36659278.180   190894507.975         -34.414          44.000    36659270.774   147611732.764          47.000    36659265.441   155117390.187          47.500  
C03  38700466.852   201522763.177          -0.555          40.625    38700463.816   155830186.579          42.375    38700457.894   163753756.116          42.875  
C04  37550667.633   195535932.776         -19.406          43.000    37550664.703   151200774.958          44.688    37550658.316   158889119.558          45.625  
C07  36621194.062   190696909.803       -1061.883          44.625    36621189.750   147458661.653          48.000    36621181.020   154957003.576          49.375  
C08  36636406.047   190775369.987        -210.008          44.688    36636401.680   147519159.430          48.188    36636393.535   155020134.033          49.875  
C10  36405669.258   189574139.893        -465.656          45.313    36405667.356   146590282.223          48.313    36405658.035   154044033.961          49.313  
C11  23992491.523   124934513.597        2105.039          42.688    23992491.613    96607812.997          46.125    23992481.883   101520068.707          45.813  
C12  21578634.571   112366351.100        -194.172          47.625    21578632.258    86888487.158          52.500    21578624.172    91306546.343          53.688  
> 2012 10 14 00 02 12.0000000  0  8                     
C01  36659284.781   190894542.446         -34.492          44.000    36659277.613   147611759.415          47.313    36659272.043   155117418.193          47.313  
C03  38700466.508   201522763.791          -0.680          40.500    38700463.871   155830187.055          42.625    38700458.012   163753756.614          42.375  
C04  37550671.461   195535952.270         -19.492          43.313    37550668.386   151200790.033          45.000    37550662.231   158889135.405          45.688  
C07  36621398.258   190697971.858       -1062.168          44.625    36621394.188   147459482.903          48.313    36621385.164   154957866.578          49.125  
C08  36636446.180   190775580.063        -210.144          44.688    36636441.738   147519321.872          48.000    36636433.766   155020304.736          50.000  
C10  36405758.656   189574605.688        -465.898          45.313    36405756.969   146590642.410          48.313    36405747.648   154044412.456          49.188  
C11  23992087.187   124932408.742        2104.637          43.000    23992087.723    96606185.388          45.875    23992077.875   101518358.347          46.188  
C12  21578671.828   112366545.464        -194.609          47.500    21578669.813    86888637.455          52.813    21578661.547    91306704.278          53.875  
> 2012 10 14 00 02 13.0000000  0  8                     
C01  36659291.563   190894576.900         -34.211          44.375    36659284.078   147611786.059          47.125    36659278.629   155117446.190          47.000  
C03  38700466.976   201522764.362          -0.351          40.688    38700463.750   155830187.497          42.625    38700458.301   163753757.082          42.688  
C04  37550675.258   195535971.718         -19.219          43.500    37550671.660   151200805.069          45.125    37550665.449   158889151.205          45.688  
C07  36621601.765   190699034.029       -1062.031          45.125    36621597.668   147460304.239          48.188    36621588.996   154958729.681          49.125  
C08  36636487.180   190775790.093        -209.855          45.125    36636482.328   147519484.278          48.000    36636474.238   155020475.400          49.500  
C10  36405848.344   189575071.616        -465.902          45.625    36405846.562   146591002.695          48.000    36405837.067   154044791.063          49.313  
C11  23991682.938   124930304.124        2104.707          43.188    23991683.516    96604557.963          46.000    23991673.785   101516648.173          45.875  
C12  21578709.305   112366740.166        -194.722          47.625    21578706.929    86888788.010          52.875    21578698.781    91306862.488          53.875  
> 2012 10 14 00 02 14.0000000  0  8                     
C01  36659297.688   190894611.318         -34.430          44.688    36659290.863   147611812.672          47.375    36659285.293   155117474.161          47.000  
C03  38700467.383   201522764.937          -0.598          40.813    38700463.644   155830187.942          42.688    38700458.137   163753757.551          42.375  
C04  37550679.164   195535991.128         -19.434          43.625    37550676.035   151200820.079          45.125    37550669.531   158889166.977          45.688  
C07  36621805.875   190700096.314       -1062.351          45.125    36621801.754   147461125.665          48.125    36621793.020   154959592.874          49.188  
C08  36636527.101   190776000.082        -210.027          45.125    36636522.606   147519646.659          48.188    36636514.515   155020646.032          49.500  
C10  36405937.945   189575537.693        -466.148          45.500    36405936.156   146591363.090          48.625    36405926.664   154045169.788          48.813  
C11  23991278.930   124928199.722        2104.285          43.000    23991279.012    96602930.711          45.875    23991269.281   101514938.180          45.813  
C12  21578746.687   112366935.134        -195.192          47.500    21578744.574    86888938.772          53.125    21578736.254    91307020.918          53.688  
> 2012 10 14 00 02 15.0000000  0  8                     
C01  36659304.438   190894645.688         -34.391          44.625    36659297.602   147611839.249          47.500    36659292.152   155117502.089          47.500  
C03  38700466.461   201522765.440          -0.414          40.625    38700463.785   155830188.331          42.500    38700458.336   163753757.957          42.625  
C04  37550683.055   195536010.502         -19.262          43.875    37550679.664   151200835.061          45.000    37550672.980   158889182.723          45.313  
C07  36622009.898   190701158.730       -1062.457          44.688    36622005.719   147461947.187          48.188    36621996.985   154960456.166          49.313  
C08  36636567.172   190776210.018        -209.922          45.125    36636562.871   147519808.991          48.500    36636554.610   155020816.619          49.625  
C10  36406027.492   189576003.921        -466.266          45.375    36406025.363   146591723.606          48.625    36406015.867   154045548.636          48.813  
C11  23990874.523   124926095.576        2103.965          43.000    23990875.078    96601303.657          46.188    23990865.465   101513228.394          45.688  
C12  21578784.110   112367130.431        -195.383          47.500    21578781.664    86889089.788          52.875    21578773.691    91307179.612          53.313  
> 2012 10 14 00 02 16.0000000  0  8                     
C01  36659311.063   190894680.156         -34.469          44.500    36659303.859   147611865.903          47.500    36659298.348   155117530.096          47.188  
C03  38700467.234   201522766.054          -0.707          40.375    38700463.679   155830188.802          42.313    38700458.231   163753758.453          41.625  
C04  37550686.578   195536029.971         -19.547          43.375    37550683.449   151200850.116          44.688    37550676.824   158889198.540          45.313  
C07  36622213.984   190702221.371       -1062.777          44.688    36622209.504   147462768.887          48.000    36622200.887   154961319.653          49.500  
C08  36636607.563   190776420.024        -210.047          45.000    36636602.867   147519971.381          48.375    36636595.012   155020987.267          49.313  
C10  36406116.812   189576470.385        -466.578          45.688    36406115.277   146592084.304          49.000    36406105.844   154045927.668          48.375  
C11  23990470.687   124923991.740        2103.633          43.125    23990470.969    96599676.845          46.188    23990461.179   101511518.854          45.688  
C12  21578821.547   112367326.133        -195.906          47.500    21578819.633    86889241.118          52.688    21578811.371    91307338.636          53.125  
> 2012 10 14 00 02 17.0000000  0  8                     
C01  36659317.883   190894714.606         -34.379          44.688    36659310.274   147611892.537          47.688    36659305.000   155117558.091          47.313  
C03  38700467.719   201522766.689          -0.582          40.875    38700463.918   155830189.293          42.375    38700458.410   163753758.966          42.313  
C04  37550690.242   195536049.436         -19.406          43.125    37550687.359   151200865.163          44.125    37550680.559   158889214.353          45.500  
C07  36622417.891   190703284.192       -1062.723          45.313    36622413.797   147463590.730          48.125    36622405.062   154962183.281          49.313  
C08  36636648.438   190776630.043        -209.875          45.313    36636643.469   147520133.778          48.188    36636635.496   155021157.926          49.375  
C10  36406206.641   189576937.035        -466.574          45.813    36406204.692   146592445.148          48.875    36406195.258   154046306.860          48.875  
C11  23990066.937   124921888.178        2103.524          43.500    23990067.176    96598050.241          46.125    23990057.270   101509809.541          45.625  
C12  21578859.406   112367522.185        -196.121          47.625    21578857.211    86889392.712          52.313    21578849.008    91307497.945          53.813  
> 2012 10 14 00 02 18.0000000  0  8                     
C01  36659324.414   190894749.033         -34.301          44.688    36659317.348   147611919.159          47.875    36659311.957   155117586.063          47.188  
C03  38700467.352   201522767.246          -0.516          40.125    38700464.180   155830189.727          42.688    38700458.726   163753759.420          42.688  
C04  37550694.047   195536068.883         -19.500          43.000    37550691.012   151200880.204          43.188    37550684.390   158889230.160          45.688  
C07  36622622.281   190704347.115       -1062.883          45.000    36622618.078   147464412.647          48.313    36622609.344   154963046.992          48.813  
C08  36636688.297   190776840.029        -209.859          45.313    36636683.703   147520296.152          48.375    36636675.672   155021328.557          49.500  
C10  36406296.055   189577403.812        -466.812          45.813    36406294.293   146592806.095          48.875    36406284.914   154046686.163          48.813  
C11  23989663.109   124919784.874        2103.328          43.625    23989663.031    96596423.835          46.000    23989653.184   101508100.435          45.813  
C12  21578897.016   112367718.535        -196.399          47.500    21578894.731    86889544.541          52.500    21578886.640    91307657.492          53.500  
> 2012 10 14 00 02 19.0000000  0  8                     
C01  36659331.000   190894783.516         -34.563          45.125    36659323.836   147611945.821          47.188    36659318.445   155117614.083          47.188  
C03  38700468.078   201522767.838          -0.645          40.500    38700464.445   155830190.184          42.625    38700458.703   163753759.899          42.500  
C04  37550697.953   195536088.339         -19.594          43.125    37550694.887   151200895.246          43.688    37550688.383   158889245.966          45.375  
C07  36622826.078   190705410.226       -1063.274          45.313    36622822.207   147465234.711          48.188    36622813.531   154963910.850          49.188  
C08  36636728.617   190777050.058        -210.156          45.625    36636724.316   147520458.565          48.375    36636716.109   155021499.222          49.625  
C10  36406385.695   189577870.842        -467.219          45.813    36406384.172   146593167.233          48.813    36406374.734   154047065.667          48.688  
C11  23989259.016   124917681.882        2102.848          43.875    23989259.336    96594797.673          46.313    23989249.371   101506391.582          45.375  
C12  21578934.859   112367915.262        -196.961          47.625    21578932.808    86889696.662          52.813    21578924.605    91307817.351          53.625  
> 2012 10 14 00 02 20.0000000  0  8                     
C01  36659337.383   190894817.937         -34.441          45.000    36659330.578   147611972.443          47.375    36659325.125   155117642.058          47.000  
C03  38700468.000   201522768.416          -0.625          40.313    38700464.754   155830190.633          42.625    38700459.012   163753760.372          42.375  
C04  37550701.242   195536107.780         -19.430          42.813    37550699.000   151200910.277          43.813    37550692.027   158889261.761          45.188  
C07  36623030.648   190706473.467       -1063.336          44.813    36623026.305   147466056.878          48.375    36623017.746   154964774.823          49.313  
C08  36636768.828   190777260.010        -209.859          45.688    36636764.551   147520620.911          48.000    36636756.344   155021669.824          49.375  
C10  36406475.570   189578338.014        -467.305          46.125    36406473.910   146593528.485          48.500    36406464.297   154047445.286          48.375  
C11  23988855.133   124915579.103        2102.570          43.500    23988855.395    96593171.679          46.188    23988845.547   101504682.907          45.625  
C12  21578972.891   112368112.297        -197.160          47.625    21578970.207    86889849.021          52.188    21578962.293    91307977.454          53.875  
> 2012 10 14 00 02 21.0000000  0  8                     
C01  36659344.383   190894852.389         -34.457          45.375    36659337.258   147611999.084          47.625    36659331.750   155117670.051          47.188  
C03  38700467.711   201522768.994          -0.629          40.375    38700464.422   155830191.080          42.000    38700459.031   163753760.845          42.313  
C04  37550705.656   195536127.213         -19.399          43.188    37550702.543   151200925.294          44.125    37550695.625   158889277.550          45.188  
C07  36623234.570   190707536.861       -1063.535          45.188    36623230.457   147466879.162          48.500    36623221.898   154965638.918          49.188  
C08  36636809.164   190777469.987        -209.902          45.375    36636804.641   147520783.276          47.875    36636796.672   155021840.452          49.500  
C10  36406565.508   189578805.368        -467.422          45.688    36406563.496   146593889.869          48.625    36406553.824   154047825.046          48.813  
C11  23988450.945   124913476.587        2102.418          43.375    23988452.051    96591545.882          46.313    23988441.793   101502974.437          45.313  
C12  21579010.696   112368309.663        -197.519          47.375    21579008.215    86890001.635          52.188    21579000.129    91308137.834          53.813  
> 2012 10 14 00 02 22.0000000  0  8                     
C01  36659351.289   190894886.778         -34.508          45.000    36659344.055   147612025.676          47.313    36659338.371   155117697.995          46.875  
C03  38700468.203   201522769.560          -0.719          40.188    38700464.531   155830191.516          42.000    38700459.078   163753761.305          42.188  
C04  37550709.062   195536146.595         -19.465          43.000    37550706.031   151200940.275          44.313    37550699.289   158889293.293          45.313  
C07  36623438.852   190708600.385       -1063.707          45.125    36623434.910   147467701.546          48.375    36623426.180   154966503.121          49.625  
C08  36636849.609   190777679.912        -210.082          45.125    36636845.179   147520945.602          48.125    36636837.090   155022011.035          49.813  
C10  36406655.399   189579272.848        -467.691          45.313    36406653.488   146594251.352          48.000    36406643.992   154048204.909          48.375  
C11  23988047.930   124911374.311        2102.028          43.125    23988048.469    96589920.269          46.313    23988038.445   101501266.167          45.813  
C12  21579048.539   112368507.338        -198.020          47.500    21579046.269    86890154.490          52.625    21579038.301    91308298.457          53.813  
> 2012 10 14 00 02 23.0000000  0  8                     
C01  36659357.469   190894921.230         -34.512          45.125    36659350.543   147612052.316          47.813    36659345.031   155117725.992          46.688  
C03  38700468.031   201522770.137          -0.863          40.000    38700464.726   155830191.968          42.125    38700459.160   163753761.770          42.813  
C04  37550712.797   195536166.044         -19.641          42.813    37550709.363   151200955.316          44.688    37550702.859   158889309.098          45.500  
C07  36623643.328   190709664.115       -1063.930          45.375    36623639.215   147468524.089          48.375    36623630.715   154967367.492          49.500  
C08  36636890.117   190777889.885        -210.058          45.188    36636885.848   147521107.968          48.813    36636877.469   155022181.653          50.000  
C10  36406745.000   189579740.591        -467.930          45.125    36406743.066   146594613.040          48.000    36406733.687   154048584.988          48.625  
C11  23987644.117   124909272.357        2101.629          43.375    23987644.129    96588294.909          46.000    23987634.398   101499558.162          45.688  
C12  21579086.617   112368705.404        -198.344          47.313    21579084.250    86890307.653          52.813    21579076.160    91308459.402          53.813  
> 2012 10 14 00 02 24.0000000  0  8                     
C01  36659363.899   190894955.686         -34.402          45.125    36659357.227   147612078.956          47.500    36659351.660   155117753.986          46.875  
C03  38700468.000   201522770.706          -0.637          40.188    38700464.746   155830192.407          42.000    38700459.063   163753762.233          43.000  
C04  37550716.406   195536185.442         -19.399          43.313    37550712.879   151200970.320          44.875    37550706.668   158889324.856          45.688  
C07  36623847.843   190710727.987       -1064.035          45.313    36623843.297   147469346.744          48.313    36623834.621   154968231.976          49.000  
C08  36636930.430   190778099.849        -209.961          45.500    36636925.793   147521270.322          48.625    36636917.703   155022352.260          49.500  
C10  36406834.508   189580208.439        -467.949          45.125    36406833.285   146594974.804          48.000    36406823.555   154048965.150          48.813  
C11  23987240.078   124907170.604        2101.672          43.313    23987240.836    96586669.698          46.313    23987230.992   101497850.319          45.625  
C12  21579124.398   112368903.772        -198.559          47.313    21579121.957    86890461.039          53.188    21579113.988    91308620.591          54.000  
> 2012 10 14 00 02 25.0000000  0  8                     
C01  36659370.234   190894990.211         -34.473          44.625    36659363.418   147612105.650          47.625    36659357.848   155117782.038          46.688  
C03  38700468.234   201522771.354          -0.582          40.375    38700464.746   155830192.903          42.125    38700459.531   163753762.756          42.500  
C04  37550719.867   195536204.962         -19.566          43.000    37550717.414   151200985.414          45.313    37550710.734   158889340.724          45.500  
C07  36624051.906   190711792.083       -1064.109          45.375    36624047.762   147470169.566          48.188    36624039.086   154969096.639          48.813  
C08  36636970.820   190778309.855        -209.988          45.188    36636966.262   147521432.710          48.375    36636958.113   155022522.909          49.375  
C10  36406924.742   189580676.579        -468.164          45.125    36406923.055   146595336.801          48.188    36406913.441   154049345.552          48.813  
C11  23986836.727   124905069.248        2101.230          43.188    23986837.332    96585044.798          46.375    23986827.074   101496142.790          45.313  
C12  21579163.219   112369102.536        -198.883          47.188    21579160.602    86890614.739          53.000    21579152.571    91308782.105          53.688  
> 2012 10 14 00 02 26.0000000  0  8                     
C01  36659377.227   190895024.616         -34.391          45.000    36659370.023   147612132.253          47.188    36659364.692   155117809.993          47.000  
C03  38700468.563   201522771.918          -0.504          40.500    38700464.844   155830193.339          41.813    38700459.684   163753763.216          42.625  
C04  37550723.531   195536224.375         -19.414          43.125    37550720.781   151201000.421          44.625    37550714.215   158889356.493          45.813  
C07  36624256.320   190712856.241       -1064.184          45.313    36624252.188   147470992.439          48.125    36624243.394   154969961.352          49.000  
C08  36637010.766   190778519.788        -209.863          45.125    36637006.480   147521595.042          48.375    36636998.219   155022693.487          49.000  
C10  36407014.812   189581144.791        -468.297          45.125    36407012.793   146595698.853          48.375    36407003.477   154049726.012          48.875  
C11  23986433.523   124902968.039        2101.071          43.188    23986433.578    96583420.013          46.500    23986423.789   101494435.389          45.375  
C12  21579200.828   112369301.560        -199.141          47.375    21579198.598    86890768.641          52.813    21579190.449    91308943.832          53.500  
> 2012 10 14 00 02 27.0000000  0  8                     
C01  36659383.797   190895059.047         -34.332          45.000    36659376.629   147612158.876          47.313    36659371.234   155117837.973          47.375  
C03  38700468.524   201522772.522          -0.640          40.813    38700465.277   155830193.808          41.813    38700459.707   163753763.704          42.625  
C04  37550727.359   195536243.801         -19.418          42.688    37550724.469   151201015.444          44.813    37550717.902   158889372.278          45.125  
C07  36624460.617   190713920.571       -1064.324          45.000    36624456.777   147471815.444          48.500    36624448.160   154970826.203          49.000  
C08  36637051.563   190778729.721        -209.910          44.813    36637046.871   147521757.377          48.375    36637038.605   155022864.076          49.313  
C10  36407104.375   189581613.191        -468.422          44.875    36407102.898   146596061.048          48.313    36407093.289   154050106.626          48.688  
C11  23986029.625   124900867.105        2100.867          43.125    23986030.273    96581795.438          46.188    23986020.723   101492728.214          45.188  
C12  21579239.359   112369500.954        -199.519          47.313    21579237.262    86890922.826          53.000    21579229.054    91309105.857          54.125  
> 2012 10 14 00 02 28.0000000  0  8                     
C01  36659390.430   190895093.522         -34.480          45.188    36659383.347   147612185.538          47.625    36659377.957   155117865.990          47.000  
C03  38700468.391   201522773.100          -0.676          40.625    38700465.758   155830194.256          41.813    38700460.016   163753764.179          42.688  
C04  37550731.523   195536263.249         -19.570          43.000    37550728.219   151201030.483          44.688    37550721.715   158889388.083          44.875  
C07  36624664.883   190714985.055       -1064.543          44.813    36624661.211   147472638.566          48.313    36624652.477   154971691.184          48.875  
C08  36637091.516   190778939.668        -210.027          45.000    36637086.902   147521919.722          48.000    36637078.871   155023034.677          49.188  
C10  36407194.789   189582081.776        -468.699          45.500    36407192.894   146596423.388          48.500    36407183.461   154050487.390          48.625  
C11  23985626.203   124898766.443        2100.441          43.188    23985626.848    96580171.079          46.125    23985617.063   101491021.258          45.188  
C12  21579277.571   112369700.663        -199.938          47.500    21579275.293    86891077.252          52.688    21579267.090    91309268.134          54.188  
> 2012 10 14 00 02 29.0000000  0  8                     
C01  36659397.289   190895127.972         -34.516          45.313    36659389.926   147612212.172          47.813    36659384.594   155117893.978          46.625  
C03  38700468.781   201522773.704          -0.711          40.500    38700465.562   155830194.724          42.375    38700459.820   163753764.666          42.375  
C04  37550734.922   195536282.680         -19.473          42.875    37550731.785   151201045.503          44.375    37550725.102   158889403.868          44.813  
C07  36624869.672   190716049.736       -1064.902          45.125    36624865.633   147473461.844          48.125    36624856.961   154972556.318          48.875  
C08  36637131.914   190779149.611        -210.047          45.375    36637127.488   147522082.062          48.000    36637119.574   155023205.270          49.500  
C10  36407284.547   189582550.555        -468.887          45.313    36407282.410   146596785.877          48.375    36407273.035   154050868.312          48.625  
C11  23985222.898   124896666.091        2100.156          43.375    23985223.383    96578546.954          45.875    23985213.594   101489314.555          45.500  
C12  21579315.961   112369900.751        -200.344          47.188    21579313.606    86891231.968          52.688    21579305.398    91309430.720          54.125  
> 2012 10 14 00 02 30.0000000  0  8                     
C01  36659403.601   190895162.477         -34.406          45.125    36659396.785   147612238.852          47.688    36659391.098   155117922.012          46.813  
C03  38700469.063   201522774.321          -0.492          41.125    38700465.496   155830195.198          42.375    38700459.988   163753765.176          43.000  
C04  37550739.015   195536302.142         -19.379          43.000    37550735.762   151201060.552          43.875    37550729.023   158889419.683          45.500  
C07  36625074.031   190717114.581       -1064.930          45.188    36625069.996   147474285.252          47.625    36625061.320   154973421.597          48.813  
C08  36637172.515   190779359.576        -209.914          45.500    36637167.683   147522244.425          48.313    36637159.945   155023375.885          49.188  
C10  36407374.531   189583019.547        -469.023          45.625    36407372.879   146597148.541          48.188    36407363.383   154051249.410          48.875  
C11  23984819.328   124894566.023        2099.898          43.375    23984820.234    96576923.050          46.188    23984810.156   101487608.083          45.625  
C12  21579354.531   112370101.201        -200.586          47.500    21579352.281    86891386.967          53.000    21579344.191    91309593.608          54.500  
> 2012 10 14 00 02 31.0000000  0  8                     
C01  36659410.461   190895196.974         -34.527          45.000    36659403.246   147612265.526          47.625    36659397.914   155117950.047          46.688  
C03  38700469.094   201522775.006          -0.797          41.125    38700465.469   155830195.734          42.313    38700460.078   163753765.735          42.813  
C04  37550743.024   195536321.637         -19.578          43.000    37550739.754   151201075.624          44.188    37550733.133   158889435.519          45.313  
C07  36625278.656   190718179.596       -1065.191          45.125    36625274.750   147475108.794          47.625    36625265.781   154974287.010          48.688  
C08  36637212.391   190779569.562        -210.090          45.313    36637207.727   147522406.794          48.000    36637199.816   155023546.517          49.125  
C10  36407464.601   189583488.732        -469.324          45.375    36407463.012   146597511.338          48.000    36407453.223   154051630.659          48.875  
C11  23984416.453   124892466.210        2099.625          43.813    23984416.527    96575299.341          45.875    23984406.797   101485901.808          45.625  
C12  21579392.961   112370301.999        -201.078          47.375    21579390.746    86891542.236          52.813    21579382.656    91309756.773          54.188  
> 2012 10 14 00 02 32.0000000  0  8                     
C01  36659417.086   190895231.473         -34.422          45.125    36659409.902   147612292.206          47.625    36659404.512   155117978.081          47.125  
C03  38700469.289   201522775.654          -0.625          41.375    38700465.738   155830196.230          42.188    38700460.289   163753766.264          43.125  
C04  37550746.094   195536341.097         -19.316          43.000    37550743.340   151201090.670          44.625    37550736.719   158889451.331          45.625  
C07  36625482.875   190719244.766       -1065.164          45.375    36625478.910   147475932.451          48.000    36625470.117   154975152.545          48.813  
C08  36637252.711   190779779.526        -209.883          45.500    36637248.418   147522569.153          48.375    36637240.387   155023717.130          49.625  
C10  36407555.110   189583958.087        -469.379          45.688    36407553.113   146597874.274          48.188    36407543.442   154052012.044          49.188  
C11  23984013.196   124890366.679        2099.523          43.688    23984013.805    96573675.850          46.313    23984003.781   101484195.768          45.500  
C12  21579431.774   112370503.102        -201.101          47.625    21579429.481    86891697.746          52.625    21579421.332    91309920.181          53.688  
> 2012 10 14 00 02 33.0000000  0  8                     
C01  36659423.765   190895265.965         -34.492          45.375    36659416.758   147612318.877          47.500    36659411.250   155118006.109          47.313  
C03  38700469.156   201522776.280          -0.656          40.875    38700465.969   155830196.718          42.188    38700460.281   163753766.765          42.625  
C04  37550750.313   195536360.564         -19.441          43.125    37550746.973   151201105.720          44.500    37550740.465   158889467.147          45.813  
C07  36625687.617   190720310.080       -1065.379          45.313    36625683.629   147476756.218          48.000    36625674.836   154976018.197          48.813  
C08  36637293.344   190779989.485        -210.011          45.500    36637288.641   147522731.504          48.375    36637280.492   155023887.742          49.500  
C10  36407644.758   189584427.593        -469.523          45.375    36407643.324   146598237.320          48.313    36407633.828   154052393.555          49.500  
C11  23983610.055   124888267.407        2099.109          43.813    23983610.410    96572052.565          46.813    23983600.856   101482489.939          45.500  
C12  21579470.516   112370704.532        -201.625          47.375    21579468.106    86891853.505          52.375    21579459.961    91310083.857          53.625  
> 2012 10 14 00 02 34.0000000  0  8                     
C01  36659430.242   190895300.447         -34.414          45.313    36659422.863   147612345.539          47.813    36659417.414   155118034.130          47.188  
C03  38700469.570   201522776.943          -0.547          40.375    38700466.308   155830197.227          42.188    38700460.508   163753767.310          42.688  
C04  37550754.187   195536380.043         -19.402          43.000    37550751.012   151201120.783          44.625    37550744.211   158889482.977          45.813  
C07  36625892.164   190721375.536       -1065.399          45.000    36625888.375   147477580.093          48.313    36625879.582   154976883.965          48.688  
C08  36637333.438   190780199.417        -209.813          45.500    36637328.859   147522893.840          48.375    36637320.832   155024058.330          49.625  
C10  36407735.258   189584897.305        -469.765          45.500    36407733.394   146598600.530          48.313    36407724.078   154052775.232          49.375  
C11  23983207.102   124886168.379        2098.984          43.688    23983207.836    96570429.469          46.375    23983198.051   101480784.309          45.813  
C12  21579509.359   112370906.314        -201.891          47.500    21579506.715    86892009.537          52.813    21579498.566    91310247.828          53.625  
> 2012 10 14 00 02 35.0000000  0  8                     
C01  36659437.484   190895334.956         -34.434          45.625    36659429.699   147612372.220          47.813    36659424.367   155118062.169          46.875  
C03  38700469.086   201522777.575          -0.601          40.875    38700466.590   155830197.718          42.188    38700460.555   163753767.821          42.625  
C04  37550757.476   195536399.511         -19.348          43.000    37550754.520   151201135.836          44.500    37550747.836   158889498.800          45.813  
C07  36626096.898   190722441.188       -1065.582          45.375    36626093.121   147478404.120          48.125    36626084.387   154977749.890          48.813  
C08  36637374.094   190780409.378        -209.910          45.625    36637369.578   147523056.190          48.500    36637361.375   155024228.933          49.875  
C10  36407825.344   189585367.209        -469.973          45.375    36407823.902   146598963.891          48.375    36407814.348   154053157.068          49.313  
C11  23982804.227   124884069.628        2098.808          43.688    23982804.676    96568806.579          46.000    23982794.828   101479078.907          46.000  
C12  21579547.922   112371108.440        -202.203          47.500    21579545.922    86892165.835          52.500    21579537.660    91310412.074          53.688  
> 2012 10 14 00 02 36.0000000  0  8                     
C01  36659443.656   190895369.477         -34.469          45.188    36659436.172   147612398.911          47.375    36659430.601   155118090.217          47.188  
C03  38700470.180   201522778.237          -0.500          40.875    38700466.563   155830198.229          42.125    38700460.875   163753768.360          42.625  
C04  37550760.922   195536419.016         -19.418          43.125    37550758.273   151201150.919          44.313    37550751.531   158889514.648          45.313  
C07  36626301.547   190723507.005       -1065.793          45.313    36626297.766   147479228.276          48.375    36626289.094   154978615.956          48.500  
C08  36637414.336   190780619.330        -209.840          45.375    36637409.414   147523218.534          48.313    36637401.442   155024399.534          49.375  
C10  36407915.601   189585837.287        -470.117          45.875    36407913.977   146599327.385          48.313    36407904.601   154053539.042          49.188  
C11  23982400.984   124881971.197        2098.457          43.875    23982401.473    96567183.943          45.813    23982391.625   101477373.765          46.000  
C12  21579586.797   112371310.922        -202.539          47.688    21579584.582    86892322.410          52.500    21579576.438    91310576.606          53.188  
> 2012 10 14 00 02 37.0000000  0  8                     
C01  36659450.399   190895403.924         -34.399          45.125    36659442.992   147612425.547          47.688    36659437.308   155118118.207          46.813  
C03  38700469.883   201522778.869          -0.582          40.813    38700466.922   155830198.722          42.000    38700461.058   163753768.872          42.688  
C04  37550765.211   195536438.416         -19.246          42.813    37550761.996   151201165.918          44.500    37550755.488   158889530.412          45.313  
C07  36626506.344   190724572.912       -1065.875          45.313    36626502.422   147480052.503          49.000    36626493.629   154979482.096          48.813  
C08  36637454.352   190780829.227        -209.742          45.813    36637449.863   147523380.842          48.375    36637441.832   155024570.093          49.188  
C10  36408006.172   189586307.473        -470.121          45.875    36408004.453   146599690.967          48.313    36407995.074   154053921.110          49.375  
C11  23981997.914   124879872.942        2098.274          44.188    23981998.461    96565561.444          45.813    23981988.672   101475668.762          45.813  
C12  21579626.109   112371513.685        -202.844          47.500    21579623.828    86892479.191          52.500    21579615.504    91310741.362          53.500  
> 2012 10 14 00 02 38.0000000  0  8                     
C01  36659457.047   190895438.410         -34.473          45.375    36659449.524   147612452.212          47.313    36659444.187   155118146.230          46.875  
C03  38700469.726   201522779.470          -0.547          41.000    38700467.035   155830199.189          41.625    38700460.883   163753769.358          42.688  
C04  37550768.695   195536457.877         -19.422          43.000    37550765.859   151201180.970          44.313    37550759.180   158889546.227          45.375  
C07  36626711.172   190725638.997       -1066.129          45.500    36626707.043   147480876.861          48.813    36626698.196   154980348.375          48.813  
C08  36637495.015   190781039.126        -209.930          45.188    36637490.316   147523543.149          48.313    36637482.110   155024740.649          49.313  
C10  36408096.492   189586777.878        -470.508          45.813    36408094.527   146600054.711          48.125    36408085.035   154054303.353          49.125  
C11  23981595.492   124877774.993        2097.758          43.875    23981596.402    96563939.182          46.125    23981586.144   101473964.011          45.188  
C12  21579664.891   112371716.809        -203.238          47.500    21579662.559    86892636.257          52.188    21579654.293    91310906.413          53.500  
> 2012 10 14 00 02 39.0000000  0  8                     
C01  36659463.211   190895472.914         -34.410          45.625    36659456.383   147612478.888          47.313    36659450.816   155118174.258          47.313  
C03  38700469.750   201522780.108          -0.570          40.813    38700466.949   155830199.679          41.625    38700460.973   163753769.876          42.188  
C04  37550772.391   195536477.334         -19.445          43.000    37550770.051   151201196.011          44.313    37550763.016   158889562.033          45.313  
C07  36626915.578   190726705.244       -1066.211          45.500    36626912.199   147481701.354          48.313    36626903.289   154981214.790          49.125  
C08  36637535.031   190781249.050        -209.879          45.313    36637530.574   147523705.473          48.813    36637522.367   155024911.234          49.188  
C10  36408186.797   189587248.477        -470.680          45.313    36408184.828   146600418.606          47.500    36408175.449   154054685.753          48.813  
C11  23981192.203   124875677.289        2097.691          44.000    23981192.996    96562317.110          46.313    23981182.856   101472259.459          45.188  
C12  21579703.766   112371920.289        -203.648          47.313    21579701.582    86892793.598          52.125    21579693.613    91311071.759          53.500  
> 2012 10 14 00 02 40.0000000  0  8                     
C01  36659470.305   190895507.367         -34.496          45.313    36659462.887   147612505.531          47.313    36659457.320   155118202.256          47.625  
C03  38700470.078   201522780.692          -0.598          41.125    38700467.023   155830200.131          41.813    38700460.926   163753770.352          42.500  
C04  37550776.055   195536496.744         -19.457          42.813    37550772.809   151201211.019          44.313    37550766.246   158889577.804          45.500  
C07  36627120.367   190727771.588       -1066.489          45.500    36627116.621   147482525.917          48.188    36627107.652   154982081.279          49.125  
C08  36637575.523   190781458.905        -209.816          45.500    36637570.820   147523867.751          48.875    36637562.847   155025081.763          49.313  
C10  36408277.125   189587719.219        -470.828          45.500    36408275.429   146600782.608          47.688    36408265.934   154055068.268          48.625  
C11  23980789.539   124873579.837        2097.289          43.875    23980790.348    96560695.230          46.188    23980780.035   101470555.112          45.688  
C12  21579743.109   112372124.025        -203.910          47.500    21579741.043    86892951.143          52.000    21579732.840    91311237.309          53.813  
> 2012 10 14 00 02 41.0000000  0  8                     
C01  36659476.914   190895541.838         -34.379          45.125    36659469.797   147612532.183          47.125    36659464.230   155118230.267          47.000  
C03  38700470.219   201522781.332          -0.523          40.875    38700467.484   155830200.625          41.813    38700461.328   163753770.872          42.188  
C04  37550779.539   195536516.153         -19.367          42.625    37550776.824   151201226.027          44.500    37550770.438   158889593.575          45.125  
C07  36627325.492   190728838.141       -1066.543          45.000    36627321.578   147483350.642          48.625    36627312.785   154982947.938          48.813  
C08  36637616.070   190781668.794        -209.785          45.688    36637610.855   147524030.048          49.000    36637602.946   155025252.311          49.000  
C10  36408367.898   189588190.161        -470.980          45.688    36408365.543   146601146.766          48.000    36408356.226   154055450.946          48.875  
C11  23980386.453   124871482.661        2097.148          43.813    23980387.586    96559073.560          46.313    23980377.211   101468850.982          46.000  
C12  21579782.305   112372328.132        -204.242          47.313    21579779.816    86893108.976          52.313    21579771.668    91311403.164          53.875  
> 2012 10 14 00 02 42.0000000  0  8                     
C01  36659483.398   190895576.258         -34.246          45.000    36659476.195   147612558.800          47.188    36659470.746   155118258.239          47.000  
C03  38700470.555   201522781.896          -0.289          41.188    38700467.328   155830201.059          42.125    38700461.586   163753771.329          42.375  
C04  37550783.601   195536535.550         -19.168          42.688    37550780.980   151201241.024          44.500    37550774.238   158889609.334          44.813  
C07  36627530.250   190729904.775       -1066.512          44.688    36627526.442   147484175.430          49.000    36627517.769   154983814.669          49.188  
C08  36637655.984   190781878.639        -209.652          45.125    36637651.160   147524192.315          49.125    36637643.250   155025422.827          49.125  
C10  36408458.219   189588661.218        -470.840          45.375    36408456.375   146601511.016          48.188    36408446.762   154055833.714          48.875  
C11  23979984.086   124869385.689        2097.062          43.375    23979985.039    96557452.043          46.500    23979974.664   101467147.026          46.313  
C12  21579821.617   112372532.527        -204.320          47.188    21579819.281    86893267.025          52.188    21579811.016    91311569.253          54.000  
> 2012 10 14 00 02 43.0000000  0  8                     
C01  36659489.907   190895610.683         -34.227          45.375    36659482.813   147612585.419          47.313    36659477.422   155118286.208          47.188  
C03  38700470.383   201522782.494          -0.500          40.875    38700466.914   155830201.524          42.375    38700461.109   163753771.818          42.625  
C04  37550787.148   195536554.951         -19.230          42.875    37550784.160   151201256.021          44.625    37550777.652   158889625.101          45.125  
C07  36627735.133   190730971.594       -1066.828          44.875    36627731.203   147485000.361          48.625    36627722.469   154984681.548          49.375  
C08  36637696.390   190782088.471        -209.711          45.125    36637691.777   147524354.568          48.688    36637683.574   155025593.332          49.125  
C10  36408548.555   189589132.498        -471.176          45.313    36408546.914   146601875.443          48.375    36408537.246   154056216.668          48.875  
C11  23979581.360   124867289.020        2096.555          43.188    23979582.207    96555830.772          46.375    23979571.656   101465443.310          45.688  
C12  21579860.852   112372737.264        -204.801          47.313    21579858.683    86893425.339          52.313    21579850.477    91311735.622          54.125  
> 2012 10 14 00 02 44.0000000  0  8                     
C01  36659496.875   190895645.218         -34.461          44.688    36659489.316   147612612.124          47.813    36659483.691   155118314.271          47.000  
C03  38700470.188   201522783.167          -0.645          41.000    38700467.352   155830202.044          42.813    38700461.727   163753772.366          43.125  
C04  37550791.234   195536574.446         -19.336          42.688    37550787.957   151201271.094          44.625    37550781.395   158889640.939          45.188  
C07  36627939.867   190732038.673       -1067.140          44.875    36627936.106   147485825.493          48.375    36627927.316   154985548.633          48.813  
C08  36637736.844   190782298.415        -209.945          44.875    36637731.895   147524516.910          48.875    36637723.746   155025763.932          49.125  
C10  36408639.211   189589604.040        -471.633          45.125    36408636.988   146602240.064          48.625    36408627.555   154056599.833          49.000  
C11  23979178.703   124865192.707        2096.308          42.813    23979179.566    96554209.773          46.813    23979169.367   101463739.888          45.688  
C12  21579900.109   112372942.467        -205.293          47.500    21579897.844    86893584.018          52.000    21579889.754    91311902.368          54.313  
> 2012 10 14 00 02 45.0000000  0  8                     
C01  36659503.242   190895679.632         -34.547          45.125    36659495.953   147612638.732          48.000    36659490.680   155118342.235          47.375  
C03  38700470.609   201522783.754          -0.672          41.313    38700467.305   155830202.505          42.813    38700461.680   163753772.846          42.813  
C04  37550794.687   195536593.824         -19.551          43.125    37550791.633   151201286.080          44.375    37550785.129   158889656.686          45.375  
C07  36628145.047   190733105.790       -1067.395          45.000    36628140.781   147486650.657          48.188    36628132.281   154986415.750          48.813  
C08  36637776.906   190782508.226        -209.898          45.188    36637772.488   147524679.151          49.188    36637764.281   155025934.416          49.125  
C10  36408729.633   189590075.615        -471.848          45.188    36408727.539   146602604.718          48.625    36408718.336   154056983.025          48.875  
C11  23978776.289   124863096.533        2095.852          43.000    23978777.445    96552588.884          46.813    23978767.070   101462036.572          46.000  
C12  21579939.836   112373147.847        -205.742          47.313    21579937.656    86893742.827          51.875    21579929.336    91312069.255          53.500  
> 2012 10 14 00 02 46.0000000  0  8                     
C01  36659509.703   190895714.154         -34.457          44.625    36659502.481   147612665.428          47.500    36659497.207   155118370.286          46.688  
C03  38700470.695   201522784.368          -0.473          40.688    38700467.606   155830202.977          42.625    38700461.860   163753773.343          42.688  
C04  37550798.719   195536613.261         -19.281          42.375    37550795.426   151201301.110          44.688    37550788.801   158889672.475          45.625  
C07  36628350.055   190734173.130       -1067.332          44.875    36628346.168   147487475.990          48.000    36628337.434   154987283.052          48.875  
C08  36637816.953   190782718.094        -209.754          44.875    36637812.903   147524841.430          49.000    36637804.637   155026104.946          49.375  
C10  36408820.406   189590547.463        -471.930          45.188    36408818.043   146602969.578          48.500    36408808.781   154057366.438          48.688  
C11  23978373.367   124861000.726        2095.770          43.188    23978374.691    96550968.277          46.813    23978364.317   101460333.561          45.875  
C12  21579979.203   112373353.666        -205.848          47.188    21579976.980    86893901.982          52.125    21579968.949    91312236.498          53.375  
> 2012 10 14 00 02 47.0000000  0  8                     
C01  36659516.336   190895748.662         -34.410          44.688    36659509.113   147612692.113          47.188    36659503.484   155118398.322          46.625  
C03  38700470.586   201522785.015          -0.578          40.500    38700467.637   155830203.474          42.000    38700462.008   163753773.874          42.500  
C04  37550802.344   195536632.732         -19.383          42.625    37550799.168   151201316.163          44.688    37550792.488   158889688.298          45.875  
C07  36628554.969   190735240.626       -1067.559          45.125    36628551.047   147488301.445          47.500    36628542.137   154988150.477          49.313  
C08  36637857.305   190782927.994        -209.820          44.688    36637852.930   147525003.733          48.813    36637844.898   155026275.509          49.500  
C10  36408911.273   189591019.476        -472.000          45.500    36408909.328   146603334.577          48.313    36408899.832   154057749.994          48.813  
C11  23977971.414   124858905.180        2095.414          43.375    23977972.816    96549347.874          46.625    23977962.500   101458630.761          45.688  
C12  21580018.719   112373559.820        -206.301          47.500    21580016.559    86894061.396          52.188    21580008.058    91312404.014          53.500  
> 2012 10 14 00 02 48.0000000  0  8                     
C01  36659522.953   190895783.168         -34.332          44.688    36659515.875   147612718.787          47.000    36659510.308   155118426.356          47.000  
C03  38700470.969   201522785.673          -0.527          40.625    38700468.195   155830203.982          41.500    38700462.273   163753774.408          42.375  
C04  37550806.391   195536652.159         -19.250          42.813    37550803.031   151201331.185          44.688    37550796.352   158889704.078          45.813  
C07  36628759.875   190736308.286       -1067.696          44.688    36628755.926   147489127.025          47.375    36628747.367   154989018.041          49.188  
C08  36637898.055   190783137.846        -209.722          44.625    36637893.098   147525166.005          48.813    36637885.071   155026446.026          49.500  
C10  36409001.445   189591491.675        -472.172          45.313    36408999.930   146603699.711          48.188    36408990.492   154058133.691          48.625  
C11  23977568.430   124856809.872        2095.336          43.125    23977569.984    96547727.660          46.188    23977559.613   101456928.154          45.875  
C12  21580058.430   112373766.308        -206.508          47.188    21580056.094    86894221.064          52.313    21580047.945    91312571.800          53.313  
> 2012 10 14 00 02 49.0000000  0  8                     
C01  36659529.797   190895817.715         -34.446          44.500    36659522.567   147612745.502          47.313    36659517.172   155118454.433          46.688  
C03  38700470.844   201522786.351          -0.551          40.313    38700467.727   155830204.508          41.813    38700461.980   163753774.957          42.125  
C04  37550809.469   195536671.634         -19.383          42.313    37550806.692   151201346.243          44.500    37550800.129   158889719.909          45.625  
C07  36628964.961   190737376.131       -1067.867          44.688    36628961.254   147489952.750          47.625    36628952.402   154989885.753          49.188  
C08  36637937.969   190783347.779        -209.797          44.625    36637933.594   147525328.339          48.813    36637925.504   155026616.617          49.313  
C10  36409092.391   189591964.106        -472.352          45.188    36409090.289   146604065.027          48.125    36409081.203   154058517.587          48.625  
C11  23977166.797   124854714.870        2095.015          43.688    23977167.738    96546107.672          46.313    23977157.422   101455225.802          46.000  
C12  21580098.438   112373973.163        -206.867          47.188    21580096.254    86894381.017          52.313    21580087.871    91312739.888          53.375  
> 2012 10 14 00 02 50.0000000  0  8                     
C01  36659536.508   190895852.285         -34.594          44.625    36659529.262   147612772.238          47.313    36659523.871   155118482.525          46.875  
C03  38700471.422   201522787.071          -0.711          40.813    38700468.340   155830205.061          41.875    38700462.715   163753775.539          42.688  
C04  37550813.422   195536691.159         -19.508          43.000    37550810.304   151201361.338          44.813    37550803.914   158889735.771          45.688  
C07  36629169.648   190738444.175       -1068.211          44.875    36629166.086   147490778.628          48.000    36629157.410   154990753.626          49.313  
C08  36637978.297   190783557.709        -209.836          45.125    36637973.926   147525490.667          48.313    36637965.602   155026787.204          49.625  
C10  36409182.992   189592436.739        -472.699          45.813    36409181.187   146604430.498          48.125    36409171.696   154058901.640          48.500  
C11  23976764.313   124852620.197        2094.547          43.375    23976765.676    96544487.940          46.188    23976755.125   101453523.712          46.188  
C12  21580138.070   112374180.384        -207.340          47.313    21580135.981    86894541.251          52.313    21580127.543    91312908.272          53.875  
> 2012 10 14 00 02 51.0000000  0  8                     
C01  36659542.774   190895886.802         -34.477          44.875    36659535.633   147612798.926          47.313    36659530.238   155118510.575          46.875  
C03  38700471.359   201522787.696          -0.484          40.625    38700468.012   155830205.547          42.000    38700462.504   163753776.045          42.313  
C04  37550817.289   195536710.584         -19.274          43.188    37550814.348   151201376.355          45.125    37550807.668   158889751.553          45.375  
C07  36629375.203   190739512.292       -1068.168          45.188    36629371.601   147491604.562          48.188    36629362.633   154991621.554          49.313  
C08  36638018.891   190783767.586        -209.867          45.625    36638014.223   147525652.961          48.188    36638006.074   155026957.744          49.625  
C10  36409273.797   189592909.447        -472.688          45.813    36409272.074   146604796.023          47.688    36409262.461   154059285.751          48.688  
C11  23976362.094   124850525.697        2094.410          43.313    23976362.769    96542868.343          46.188    23976352.691   101451821.761          46.000  
C12  21580177.945   112374387.872        -207.633          47.313    21580175.649    86894701.691          51.875    21580167.383    91313076.870          53.813  
> 2012 10 14 00 02 52.0000000  0  8                     
C01  36659549.726   190895921.234         -34.508          45.313    36659542.555   147612825.551          47.625    36659536.809   155118538.555          47.000  
C03  38700471.797   201522788.280          -0.473          40.375    38700468.442   155830206.003          42.125    38700462.992   163753776.525          42.313  
C04  37550820.617   195536729.974         -19.399          43.813    37550817.941   151201391.346          44.875    37550811.437   158889767.306          45.125  
C07  36629580.461   190740580.495       -1068.297          45.000    36629576.668   147492430.564          48.188    36629567.762   154992489.551          49.188  
C08  36638058.976   190783977.376        -209.840          45.313    36638054.836   147525815.183          48.625    36638046.688   155027128.216          49.500  
C10  36409364.750   189593382.317        -472.969          45.500    36409363.039   146605161.671          47.875    36409353.488   154059669.996          48.813  
C11  23975959.890   124848431.419        2094.070          43.000    23975960.961    96541248.918          46.375    23975950.586   101450119.991          45.813  
C12  21580217.859   112374595.649        -207.914          47.313    21580215.328    86894862.356          52.188    21580207.184    91313245.710          53.500  
> 2012 10 14 00 02 53.0000000  0  8                     
C01  36659556.508   190895955.760         -34.402          45.313    36659549.168   147612852.247          47.625    36659543.426   155118566.607          47.000  
C03  38700471.727   201522788.946          -0.555          40.688    38700468.535   155830206.520          42.188    38700462.965   163753777.069          42.375  
C04  37550824.578   195536749.435         -19.168          43.500    37550821.758   151201406.390          44.875    37550815.078   158889783.115          45.375  
C07  36629785.648   190741648.948       -1068.367          45.313    36629781.734   147493256.762          48.375    36629773.000   154993357.761          49.625  
C08  36638099.445   190784187.244        -209.707          45.500    36638095.117   147525977.465          48.500    36638086.676   155027298.751          49.313  
C10  36409455.461   189593855.442        -473.086          45.500    36409453.855   146605527.520          48.000    36409444.187   154060054.445          48.875  
C11  23975557.875   124846337.473        2093.957          43.188    23975558.816    96539629.746          46.375    23975548.504   101448418.488          45.813  
C12  21580257.836   112374803.828        -208.262          47.313    21580255.285    86895023.335          52.375    21580247.140    91313414.867          53.188  
> 2012 10 14 00 02 54.0000000  0  8                     
C01  36659562.633   190895990.284         -34.449          44.500    36659555.500   147612878.944          47.813    36659550.051   155118594.659          47.000  
C03  38700471.547   201522789.635          -0.523          40.813    38700469.008   155830207.052          42.000    38700462.914   163753777.623          42.500  
C04  37550828.672   195536768.910         -19.328          43.000    37550825.406   151201421.453          44.688    37550818.898   158889798.944          45.188  
C07  36629991.172   190742717.577       -1068.590          45.000    36629986.988   147494083.090          48.625    36629978.137   154994226.108          49.188  
C08  36638139.625   190784397.104        -209.867          44.875    36638135.125   147526139.737          48.375    36638126.976   155027469.276          49.500  
C10  36409546.226   189594328.737        -473.301          45.000    36409544.730   146605893.495          48.125    36409535.235   154060439.030          49.125  
C11  23975155.422   124844243.800        2093.641          43.125    23975156.531    96538010.790          46.625    23975146.274   101446717.205          45.813  
C12  21580297.820   112375012.358        -208.633          47.188    21580295.625    86895184.583          52.500    21580287.305    91313584.316          53.500  
> 2012 10 14 00 02 55.0000000  0  8                     
C01  36659569.812   190896024.885         -34.590          44.688    36659562.391   147612905.697          47.813    36659556.824   155118622.769          47.125  
C03  38700471.703   201522790.407          -0.692          41.313    38700468.668   155830207.649          41.813    38700462.980   163753778.251          42.625  
C04  37550832.344   195536788.459         -19.570          43.188    37550829.223   151201436.566          44.688    37550822.484   158889814.830          45.313  
C07  36630196.289   190743786.436       -1068.856          45.375    36630192.414   147494909.600          48.375    36630183.625   154995094.641          49.125  
C08  36638180.070   190784607.033        -209.938          45.000    36638175.656   147526302.068          48.188    36638167.449   155027639.856          49.625  
C10  36409637.695   189594802.291        -473.715          45.313    36409635.684   146606259.679          48.188    36409626.246   154060823.832          49.313  
C11  23974753.524   124842150.502        2093.196          43.500    23974754.727    96536392.123          46.688    23974744.472   101445016.233          45.688  
C12  21580337.812   112375221.284        -209.082          47.375    21580335.308    86895346.142          52.375    21580327.101    91313754.088          53.625  
> 2012 10 14 00 02 56.0000000  0  8                     
C01  36659576.242   190896059.382         -34.469          45.000    36659569.004   147612932.372          47.500    36659563.613   155118650.802          46.875  
C03  38700472.133   201522791.072          -0.640          41.000    38700468.777   155830208.165          42.813    38700463.328   163753778.794          42.500  
C04  37550836.328   195536807.897         -19.391          43.000    37550833.098   151201451.598          45.125    37550826.531   158889830.624          45.000  
C07  36630401.430   190744855.314       -1068.903          45.625    36630397.453   147495736.120          48.313    36630388.781   154995963.194          49.125  
C08  36638220.359   190784816.844        -209.722          45.500    36638215.653   147526464.308          48.375    36638207.562   155027810.349          49.625  
C10  36409728.351   189595275.917        -473.633          45.500    36409726.625   146606625.916          48.313    36409717.364   154061208.692          49.188  
C11  23974351.601   124840057.285        2093.250          43.500    23974352.773    96534773.516          46.813    23974342.516   101443315.328          45.625  
C12  21580378.180   112375430.436        -209.262          47.375    21580376.113    86895507.874          52.875    21580367.731    91313924.042          53.688  
> 2012 10 14 00 02 57.0000000  0  8                     
C01  36659582.633   190896093.901         -34.527          45.188    36659575.422   147612959.061          47.313    36659570.031   155118678.852          46.625  
C03  38700472.312   201522791.759          -0.652          41.313    38700469.254   155830208.695          42.500    38700463.391   163753779.350          42.188  
C04  37550839.969   195536827.369         -19.535          42.688    37550836.555   151201466.653          45.000    37550830.227   158889846.443          45.188  
C07  36630606.617   190745924.407       -1069.137          45.625    36630602.582   147496562.811          48.375    36630593.847   154996831.923          49.000  
C08  36638260.523   190785026.706        -209.910          45.625    36638256.183   147526626.590          48.313    36638247.918   155027980.883          49.813  
C10  36409819.555   189595749.759        -473.937          45.625    36409817.070   146606992.322          48.500    36409807.809   154061593.730          49.188  
C11  23973949.414   124837964.444        2092.672          43.375    23973950.856    96533155.202          46.625    23973940.539   101441614.731          45.625  
C12  21580418.414   112375639.978        -209.758          47.500    21580415.711    86895669.902          53.000    21580407.680    91314094.308          53.875  
> 2012 10 14 00 02 58.0000000  0  8                     
C01  36659589.289   190896128.410         -34.492          45.188    36659582.176   147612985.748          47.313    36659576.668   155118706.894          46.375  
C03  38700471.860   201522792.420          -0.781          41.313    38700469.023   155830209.210          42.875    38700463.516   163753779.892          42.125  
C04  37550843.219   195536846.795         -19.449          43.000    37550840.203   151201481.676          44.500    37550833.696   158889862.231          45.500  
C07  36630811.680   190746993.630       -1069.348          45.500    36630807.867   147497389.604          48.375    36630799.250   154997700.752          49.313  
C08  36638301.047   190785236.530        -209.902          46.125    36638296.199   147526788.835          48.000    36638287.992   155028151.380          49.313  
C10  36409910.687   189596223.770        -474.160          45.813    36409908.629   146607358.859          48.625    36409899.191   154061978.901          49.125  
C11  23973547.726   124835871.808        2092.414          43.625    23973548.957    96531537.047          46.688    23973538.527   101439914.295          45.375  
C12  21580458.906   112375849.804        -210.051          47.500    21580456.055    86895832.150          52.813    21580448.027    91314264.809          54.000  
> 2012 10 14 00 02 59.0000000  0  8                     
C01  36659595.844   190896162.903         -34.519          45.375    36659588.801   147613012.419          47.313    36659583.351   155118734.923          46.313  
C03  38700472.031   201522793.058          -0.918          41.313    38700469.149   155830209.699          42.625    38700463.695   163753780.413          42.313  
C04  37550846.922   195536866.200         -19.418          42.813    37550844.035   151201496.678          44.500    37550837.531   158889877.996          45.688  
C07  36631017.640   190748062.983       -1069.500          45.000    36631013.875   147498216.494          48.375    36631004.789   154998569.682          49.188  
C08  36638341.195   190785446.307        -209.820          46.000    36638336.649   147526951.049          47.875    36638328.500   155028321.844          49.313  
C10  36410001.625   189596697.901        -474.375          45.625    36409999.855   146607725.486          48.500    36409990.125   154062364.167          48.688  
C11  23973146.312   124833779.398        2092.281          43.500    23973147.176    96529919.068          46.313    23973136.980   101438214.041          45.125  
C12  21580498.922   112376059.954        -210.457          47.375    21580496.656    86895994.655          52.625    21580488.508    91314435.571          53.813  
> 2012 10 14 00 03 00.0000000  0  8                     
C01  36659602.734   190896197.416         -34.644          44.875    36659595.488   147613039.104          47.625    36659590.156   155118762.969          46.688  
C03  38700471.844   201522793.732          -0.836          41.313    38700469.391   155830210.221          42.188    38700463.707   163753780.955          42.125  
C04  37550851.188   195536885.666         -19.605          42.688    37550848.047   151201511.730          44.625    37550841.133   158889893.813          46.000  
C07  36631222.844   190749132.524       -1069.687          45.125    36631218.676   147499043.527          48.375    36631210.004   154999438.766          48.813  
C08  36638381.758   190785656.122        -209.887          45.813    36638376.781   147527113.295          47.813    36638368.695   155028492.330          49.375  
C10  36410092.617   189597172.256        -474.520          45.688    36410090.883   146608092.287          48.688    36410081.328   154062749.618          48.625  
C11  23972744.297   124831687.330        2091.852          43.688    23972745.168    96528301.345          46.313    23972735.090   101436514.066          45.375  
C12  21580539.492   112376270.484        -210.801          47.500    21580536.941    86896157.446          52.500    21580528.973    91314606.644          53.688  
> 2012 10 14 00 03 01.0000000  0  8                     
C01  36659608.961   190896231.919         -34.594          45.125    36659601.851   147613065.780          47.188    36659596.461   155118791.005          46.625  
C03  38700472.352   201522794.377          -0.750          40.875    38700469.270   155830210.719          42.375    38700463.816   163753781.479          42.313  
C04  37550854.516   195536905.071         -19.492          42.625    37550851.746   151201526.730          44.813    37550845.004   158889909.579          45.500  
C07  36631427.938   190750202.204       -1069.844          45.125    36631424.524   147499870.670          48.375    36631415.617   155000307.969          48.813  
C08  36638421.930   190785865.913        -209.852          45.375    36638417.261   147527275.519          48.188    36638408.996   155028662.810          49.813  
C10  36410183.820   189597646.762        -474.699          45.500    36410181.871   146608459.204          48.688    36410172.375   154063135.191          48.875  
C11  23972342.672   124829595.489        2091.590          43.813    23972343.320    96526683.803          46.188    23972333.125   101434814.274          45.625  
C12  21580580.016   112376481.305        -211.059          47.313    21580577.473    86896320.468          52.188    21580569.266    91314777.955          54.125  
> 2012 10 14 00 03 02.0000000  0  8                     
C01  36659616.109   190896266.425         -34.477          44.875    36659608.773   147613092.463          46.875    36659603.383   155118819.039          47.313  
C03  38700471.992   201522795.042          -0.664          41.313    38700469.403   155830211.234          42.875    38700464.012   163753782.022          42.625  
C04  37550858.086   195536924.476         -19.297          42.813    37550855.172   151201541.736          44.500    37550848.551   158889925.346          45.313  
C07  36631633.711   190751272.048       -1069.922          45.500    36631629.594   147500697.941          48.375    36631620.860   155001177.302          49.313  
C08  36638461.789   190786075.707        -209.766          45.500    36638457.422   147527437.747          48.375    36638449.219   155028833.284          49.188  
C10  36410275.062   189598121.471        -474.762          46.000    36410273.207   146608826.279          48.625    36410263.828   154063520.927          48.688  
C11  23971940.875   124827503.925        2091.511          44.125    23971941.789    96525066.480          46.375    23971931.531   101433114.711          45.625  
C12  21580620.430   112376692.483        -211.289          47.625    21580618.242    86896483.768          52.188    21580609.918    91314949.558          54.000  
> 2012 10 14 00 03 03.0000000  0  8                     
C01  36659622.555   190896300.938         -34.391          45.000    36659615.172   147613119.153          47.188    36659609.723   155118847.085          47.188  
C03  38700472.305   201522795.683          -0.680          41.313    38700469.965   155830211.735          42.313    38700464.281   163753782.540          42.313  
C04  37550862.484   195536943.900         -19.168          43.188    37550858.887   151201556.756          44.813    37550852.441   158889941.129          45.188  
C07  36631839.375   190752342.048       -1070.016          46.125    36631835.031   147501525.334          48.000    36631826.473   155002046.772          49.125  
C08  36638502.781   190786285.486        -209.703          46.000    36638497.843   147527599.954          48.188    36638489.754   155029003.746          49.375  
C10  36410366.086   189598596.356        -474.941          46.313    36410364.414   146609193.492          48.500    36410354.918   154063906.815          48.625  
C11  23971539.445   124825412.617        2091.328          43.688    23971539.945    96523449.347          46.125    23971529.984   101431415.353          45.688  
C12  21580661.078   112376903.997        -211.571          47.875    21580658.609    86896647.323          52.125    21580650.461    91315121.432          54.313  
> 2012 10 14 00 03 04.0000000  0  8                     
C01  36659629.024   190896335.459         -34.613          45.188    36659621.750   147613145.842          47.000    36659616.125   155118875.133          47.313  
C03  38700472.828   201522796.341          -0.598          41.500    38700469.746   155830212.244          42.313    38700464.063   163753783.077          42.813  
C04  37550865.781   195536963.353         -19.418          43.813    37550862.969   151201571.794          44.875    37550856.461   158889956.938          44.875  
C07  36632045.000   190753412.207       -1070.149          46.125    36632040.641   147502352.846          47.500    36632031.965   155002916.366          49.313  
C08  36638542.727   190786495.268        -209.719          46.000    36638537.910   147527762.173          48.125    36638529.824   155029174.209          49.500  
C10  36410457.195   189599071.420        -475.141          46.313    36410455.414   146609560.839          48.813    36410445.918   154064292.841          48.875  
C11  23971138.039   124823321.572        2090.977          43.875    23971138.277    96521832.423          46.375    23971128.371   101429716.210          45.813  
C12  21580701.500   112377115.850        -211.980          47.875    21580699.457    86896811.135          52.375    21580691.191    91315293.579          53.813  
> 2012 10 14 00 03 05.0000000  0  8                     
C01  36659635.523   190896369.938         -34.594          45.188    36659628.422   147613172.501          47.313    36659622.910   155118903.146          46.875  
C03  38700472.727   201522796.979          -0.699          41.313    38700470.043   155830212.730          42.313    38700464.360   163753783.595          42.813  
C04  37550869.445   195536982.761         -19.590          43.313    37550866.648   151201586.803          44.500    37550859.965   158889972.710          45.000  
C07  36632250.070   190754482.465       -1070.387          45.813    36632246.301   147503180.432          47.625    36632237.449   155003786.040          49.313  
C08  36638582.703   190786705.044        -209.847          46.000    36638578.297   147527924.386          48.375    36638570.094   155029344.668          49.313  
C10  36410548.305   189599546.637        -475.371          45.875    36410546.722   146609928.303          48.813    36410537.109   154064678.994          49.000  
C11  23970736.156   124821230.786        2090.602          43.813    23970736.875    96520215.700          46.688    23970726.680   101428017.272          45.688  
C12  21580742.539   112377328.023        -212.422          47.813    21580739.633    86896975.205          52.125    21580731.660    91315465.981          53.813  
> 2012 10 14 00 03 06.0000000  0  8                     
C01  36659642.531   190896404.462         -34.446          45.375    36659635.351   147613199.192          47.500    36659629.723   155118931.196          46.688  
C03  38700473.180   201522797.643          -0.512          41.375    38700470.282   155830213.248          42.188    38700464.480   163753784.138          43.000  
C04  37550873.180   195537002.169         -19.281          43.313    37550870.266   151201601.811          44.625    37550863.641   158889988.475          45.375  
C07  36632455.766   190755552.942       -1070.551          45.813    36632451.766   147504008.193          47.500    36632442.918   155004655.885          49.125  
C08  36638623.227   190786914.795        -209.738          46.000    36638618.820   147528086.577          48.500    36638610.558   155029515.107          49.813  
C10  36410639.781   189600022.061        -475.469          45.813    36410637.996   146610295.934          49.125    36410628.559   154065065.313          48.875  
C11  23970335.196   124819140.283        2090.457          44.125    23970335.828    96518599.190          46.813    23970325.570   101426318.568          45.813  
C12  21580783.195   112377540.527        -212.609          47.500    21580780.731    86897139.521          52.000    21580772.586    91315638.661          54.125  
> 2012 10 14 00 03 07.0000000  0  8                     
C01  36659648.851   190896438.957         -34.410          45.688    36659642.012   147613225.865          47.000    36659636.441   155118959.218          46.813  
C03  38700473.109   201522798.304          -0.567          41.625    38700470.250   155830213.759          42.500    38700464.566   163753784.676          42.813  
C04  37550876.554   195537021.579         -19.313          43.375    37550874.566   151201616.818          44.313    37550867.770   158890004.244          45.688  
C07  36632661.039   190756623.532       -1070.594          45.688    36632657.332   147504836.042          47.813    36632648.539   155005525.828          49.125  
C08  36638663.071   190787124.540        -209.664          45.875    36638658.949   147528248.763          48.313    36638650.863   155029685.540          49.813  
C10  36410730.852   189600497.646        -475.563          45.875    36410729.488   146610663.680          48.625    36410720.051   154065451.766          49.125  
C11  23969933.555   124817050.029        2090.265          44.313    23969934.113    96516982.879          46.500    23969923.918   101424620.069          46.125  
C12  21580824.070   112377753.366        -212.840          47.500    21580821.406    86897304.103          52.125    21580813.496    91315811.606          54.125  
> 2012 10 14 00 03 08.0000000  0  8                     
C01  36659655.484   190896473.373         -34.602          45.500    36659648.508   147613252.475          47.625    36659643.117   155118987.185          46.875  
C03  38700473.375   201522798.874          -0.621          41.188    38700470.328   155830214.199          42.125    38700464.523   163753785.131          42.688  
C04  37550880.688   195537040.922         -19.480          43.375    37550877.981   151201631.770          44.625    37550871.184   158890019.964          46.000  
C07  36632866.851   190757694.208       -1070.813          45.500    36632862.617   147505663.957          47.875    36632854.058   155006395.836          49.125  
C08  36638703.664   190787334.189        -209.801          45.875    36638698.984   147528410.877          48.375    36638691.070   155029855.897          49.625  
C10  36410822.398   189600973.320        -475.871          46.188    36410820.523   146611031.506          48.313    36410811.379   154065838.295          49.000  
C11  23969532.352   124814959.967        2089.848          44.000    23969532.890    96515366.717          46.625    23969522.692   101422921.730          46.000  
C12  21580865.055   112377966.445        -213.371          47.875    21580862.738    86897468.871          52.125    21580854.473    91315984.748          54.125  
> 2012 10 14 00 03 09.0000000  0  8                     
C01  36659662.320   190896507.961         -34.512          45.188    36659654.906   147613279.219          47.625    36659649.395   155119015.292          46.688  
C03  38700473.211   201522799.639          -0.668          40.625    38700470.586   155830214.789          42.000    38700464.961   163753785.756          42.813  
C04  37550884.633   195537060.439         -19.402          43.313    37550881.360   151201646.868          44.625    37550874.852   158890035.821          45.625  
C07  36633072.789   190758765.244       -1070.996          45.625    36633068.426   147506492.153          47.813    36633059.808   155007266.141          49.375  
C08  36638744.078   190787544.056        -209.758          45.875    36638739.644   147528573.158          48.125    36638731.617   155030026.432          49.688  
C10  36410913.648   189601449.389        -475.984          45.688    36410911.723   146611399.634          48.188    36410902.520   154066225.142          48.313  
C11  23969130.305   124812870.356        2089.606          44.000    23969131.473    96513750.896          46.313    23969121.391   101421223.751          46.125  
C12  21580906.195   112378180.061        -213.574          47.313    21580903.715    86897634.052          52.188    21580895.566    91316158.332          54.125  
> 2012 10 14 00 03 10.0000000  0  8                     
C01  36659668.711   190896542.484         -34.563          45.875    36659661.519   147613305.913          47.188    36659656.071   155119043.345          46.313  
C03  38700473.820   201522800.307          -0.601          41.000    38700470.875   155830215.306          41.688    38700464.781   163753786.292          43.000  
C04  37550888.227   195537079.871         -19.371          43.625    37550885.359   151201661.888          44.875    37550878.676   158890051.611          45.688  
C07  36633278.469   190759836.308       -1071.164          45.625    36633274.277   147507320.366          47.688    36633265.777   155008136.470          49.375  
C08  36638784.375   190787753.800        -209.668          46.000    36638779.832   147528735.345          48.313    36638771.625   155030196.865          49.688  
C10  36411005.484   189601925.537        -476.219          45.875    36411003.449   146611767.818          48.188    36410993.957   154066612.050          48.625  
C11  23968729.313   124810780.915        2089.297          44.313    23968730.039    96512135.211          46.500    23968720.016   101419525.916          46.000  
C12  21580947.071   112378393.922        -213.973          47.625    21580944.453    86897799.424          52.500    21580936.422    91316332.111          53.375  
> 2012 10 14 00 03 11.0000000  0  8                     
C01  36659675.430   190896577.009         -34.828          45.688    36659668.610   147613332.613          47.500    36659663.219   155119071.398          46.625  
C03  38700473.414   201522801.019          -1.008          40.875    38700471.043   155830215.860          42.313    38700464.949   163753786.873          42.625  
C04  37550891.984   195537099.341         -19.746          43.188    37550888.988   151201676.942          45.000    37550882.364   158890067.429          45.500  
C07  36633483.992   190760907.582       -1071.633          45.500    36633480.121   147508148.741          48.188    36633471.504   155009006.961          49.875  
C08  36638824.836   190787963.603        -210.172          45.625    36638820.133   147528897.575          48.500    36638811.984   155030367.352          49.313  
C10  36411096.726   189602401.889        -476.797          45.875    36411095.305   146612136.167          48.125    36411085.691   154066999.119          48.813  
C11  23968328.398   124808691.751        2088.769          44.500    23968329.157    96510519.737          46.625    23968318.957   101417828.299          45.875  
C12  21580988.492   112378608.145        -214.672          47.500    21580985.808    86897965.075          52.625    21580977.781    91316506.186          53.688  
> 2012 10 14 00 03 12.0000000  0  8                     
C01  36659682.156   190896611.583         -34.683          45.625    36659675.012   147613359.352          47.625    36659669.676   155119099.498          46.375  
C03  38700474.055   201522801.749          -0.875          41.125    38700471.031   155830216.424          42.188    38700465.172   163753787.465          42.500  
C04  37550896.015   195537118.817         -19.695          43.313    37550892.597   151201692.003          44.688    37550886.090   158890083.254          45.375  
C07  36633690.000   190761979.062       -1071.805          45.500    36633685.692   147508977.276          47.875    36633677.074   155009877.628          49.375  
C08  36638864.445   190788173.401        -210.097          45.875    36638860.207   147529059.805          48.813    36638852.000   155030537.828          49.375  
C10  36411188.328   189602878.457        -476.797          45.688    36411186.770   146612504.676          48.313    36411176.981   154067386.372          49.000  
C11  23967926.992   124806602.916        2088.547          44.375    23967927.680    96508904.523          46.625    23967917.656   101416130.949          46.125  
C12  21581029.360   112378822.731        -214.918          47.500    21581026.688    86898131.005          53.188    21581018.719    91316680.555          53.688  
> 2012 10 14 00 03 13.0000000  0  8                     
C01  36659688.703   190896646.147         -34.629          45.625    36659681.797   147613386.078          47.500    36659676.168   155119127.586          46.375  
C03  38700474.031   201522802.477          -0.758          40.875    38700471.051   155830216.985          42.375    38700465.188   163753788.059          42.375  
C04  37550899.422   195537138.260         -19.547          43.375    37550896.567   151201707.033          44.375    37550890.004   158890099.051          45.688  
C07  36633895.672   190763050.646       -1071.731          45.813    36633891.562   147509805.894          48.000    36633882.891   155010748.377          48.875  
C08  36638905.156   190788383.168        -209.836          45.813    36638900.906   147529222.011          48.313    36638892.469   155030708.282          49.625  
C10  36411279.953   189603355.159        -476.934          45.375    36411278.336   146612873.295          48.188    36411268.723   154067773.729          48.813  
C11  23967526.039   124804514.321        2088.367          43.688    23967526.504    96507289.492          46.625    23967516.602   101414433.794          46.125  
C12  21581070.945   112379037.622        -215.109          47.500    21581068.512    86898297.177          52.625    21581060.367    91316855.173          53.875  
> 2012 10 14 00 03 14.0000000  0  8                     
C01  36659695.367   190896680.729         -34.574          45.125    36659688.488   147613412.824          47.625    36659682.801   155119155.686          46.688  
C03  38700474.570   201522803.225          -0.699          41.125    38700471.028   155830217.568          42.625    38700465.402   163753788.670          43.000  
C04  37550903.102   195537157.768         -19.488          43.188    37550900.144   151201722.119          44.188    37550893.285   158890114.908          45.625  
C07  36634101.828   190764122.441       -1071.817          45.625    36634097.469   147510634.671          48.000    36634088.797   155011619.298          49.188  
C08  36638945.180   190788592.984        -209.863          45.813    36638940.887   147529384.254          48.500    36638932.683   155030878.768          49.125  
C10  36411371.070   189603832.082        -477.000          45.500    36411370.008   146613242.075          48.125    36411360.336   154068161.269          48.500  
C11  23967124.883   124802426.030        2088.196          43.625    23967125.789    96505674.695          46.813    23967115.824   101412736.890          46.188  
C12  21581112.297   112379252.900        -215.473          47.500    21581109.922    86898463.641          52.500    21581101.719    91317030.101          53.813  
> 2012 10 14 00 03 15.0000000  0  8                     
C01  36659702.031   190896715.267         -34.500          45.688    36659694.883   147613439.524          47.500    36659689.434   155119183.751          46.625  
C03  38700474.156   201522803.899          -0.633          41.000    38700471.281   155830218.089          42.500    38700465.598   163753789.219          42.500  
C04  37550907.031   195537177.182         -19.297          43.313    37550903.996   151201737.134          44.313    37550897.313   158890130.682          45.375  
C07  36634307.140   190765194.293       -1071.867          45.625    36634303.211   147511463.492          47.875    36634294.418   155012490.261          49.000  
C08  36638985.820   190788802.701        -209.688          45.813    36638981.211   147529546.420          48.313    36638973.004   155031049.178          49.000  
C10  36411463.265   189604309.103        -476.996          45.500    36411461.266   146613610.939          48.000    36411451.711   154068548.885          48.625  
C11  23966724.141   124800337.895        2088.071          43.625    23966724.883    96504060.016          46.500    23966714.684   101411040.113          45.375  
C12  21581153.640   112379468.412        -215.528          47.625    21581151.055    86898630.285          52.500    21581142.793    91317205.219          53.813  
> 2012 10 14 00 03 16.0000000  0  8                     
C01  36659708.672   190896749.826         -34.688          45.688    36659701.578   147613466.247          47.500    36659696.066   155119211.829          46.813  
C03  38700474.672   201522804.617          -0.809          41.313    38700471.692   155830218.640          42.313    38700465.828   163753789.810          42.625  
C04  37550910.359   195537196.661         -19.668          43.313    37550907.808   151201752.192          44.500    37550901.246   158890146.506          45.813  
C07  36634513.102   190766266.365       -1072.304          45.125    36634508.895   147512292.485          48.188    36634500.395   155013361.410          49.313  
C08  36639026.172   190789012.466        -209.840          45.625    36639021.559   147529708.624          48.313    36639013.293   155031219.628          49.188  
C10  36411554.789   189604786.338        -477.465          45.313    36411552.660   146613979.966          48.188    36411543.281   154068936.675          48.625  
C11  23966322.985   124798250.103        2087.648          43.688    23966323.820    96502445.606          46.500    23966313.621   101409343.613          46.125  
C12  21581195.102   112379684.310        -216.148          47.625    21581192.496    86898797.229          52.188    21581184.289    91317380.654          54.125  
> 2012 10 14 00 03 17.0000000  0  8                     
C01  36659715.344   190896784.357         -34.570          45.313    36659708.117   147613492.946          47.313    36659702.899   155119239.887          46.688  
C03  38700474.234   201522805.315          -0.726          41.313    38700471.863   155830219.184          42.313    38700465.770   163753790.374          42.688  
C04  37550914.461   195537216.093         -19.438          43.500    37550911.273   151201767.216          44.625    37550904.766   158890162.294          45.813  
C07  36634719.344   190767338.549       -1072.297          44.625    36634714.875   147513121.560          48.313    36634706.262   155014232.649          49.125  
C08  36639066.602   190789222.183        -209.738          45.188    36639061.707   147529870.788          48.188    36639053.676   155031390.042          49.188  
C10  36411646.609   189605263.743        -477.559          45.188    36411644.535   146614349.129          47.688    36411635.219   154069324.606          49.000  
C11  23965921.867   124796162.542        2087.309          43.313    23965923.043    96500831.371          46.188    23965912.965   101407647.299          46.375  
C12  21581236.461   112379900.523        -216.465          47.313    21581234.402    86898964.421          52.313    21581225.961    91317556.343          53.688  
> 2012 10 14 00 03 18.0000000  0  8                     
C01  36659721.930   190896818.912         -34.742          44.625    36659714.886   147613519.667          47.375    36659709.320   155119267.968          46.688  
C03  38700474.711   201522805.987          -0.914          41.500    38700472.070   155830219.699          42.000    38700466.207   163753790.915          42.688  
C04  37550917.773   195537235.504         -19.610          43.188    37550914.805   151201782.225          45.000    37550908.238   158890178.064          45.688  
C07  36634925.164   190768410.893       -1072.633          44.688    36634920.844   147513950.768          48.000    36634912.168   155015104.018          49.313  
C08  36639106.711   190789431.887        -209.844          45.188    36639102.149   147530032.947          48.813    36639093.765   155031560.438          49.625  
C10  36411738.141   189605741.305        -477.824          45.313    36411736.308   146614718.410          47.813    36411726.699   154069712.666          48.500  
C11  23965520.984   124794075.253        2087.047          43.000    23965522.020    96499217.349          46.313    23965511.938   101405951.205          46.500  
C12  21581278.039   112380117.058        -216.891          47.625    21581275.347    86899131.861          52.313    21581267.262    91317732.296          54.125  
> 2012 10 14 00 03 19.0000000  0  8                     
C01  36659728.844   190896853.438         -34.480          45.125    36659721.430   147613546.365          47.313    36659716.094   155119296.022          46.688  
C03  38700474.656   201522806.687          -0.656          41.375    38700472.043   155830220.243          42.188    38700466.359   163753791.490          42.625  
C04  37550922.375   195537254.914         -19.348          43.625    37550918.926   151201797.232          45.188    37550912.363   158890193.834          45.313  
C07  36635130.875   190769483.380       -1072.465          45.000    36635126.840   147514780.082          48.313    36635118.168   155015975.503          49.625  
C08  36639147.109   190789641.608        -209.738          45.375    36639142.113   147530195.116          48.813    36639134.144   155031730.861          49.313  
C10  36411830.024   189606219.078        -477.758          45.688    36411828.203   146615087.852          48.125    36411818.472   154070100.896          48.625  
C11  23965120.695   124791988.235        2086.953          42.813    23965121.449    96497603.542          46.188    23965111.254   101404255.337          46.188  
C12  21581319.625   112380333.921        -216.953          47.500    21581317.375    86899299.552          52.500    21581309.055    91317908.518          53.875  
> 2012 10 14 00 03 20.0000000  0  8                     
C01  36659735.305   190896888.035         -34.617          45.375    36659727.945   147613573.113          47.313    36659722.437   155119324.133          46.375  
C03  38700475.024   201522807.429          -0.719          41.125    38700472.051   155830220.826          42.000    38700466.305   163753792.092          42.625  
C04  37550925.508   195537274.396         -19.422          43.500    37550922.520   151201812.301          44.875    37550916.074   158890209.666          45.188  
C07  36635337.031   190770556.087       -1072.719          45.375    36635332.828   147515609.567          48.125    36635324.215   155016847.158          49.313  
C08  36639187.000   190789851.333        -209.738          45.188    36639182.765   147530357.291          48.500    36639174.500   155031901.277          49.688  
C10  36411921.742   189606697.071        -478.043          45.813    36411919.969   146615457.463          48.625    36411910.414   154070489.302          48.813  
C11  23964719.758   124789901.509        2086.613          42.813    23964720.785    96495989.957          46.313    23964710.469   101402559.706          46.375  
C12  21581361.602   112380551.178        -217.453          47.688    21581359.012    86899467.550          52.813    21581350.809    91318085.061          53.688  
> 2012 10 14 00 03 21.0000000  0  8                     
C01  36659741.859   190896922.593         -34.703          45.688    36659734.648   147613599.837          47.313    36659729.258   155119352.210          46.688  
C03  38700475.063   201522808.129          -0.890          41.313    38700472.309   155830221.366          42.188    38700466.449   163753792.662          42.313  
C04  37550929.281   195537293.876         -19.652          43.375    37550926.332   151201827.360          45.125    37550919.766   158890225.496          45.125  
C07  36635543.211   190771628.935       -1073.070          45.688    36635539.211   147516439.159          48.000    36635530.305   155017718.937          49.375  
C08  36639227.555   190790061.077        -209.863          45.188    36639222.797   147530519.477          48.500    36639214.531   155032071.717          49.313  
C10  36412013.609   189607175.221        -478.371          46.125    36412011.902   146615827.193          48.875    36412002.406   154070877.831          48.813  
C11  23964318.969   124787815.074        2086.160          43.000    23964320.059    96494376.598          46.000    23964309.859   101400864.306          46.188  
C12  21581403.344   112380768.760        -217.895          48.125    21581400.777    86899635.801          52.813    21581392.688    91318261.863          53.625  
> 2012 10 14 00 03 22.0000000  0  8                     
C01  36659748.703   190896957.187         -34.539          45.625    36659741.258   147613626.587          47.188    36659735.629   155119380.322          46.625  
C03  38700474.906   201522808.878          -0.781          41.688    38700472.668   155830221.945          42.375    38700466.688   163753793.268          42.625  
C04  37550932.945   195537313.355         -19.422          43.875    37550929.781   151201842.421          45.375    37550923.336   158890241.325          45.188  
C07  36635749.172   190772701.966       -1073.051          45.813    36635744.859   147517268.892          47.813    36635736.184   155018590.861          49.125  
C08  36639267.930   190790270.817        -209.699          45.188    36639263.215   147530681.661          48.375    36639254.774   155032242.146          49.125  
C10  36412105.211   189607653.576        -478.379          45.500    36412103.641   146616197.089          48.188    36412094.086   154071266.534          49.125  
C11  23963917.937   124785728.915        2086.086          43.125    23963919.094    96492763.447          46.000    23963908.840   101399169.137          46.125  
C12  21581444.984   112380986.701        -218.031          47.500    21581442.660    86899804.330          52.375    21581434.336    91318438.958          53.625  
> 2012 10 14 00 03 23.0000000  0  8                     
C01  36659755.179   190896991.852         -34.610          45.375    36659748.043   147613653.390          47.375    36659742.535   155119408.486          46.188  
C03  38700475.313   201522809.690          -0.765          41.500    38700472.531   155830222.568          42.188    38700466.848   163753793.927          42.375  
C04  37550936.883   195537332.889         -19.430          43.625    37550934.129   151201857.524          45.313    37550927.387   158890257.196          45.125  
C07  36635955.156   190773775.225       -1073.262          45.688    36635951.117   147518098.800          48.125    36635942.441   155019462.969          48.875  
C08  36639308.133   190790480.629        -209.722          45.313    36639303.457   147530843.897          48.188    36639295.250   155032412.629          49.625  
C10  36412197.547   189608132.145        -478.551          45.625    36412195.071   146616567.147          48.375    36412185.929   154071655.416          49.188  
C11  23963517.625   124783643.053        2085.840          43.188    23963519.039    96491150.531          46.000    23963508.723   101397474.204          46.125  
C12  21581486.890   112381205.042        -218.391          47.813    21581484.770    86899973.166          52.000    21581476.449    91318616.378          53.875  
> 2012 10 14 00 03 24.0000000  0  8                     
C01  36659761.766   190897026.429         -34.543          45.188    36659754.566   147613680.127          46.875    36659749.176   155119436.585          46.125  
C03  38700475.734   201522810.421          -0.551          41.625    38700472.820   155830223.134          42.313    38700466.727   163753794.521          42.625  
C04  37550940.321   195537352.350         -19.336          43.625    37550937.406   151201872.568          44.625    37550930.902   158890273.008          45.188  
C07  36636161.461   190774848.521       -1073.293          45.688    36636157.207   147518928.749          48.000    36636148.531   155020335.111          49.125  
C08  36639348.883   190790690.338        -209.660          45.188    36639343.738   147531006.056          48.125    36639335.535   155032583.041          49.313  
C10  36412289.242   189608610.824        -478.656          45.875    36412287.442   146616937.292          48.625    36412277.891   154072044.393          49.188  
C11  23963117.039   124781557.398        2085.617          42.625    23963117.805    96489537.770          46.313    23963107.961   101395779.440          46.125  
C12  21581529.211   112381423.620        -218.664          47.813    21581526.820    86900142.182          52.188    21581518.500    91318793.994          54.125  
> 2012 10 14 00 03 25.0000000  0  8                     
C01  36659768.281   190897060.884         -34.446          45.125    36659761.875   147613706.759          47.188    36659755.953   155119464.579          46.000  
C03  38700475.969   201522811.051          -0.606          41.375    38700472.879   155830223.622          42.125    38700466.961   163753795.032          42.500  
C04  37550944.461   195537371.683         -19.445          43.625    37550941.426   151201887.520          44.813    37550934.629   158890288.716          45.125  
C07  36636367.289   190775921.884       -1073.519          45.313    36636363.309   147519758.740          48.375    36636354.520   155021207.305          48.813  
C08  36639388.453   190790899.919        -209.649          45.125    36639383.781   147531168.116          48.188    36639375.754   155032753.342          49.125  
C10  36412381.539   189609089.589        -478.957          45.500    36412379.500   146617307.506          48.813    36412369.828   154072433.428          49.375  
C11  23962716.414   124779471.897        2085.379          43.125    23962717.492    96487925.134          46.375    23962707.586   101394084.804          46.000  
C12  21581571.297   112381642.429        -219.086          47.625    21581568.578    86900311.378          52.688    21581560.488    91318971.790          54.625  
> 2012 10 14 00 03 26.0000000  0  8                     
C01  36659775.055   190897095.488         -34.586          44.813    36659767.844   147613733.516          47.125    36659762.508   155119492.693          46.313  
C03  38700475.711   201522811.827          -0.765          41.125    38700472.898   155830224.221          41.875    38700467.156   163753795.673          42.625  
C04  37550947.953   195537391.141         -19.418          43.000    37550945.352   151201902.561          44.875    37550938.726   158890304.521          45.188  
C07  36636573.727   190776995.534       -1073.676          45.125    36636569.840   147520588.948          47.875    36636560.992   155022079.730          48.875  
C08  36639428.687   190791109.663        -209.719          45.000    36639424.203   147531330.304          48.000    36639416.055   155032923.770          49.313  
C10  36412473.242   189609568.641        -479.160          45.813    36412471.594   146617677.938          48.375    36412462.039   154072822.695          49.188  
C11  23962316.101   124777386.791        2084.965          42.875    23962317.137    96486312.799          46.375    23962306.996   101392390.484          46.000  
C12  21581613.242   112381861.679        -219.399          47.313    21581610.820    86900480.912          52.500    21581602.383    91319149.949          54.125  
> 2012 10 14 00 03 27.0000000  0  8                     
C01  36659781.484   190897130.027         -34.617          44.875    36659774.640   147613760.220          47.500    36659769.188   155119520.756          46.625  
C03  38700475.961   201522812.527          -0.765          40.813    38700473.062   155830224.761          42.125    38700467.140   163753796.237          42.625  
C04  37550951.398   195537410.572         -19.383          43.125    37550948.629   151201917.583          45.125    37550941.832   158890320.315          45.688  
C07  36636780.031   190778069.310       -1073.965          44.813    36636775.875   147521419.265          47.875    36636767.316   155022952.263          48.688  
C08  36639469.352   190791319.321        -209.703          44.875    36639464.258   147531492.423          48.125    36639456.289   155033094.133          49.500  
C10  36412565.320   189610047.820        -479.332          45.500    36412563.559   146618048.466          48.313    36412553.769   154073212.055          49.188  
C11  23961915.922   124775301.890        2084.770          43.125    23961916.644    96484700.622          46.500    23961906.738   101390696.335          45.813  
C12  21581655.297   112382081.261        -219.766          47.500    21581652.996    86900650.712          52.375    21581644.672    91319328.379          54.188  
> 2012 10 14 00 03 28.0000000  0  8                     
C01  36659788.359   190897164.607         -34.586          44.813    36659781.164   147613786.961          47.313    36659775.773   155119548.852          46.688  
C03  38700476.492   201522813.259          -0.664          40.625    38700473.273   155830225.327          42.313    38700467.352   163753796.833          42.375  
C04  37550955.570   195537430.043         -19.457          43.188    37550952.598   151201932.641          45.125    37550945.918   158890336.134          45.375  
C07  36636986.063   190779143.269       -1074.062          44.625    36636982.043   147522249.715          48.313    36636973.250   155023824.941          48.875  
C08  36639509.328   190791529.026        -209.769          45.000    36639504.699   147531654.578          48.500    36639496.614   155033264.539          49.125  
C10  36412657.289   189610527.236        -479.543          45.313    36412655.410   146618419.183          48.625    36412645.797   154073601.621          48.688  
C11  23961515.242   124773217.290        2084.477          43.313    23961516.574    96483088.685          46.000    23961506.613   101389002.426          45.813  
C12  21581697.750   112382301.180        -220.141          47.625    21581695.039    86900820.763          52.500    21581686.777    91319507.080          54.313  
> 2012 10 14 00 03 29.0000000  0  8                     
C01  36659794.773   190897199.175         -34.652          45.188    36659788.160   147613813.692          47.188    36659782.594   155119576.942          46.500  
C03  38700475.773   201522813.976          -0.816          40.813    38700473.195   155830225.885          42.375    38700467.395   163753797.411          42.625  
C04  37550959.125   195537449.483         -19.512          43.188    37550956.285   151201947.676          45.625    37550949.722   158890351.931          45.313  
C07  36637192.109   190780217.338       -1074.281          44.625    36637188.515   147523080.251          48.188    36637179.605   155024697.709          48.813  
C08  36639549.554   190791738.685        -209.762          44.875    36639544.934   147531816.700          48.313    36639536.848   155033434.902          49.125  
C10  36412749.437   189611006.795        -479.746          45.500    36412747.797   146618790.008          48.625    36412738.246   154073991.298          48.688  
C11  23961115.125   124771132.941        2084.144          43.625    23961116.191    96481476.938          45.813    23961106.227   101387308.728          46.000  
C12  21581739.766   112382521.418        -220.484          47.625    21581737.598    86900991.065          52.188    21581729.278    91319686.036          54.375  
> 2012 10 14 00 03 30.0000000  0  8                     
C01  36659801.453   190897233.647         -34.262          45.188    36659794.473   147613840.350          47.500    36659789.082   155119604.956          46.813  
C03  38700476.328   201522814.633          -0.476          40.875    38700473.687   155830226.395          42.375    38700467.590   163753797.944          42.125  
C04  37550962.531   195537468.827         -19.184          43.688    37550960.188   151201962.627          45.500    37550953.563   158890367.644          45.625  
C07  36637398.508   190781291.477       -1074.051          45.313    36637394.707   147523910.843          48.500    36637385.625   155025570.534          48.875  
C08  36639589.766   190791948.244        -209.371          45.313    36639585.352   147531978.748          48.500    36639577.086   155033605.189          49.500  
C10  36412841.367   189611486.445        -479.598          46.000    36412839.277   146619160.904          48.875    36412829.840   154074381.052          48.813  
C11  23960715.008   124769048.783        2084.281          43.375    23960715.676    96479865.336          46.000    23960705.594   101385615.184          46.000  
C12  21581782.359   112382741.913        -220.465          47.625    21581779.793    86901161.562          52.313    21581771.703    91319865.207          54.500  
> 2012 10 14 00 03 31.0000000  0  8                     
C01  36659808.125   190897268.241         -34.762          44.688    36659800.805   147613867.103          47.500    36659795.586   155119633.068          47.000  
C03  38700476.008   201522815.386          -0.828          41.313    38700473.543   155830226.976          41.813    38700467.680   163753798.553          42.188  
C04  37550966.734   195537488.294         -19.519          43.500    37550963.328   151201977.684          44.875    37550956.879   158890383.466          45.375  
C07  36637604.976   190782365.907       -1074.547          45.188    36637601.317   147524741.658          48.500    36637592.410   155026443.594          48.875  
C08  36639629.938   190792157.929        -209.769          45.125    36639625.473   147532140.888          47.875    36639617.207   155033775.570          49.375  
C10  36412933.656   189611966.423        -480.203          45.688    36412931.719   146619532.056          48.813    36412922.398   154074771.077          48.688  
C11  23960314.985   124766965.009        2083.539          43.000    23960315.523    96478254.025          46.313    23960305.910   101383921.945          46.000  
C12  21581824.586   112382962.853        -221.152          47.500    21581822.262    86901332.411          52.125    21581814.114    91320044.740          54.125  
> 2012 10 14 00 03 32.0000000  0  8                     
C01  36659814.703   190897302.812         -34.644          44.500    36659807.359   147613893.834          47.500    36659801.965   155119661.159          46.813  
C03  38700476.570   201522816.116          -0.832          41.000    38700473.793   155830227.547          42.313    38700468.109   163753799.145          42.688  
C04  37550970.570   195537507.760         -19.605          43.625    37550967.496   151201992.732          45.125    37550960.812   158890399.283          45.500  
C07  36637811.156   190783440.458       -1074.715          45.125    36637807.457   147525572.566          48.375    36637798.722   155027316.751          49.125  
C08  36639670.211   190792367.591        -209.664          44.813    36639665.875   147532303.010          47.625    36639657.551   155033945.943          49.500  
C10  36413025.680   189612446.539        -480.320          45.313    36413024.070   146619903.309          48.625    36413014.515   154075161.206          49.000  
C11  23959914.812   124764881.483        2083.313          43.188    23959915.672    96476642.913          46.688    23959905.594   101382228.914          46.188  
C12  21581867.265   112383184.105        -221.515          47.500    21581864.633    86901503.496          52.500    21581856.660    91320224.519          54.313  
> 2012 10 14 00 03 33.0000000  0  8                     
C01  36659821.844   190897337.377         -34.762          44.688    36659814.207   147613920.558          47.688    36659808.817   155119689.243          46.375  
C03  38700476.383   201522816.828          -0.867          41.188    38700473.543   155830228.091          42.500    38700468.094   163753799.722          43.000  
C04  37550974.031   195537527.166         -19.598          43.000    37550971.496   151202007.736          45.313    37550964.699   158890415.046          45.875  
C07  36638017.516   190784515.168       -1075.054          45.000    36638013.918   147526403.603          48.313    36638004.832   155028190.047          49.375  
C08  36639711.070   190792577.262        -209.926          45.125    36639705.965   147532465.142          48.125    36639697.816   155034116.318          49.313  
C10  36413118.117   189612926.807        -480.602          45.375    36413116.598   146620274.684          48.625    36413107.043   154075551.466          48.875  
C11  23959514.953   124762798.210        2082.961          43.188    23959515.703    96475032.000          46.375    23959505.566   101380536.083          46.375  
C12  21581909.617   112383405.671        -221.973          47.500    21581907.328    86901674.827          52.813    21581899.121    91320404.564          53.813  
> 2012 10 14 00 03 34.0000000  0  8                     
C01  36659828.297   190897371.931         -34.496          45.125    36659820.765   147613947.275          47.500    36659815.551   155119717.319          46.625  
C03  38700476.820   201522817.563          -0.824          41.188    38700473.910   155830228.662          42.313    38700468.340   163753800.320          42.625  
C04  37550977.813   195537546.619         -19.426          43.375    37550974.871   151202022.778          44.875    37550968.012   158890430.853          45.813  
C07  36638224.304   190785590.012       -1074.867          45.188    36638220.348   147527234.735          48.125    36638211.438   155029063.442          49.313  
C08  36639751.117   190792786.875        -209.551          45.188    36639746.359   147532627.226          47.875    36639738.098   155034286.640          49.125  
C10  36413210.656   189613407.234        -480.519          45.188    36413208.609   146620646.175          48.375    36413198.938   154075941.849          49.125  
C11  23959114.656   124760715.174        2082.859          42.813    23959115.606    96473421.270          46.313    23959105.469   101378843.451          46.375  
C12  21581952.039   112383627.538        -221.941          47.500    21581949.691    86901846.389          52.375    21581941.547    91320584.854          53.625  
