     3.04           OBSERVATION DATA    M: Mixed            RINEX VERSION / TYPE
CONVBIN demo5 b34f.1                    20220527 015939 UTC PGM / RUN BY / DATE 
log: /home/igor/git/flutter_rtklib/test/data/rcvraw/javad_20COMMENT             
format: Javad GREIS                                         COMMENT             
format: Javad GREIS                                         COMMENT             
log: /home/igor/git/flutter_rtklib/test/data/rcvraw/javad_20COMMENT             
                                                            MARKER NAME         
                                                            MARKER NUMBER       
                                                            MARKER TYPE         
                                                            OBSERVER / AGENCY   
                                                            REC # / TYPE / VERS 
                                                            ANT # / TYPE        
 -2180791.1889  1968651.4328  5733703.8051                  APPROX POSITION XYZ 
        0.0000        0.0000        0.0000                  ANTENNA: DELTA H/E/N
G    8 C1C L1C C1W L1W C2W L2W C2X L2X                      SYS / # / OBS TYPES 
R    8 C1C L1C C1P L1P C2C L2C C2P L2P                      SYS / # / OBS TYPES 
J   10 C1C L1C C1X L1X C1Z L1Z C2X L2X C5X L5X              SYS / # / OBS TYPES 
S    2 C1C L1C                                              SYS / # / OBS TYPES 
  2011    01    15    02    26   43.0000000     GPS         TIME OF FIRST OBS   
  2011    01    15    02    28   52.0000000     GPS         TIME OF LAST OBS    
G L1C                                                       SYS / PHASE SHIFT   
G L1W  0.00000                                              SYS / PHASE SHIFT   
G L2W  0.00000                                              SYS / PHASE SHIFT   
G L2X  0.00000                                              SYS / PHASE SHIFT   
R L1C                                                       SYS / PHASE SHIFT   
R L1P  0.00000                                              SYS / PHASE SHIFT   
R L2C                                                       SYS / PHASE SHIFT   
R L2P  0.00000                                              SYS / PHASE SHIFT   
J L1C                                                       SYS / PHASE SHIFT   
J L1X  0.00000                                              SYS / PHASE SHIFT   
J L1Z  0.00000                                              SYS / PHASE SHIFT   
J L2X  0.00000                                              SYS / PHASE SHIFT   
J L5X  0.00000                                              SYS / PHASE SHIFT   
S L1C                                                       SYS / PHASE SHIFT   
  7 R05  1 R06 -4 R11  0 R18 -3 R19  3 R20  2 R21  4        GLONASS SLOT / FRQ #
 C1C    0.000 C1P    0.000 C2C    0.000 C2P    0.000        GLONASS COD/PHS/BIS 
                                                            END OF HEADER       
> 2011 01 15 02 26 43.0000000  0 20                     
G11  24437298.394   128418870.7411   24437298.703   128418871.0001   24437298.268   100066652.9711                                 
G02  24377590.814   128105115.2561   24377590.113   128105116.5311   24377589.975    99822169.5241                                 
R05  19214136.957   102710572.9941   19214136.726   102710572.2921   19214143.645    79886001.3971   19214143.405    79886001.6381 
R21  22163708.614   118602470.9101   22163707.798   118602478.2061   22163712.391    92246370.5251   22163712.853    92246372.7701 
R19  20981692.316   112237905.2651   20981691.860   112237905.5721   20981696.345    87296147.8701   20981697.016    87296149.1141 
G10  22356042.783   117481801.4031   22356042.285   117481804.6861   22356042.660    91544263.9911                                 
G13  22323984.884   117313341.1961   22323984.419   117313343.4501   22323984.194    91412994.9591                                 
G04  21419497.347   112560220.1691   21419496.810   112560220.4431   21419497.218    87709262.9011                                 
G32  25031761.899   131542807.8511   25031763.734   131542807.0791   25031763.401   102500888.4111                                 
G17  20045776.063   105341268.3341   20045775.694   105341268.6091   20045774.351    82084106.6331   20045774.660    82084106.3911 
G28  23538224.138   123694201.6541   23538220.993   123694200.9001   23538223.325    96385092.1931                                 
G23  21931432.886   115250466.8571   21931432.259   115250468.1381   21931429.693    89805559.1471                                 
G24  24646037.860   129515796.3701   24646037.012   129515801.6211   24646039.320   100921403.3731                                 
G12  24895753.513   130828065.9591   24895753.654   130828065.2101   24895753.382   101943948.3101   24895754.866   101943948.0791 
G20  22102556.007   116149723.6701   22102555.500   116149721.9321   22102554.268    90506277.8971                                 
R20  19287810.423   103140592.4611   19287811.037   103140591.7621   19287817.714    80220461.6261   19287818.382    80220460.8691 
R06  20707726.813   110500399.0611   20707727.260   110500398.3511   20707732.554    85944752.9081   20707732.419    85944754.1281 
S29  40072683.459   210583368.5981 
S37  40100759.514   210730910.9011 
J01  38772729.764   203752073.8001   38772729.737   203752074.5581   38772727.728   203752063.8771   38772729.353   158767850.6781   38772733.631   152152523.7311 
> 2011 01 15 02 26 44.0000000  0 20                     
G11  24437884.573   128421952.017    24437884.794   128421952.289    24437884.213   100069053.971                                  
G02  24377138.610   128102740.060    24377138.793   128102741.325    24377137.534    99820318.710                                  
R05  19214359.580   102711761.836    19214359.268   102711761.132    19214365.501    79886926.052    19214365.665    79886926.293  
R21  22163053.717   118598974.552    22163054.200   118598981.846    22163059.458    92243651.131    22163059.680    92243653.378  
R19  20982249.402   112240884.822    20982248.671   112240885.132    20982254.232    87298465.305    20982254.199    87298466.549  
G10  22355512.483   117479013.531    22355511.457   117479016.811    22355512.135    91542091.616                                  
G13  22323499.157   117310790.846    22323499.097   117310793.110    22323498.671    91411007.673                                  
G04  21419211.581   112558718.038    21419211.201   112558718.311    21419211.162    87708092.404                                  
G32  25032453.877   131546440.697    25032455.175   131546439.950    25032454.668   102503719.222                                  
G17  20045858.773   105341703.096    20045858.401   105341703.366    20045857.157    82084445.405    20045857.259    82084445.165  
G28  23538876.096   123697634.752    23538874.195   123697634.017    23538876.294    96387767.335                                  
G23  21931328.402   115249917.566    21931327.419   115249918.849    21931325.353    89805131.131                                  
G24  24646560.260   129518547.422    24646560.941   129518552.675    24646563.294   100923547.082                                  
G12  24895459.201   130826516.264    24895459.033   130826515.485    24895457.331   101942740.760    24895459.873   101942740.520  
G20  22103140.081   116152791.293    22103138.695   116152789.555    22103138.812    90508668.249                                  
R20  19287679.159   103139886.160    19287678.955   103139885.460    19287685.850    80219912.280    19287686.036    80219911.521  
R06  20707237.944   110497788.851    20707238.001   110497788.141    20707243.224    85942722.744    20707242.762    85942723.965  
S29  40072728.646   210583612.935  
S37  40100806.000   210731154.561  
J01  38772763.101   203752247.408    38772762.456   203752248.158    38772760.382   203752237.479    38772762.498   158767985.953    38772766.680   152152653.372  
> 2011 01 15 02 26 45.0000000  0 20                     
G11  24438470.316   128425033.637    24438471.305   128425033.902    24438470.352   100071455.228                                  
G02  24376686.895   128100365.127    24376686.820   128100366.400    24376685.138    99818468.132                                  
R05  19214582.469   102712951.666    19214581.789   102712950.964    19214588.036    79887851.476    19214588.099    79887851.715  
R21  22162401.246   118595478.589    22162400.679   118595485.884    22162406.522    92240932.049    22162406.330    92240934.298  
R19  20982806.234   112243865.173    20982805.886   112243865.482    20982811.309    87300783.356    20982811.264    87300784.598  
G10  22354982.093   117476226.256    22354981.391   117476229.532    22354981.559    91539919.722                                  
G13  22323014.782   117308241.114    22323014.108   117308243.384    22323013.565    91409020.870                                  
G04  21418925.900   112557216.363    21418925.319   112557216.635    21418925.037    87706922.274                                  
G32  25033143.202   131550073.779    25033145.942   131550073.018    25033146.044   102506550.142                                  
G17  20045941.800   105342138.722    20045941.255   105342138.991    20045940.028    82084784.851    20045940.334    82084784.611  
G28  23539528.885   123701068.214    23539527.551   123701067.476    23539529.695    96390442.758                                  
G23  21931223.694   115249369.146    21931223.199   115249370.427    21931220.660    89804703.789                                  
G24  24647084.217   129521298.772    24647084.732   129521304.036    24647087.227   100925690.956                                  
G12  24895164.625   130824967.344    24895163.825   130824966.579    24895162.086   101941533.798    24895164.502   101941533.567  
G20  22103724.406   116155859.412    22103722.631   116155857.673    22103722.394    90511058.995                                  
R20  19287546.983   103139180.749    19287547.184   103139180.051    19287554.274    80219363.626    19287554.193    80219362.870  
R06  20706748.150   110495179.470    20706749.085   110495178.760    20706753.837    85940693.225    20706753.969    85940694.448  
S29  40072776.601   210583857.421  
S37  40100851.598   210731398.157  
J01  38772796.036   203752421.190    38772795.790   203752421.943    38772794.009   203752411.270    38772795.490   158768121.371    38772799.729   152152783.145  
> 2011 01 15 02 26 46.0000000  0 20                     
G11  24439057.151   128428115.255    24439057.400   128428115.522    24439056.191   100073856.487                                  
G02  24376234.541   128097990.075    24376235.066   128097991.357    24376232.853    99816617.446                                  
R05  19214805.101   102714142.127    19214804.523   102714141.424    19214811.106    79888777.391    19214810.713    79888777.632  
R21  22161747.476   118591982.657    22161747.252   118591989.952    22161751.608    92238212.993    22161753.217    92238215.242  
R19  20983363.485   112246845.970    20983363.155   112246846.279    20983368.950    87303101.753    20983368.305    87303102.996  
G10  22354451.817   117473439.237    22354450.468   117473442.518    22354451.562    91537748.020                                  
G13  22322529.349   117305691.657    22322528.258   117305693.925    22322528.363    91407034.279                                  
G04  21418639.415   112555714.780    21418639.769   112555715.062    21418639.529    87705752.210                                  
G32  25033835.248   131553706.793    25033837.944   131553706.051    25033836.972   102509381.086                                  
G17  20046024.690   105342574.843    20046024.156   105342575.114    20046022.945    82085124.685    20046023.032    82085124.447  
G28  23540182.619   123704501.659    23540180.976   123704500.932    23540182.412    96393118.159                                  
G23  21931119.621   115248821.226    21931119.177   115248822.507    21931116.317    89804276.838                                  
G24  24647609.312   129524050.073    24647607.396   129524055.331    24647610.874   100927834.849                                  
G12  24894869.701   130823418.861    24894869.198   130823418.105    24894867.342   101940327.179    24894869.417   101940326.958  
G20  22104308.072   116158927.636    22104307.095   116158925.902    22104305.886    90513449.820                                  
R20  19287414.868   103138475.885    19287415.260   103138475.189    19287422.743    80218815.399    19287422.000    80218814.645  
R06  20706259.788   110492570.568    20706260.189   110492569.862    20706265.415    85938664.083    20706265.310    85938665.307  
S29  40072823.411   210584101.676  
S37  40100899.109   210731641.706  
J01  38772829.235   203752594.799    38772828.512   203752595.553    38772826.732   203752584.874    38772828.692   158768256.652    38772832.820   152152912.790  
> 2011 01 15 02 26 47.0000000  0 20                     
G11  24439643.200   128431196.524    24439643.503   128431196.770    24439642.612   100076257.468                                  
G02  24375782.793   128095614.567    24375783.596   128095615.843    24375781.411    99814766.404                                  
R05  19215028.132   102715332.852    19215027.247   102715332.150    19215033.609    79889703.509    19215033.636    79889703.751  
R21  22161094.460   118588486.370    22161093.725   118588493.665    22161099.136    92235493.654    22161099.547    92235495.905  
R19  20983920.805   112249826.844    20983920.391   112249827.155    20983924.855    87305420.212    20983925.716    87305421.454  
G10  22353921.385   117470652.104    22353920.093   117470655.381    22353920.633    91535576.224                                  
G13  22322044.168   117303142.106    22322043.374   117303144.369    22322043.092    91405047.618                                  
G04  21418353.734   112554212.965    21418353.560   112554213.240    21418353.923    87704581.967                                  
G32  25034525.338   131557339.353    25034528.677   131557338.604    25034527.898   102512211.671                                  
G17  20046107.897   105343011.105    20046107.223   105343011.378    20046106.051    82085464.632    20046106.158    82085464.393  
G28  23540836.274   123707934.743    23540834.095   123707934.004    23540836.319    96395793.278                                  
G23  21931015.215   115248273.440    21931014.654   115248274.720    21931012.382    89803849.991                                  
G24  24648132.219   129526800.898    24648130.609   129526806.148    24648134.360   100929978.357                                  
G12  24894574.106   130821870.389    24894574.523   130821869.621    24894573.168   101939120.602    24894574.580   101939120.350  
G20  22104891.792   116161995.649    22104890.785   116161993.920    22104889.456    90515840.481                                  
R20  19287283.064   103137771.177    19287283.630   103137770.481    19287291.158    80218267.296    19287290.217    80218266.536  
R06  20705770.607   110489961.776    20705771.195   110489961.070    20705776.285    85936635.024    20705776.234    85936636.247  
S29  40072868.976   210584345.474  
S37  40100945.943   210731885.085  
J01  38772862.026   203752767.879    38772861.828   203752768.626    38772859.949   203752757.950    38772861.430   158768391.519    38772865.654   152153042.038  
> 2011 01 15 02 26 48.0000000  0 20                     
G11  24440230.227   128434277.833    24440230.167   128434278.091    24440229.420   100078658.481                                  
G02  24375330.943   128093239.042    24375330.964   128093240.301    24375329.138    99812915.340                                  
R05  19215250.413   102716524.290    19215250.068   102716523.588    19215256.709    79890630.183    19215256.349    79890630.422  
R21  22160440.774   118584990.201    22160440.531   118584997.499    22160445.562    92232774.417    22160446.464    92232776.667  
R19  20984478.395   112252808.230    20984477.549   112252808.541    20984483.180    87307739.066    20984482.961    87307740.309  
G10  22353391.079   117467865.315    22353389.946   117467868.592    22353390.417    91533404.697                                  
G13  22321559.263   117300592.907    22321558.337   117300595.168    22321557.656    91403061.234                                  
G04  21418068.152   112552711.349    21418068.059   112552711.624    21418068.002    87703411.878                                  
G32  25035216.581   131560971.861    25035219.975   131560971.091    25035219.300   102515042.136                                  
G17  20046190.898   105343447.948    20046190.283   105343448.220    20046189.147    82085805.028    20046189.357    82085804.788  
G28  23541489.048   123711367.904    23541487.564   123711367.156    23541489.783    96398468.484                                  
G23  21930911.331   115247726.248    21930910.977   115247727.530    21930908.030    89803423.605                                  
G24  24648656.586   129529551.792    24648654.017   129529557.047    24648658.700   100932121.886                                  
G12  24894279.542   130820322.470    24894279.731   130820321.693    24894278.538   101937914.406    24894278.900   101937914.178  
G20  22105475.416   116165063.882    22105474.456   116165062.147    22105473.542    90518231.306                                  
R20  19287151.458   103137067.110    19287151.740   103137066.411    19287159.270    80217719.686    19287158.653    80217718.927  
R06  20705282.224   110487353.557    20705282.314   110487352.852    20705286.988    85934606.409    20705287.594    85934607.631  
S29  40072915.429   210584589.065  
S37  40100992.390   210732128.081  
J01  38772894.823   203752940.865    38772894.614   203752941.617    38772892.908   203752930.941    38772894.164   158768526.315    38772898.604   152153171.216  
> 2011 01 15 02 26 49.0000000  0 20                     
G11  24440816.651   128437359.494    24440816.261   128437359.742    24440815.619   100081059.789                                  
G02  24374879.134   128090863.719    24374878.921   128090864.992    24374876.427    99811064.430                                  
R05  19215473.704   102717716.653    19215473.198   102717715.951    19215479.406    79891557.575    19215479.634    79891557.816  
R21  22159787.125   118581494.375    22159787.230   118581501.676    22159791.921    92230055.444    22159793.312    92230057.692  
R19  20985035.751   112255790.356    20985035.145   112255790.666    20985040.092    87310058.499    20985040.593    87310059.737  
G10  22352860.770   117465079.087    22352859.730   117465082.366    22352860.165    91531233.618                                  
G13  22321073.803   117298044.265    22321073.446   117298046.535    22321072.928    91401075.281                                  
G04  21417782.630   112551210.141    21417782.159   112551210.414    21417782.477    87702242.105                                  
G32  25035908.091   131564604.568    25035910.975   131564603.787    25035910.990   102517872.852                                  
G17  20046274.015   105343885.613    20046273.596   105343885.885    20046272.402    82086146.067    20046272.456    82086145.827  
G28  23542142.857   123714801.360    23542141.265   123714800.622    23542143.180    96401143.898                                  
G23  21930807.339   115247179.876    21930806.730   115247181.159    21930804.227    89802997.863                                  
G24  24649180.279   129532302.906    24649178.486   129532308.136    24649181.157   100934265.630                                  
G12  24893985.317   130818775.225    24893985.278   130818774.463    24893983.908   101936708.763    24893985.188   101936708.534  
G20  22106059.849   116168132.544    22106058.452   116168130.805    22106057.658    90520622.467                                  
R20  19287019.690   103136363.895    19287020.329   103136363.198    19287027.764    80217172.743    19287027.308    80217171.985  
R06  20704793.895   110484746.139    20704793.838   110484745.431    20704799.124    85932578.414    20704798.644    85932579.639  
S29  40072960.335   210584832.965  
S37  40101038.648   210732371.181  
J01  38772927.783   203753113.994    38772927.435   203753114.747    38772925.807   203753104.071    38772927.225   158768661.219    38772931.590   152153300.498  
> 2011 01 15 02 26 50.0000000  0 20                     
G11  24441402.247   128440441.424    24441402.904   128440441.683    24441401.063   100083461.305                                  
G02  24374427.275   128088488.589    24374426.487   128088489.860    24374424.613    99809213.687                                  
R05  19215696.669   102718909.920    19215696.351   102718909.219    19215702.488    79892485.673    19215703.133    79892485.914  
R21  22159135.019   118577998.863    22159134.120   118578006.165    22159140.098    92227336.714    22159139.981    92227338.962  
R19  20985593.191   112258773.212    20985593.011   112258773.523    20985597.922    87312378.500    20985598.420    87312379.738  
G10  22352331.034   117462293.405    22352329.946   117462296.680    22352329.913    91529062.955                                  
G13  22320589.054   117295496.176    22320588.733   117295498.438    22320588.364    91399089.759                                  
G04  21417496.966   112549709.328    21417496.478   112549709.606    21417496.619    87701072.643                                  
G32  25036600.390   131568237.523    25036601.772   131568236.764    25036602.525   102520703.719                                  
G17  20046357.588   105344324.064    20046357.163   105344324.337    20046355.616    82086487.714    20046355.967    82086487.475  
G28  23542795.454   123718235.099    23542794.761   123718234.364    23542797.037    96403819.535                                  
G23  21930703.431   115246634.294    21930703.143   115246635.575    21930700.328    89802572.737                                  
G24  24649701.393   129535054.258    24649702.373   129535059.502    24649705.011   100936409.482                                  
G12  24893691.007   130817228.721    24893690.851   130817227.962    24893689.751   101935503.700    24893691.889   101935503.471  
G20  22106643.281   116171201.637    22106642.640   116171199.900    22106641.435    90523013.963                                  
R20  19286889.116   103135661.523    19286889.047   103135660.828    19286895.906    80216626.454    19286896.056    80216625.695  
R06  20704304.688   110482139.484    20704305.237   110482138.777    20704310.456    85930551.019    20704310.363    85930552.243  
S29  40073007.198   210585076.921  
S37  40101082.468   210732614.669  
J01  38772960.532   203753287.230    38772960.466   203753287.988    38772958.463   203753277.305    38772960.544   158768796.209    38772964.480   152153429.866  
> 2011 01 15 02 26 51.0000000  0 20                     
G11  24441989.514   128443523.286    24441988.953   128443523.534    24441987.484   100085862.734                                  
G02  24373975.185   128086113.305    24373974.867   128086114.567    24373973.230    99807362.803                                  
R05  19215919.808   102720103.748    19215919.766   102720103.047    19215926.541    79893414.208    19215926.199    79893414.445  
R21  22158480.512   118574503.336    22158480.776   118574510.636    22158486.514    92224617.970    22158486.934    92224620.221  
R19  20986150.529   112261756.439    20986150.607   112261756.750    20986155.779    87314698.783    20986156.162    87314700.023  
G10  22351800.180   117459507.901    22351799.310   117459511.180    22351800.438    91526892.434                                  
G13  22320104.598   117292948.319    22320103.582   117292950.583    22320103.375    91397104.421                                  
G04  21417211.702   112548208.567    21417210.656   112548208.841    21417210.907    87699903.222                                  
G32  25037292.164   131571870.211    25037293.501   131571869.418    25037293.969   102523534.401                                  
G17  20046441.344   105344762.964    20046440.577   105344763.238    20046439.300    82086829.716    20046439.660    82086829.476  
G28  23543450.003   123721668.779    23543448.471   123721668.048    23543449.469    96406495.120                                  
G23  21930599.466   115246089.152    21930599.097   115246090.429    21930596.276    89802147.948                                  
G24  24650227.370   129537805.477    24650225.796   129537810.710    24650228.965   100938553.316                                  
G12  24893396.009   130815682.540    24893396.680   130815681.766    24893396.629   101934298.897    24893396.695   101934298.662  
G20  22107227.745   116174270.828    22107226.534   116174269.092    22107225.892    90525405.548                                  
R20  19286757.495   103134959.638    19286757.731   103134958.944    19286764.843    80216080.543    19286764.558    80216079.787  
R06  20703816.629   110479533.239    20703816.905   110479532.533    20703822.628    85928523.937    20703821.672    85928525.166  
S29  40073054.035   210585320.878  
S37  40101128.244   210732857.880  
J01  38772993.869   203753460.240    38772993.707   203753460.994    38772991.710   203753450.321    38772993.377   158768931.021    38772997.415   152153559.061  
> 2011 01 15 02 26 52.0000000  0 20                     
G11  24442576.525   128446605.416    24442575.356   128446605.674    24442574.532   100088264.398                                  
G02  24373523.251   128083738.146    24373523.281   128083739.407    24373521.053    99805512.023                                  
R05  19216143.540   102721298.430    19216143.198   102721297.731    19216149.302    79894343.404    19216149.667    79894343.644  
R21  22157828.113   118571008.078    22157827.828   118571015.376    22157832.409    92221899.441    22157833.545    92221901.688  
R19  20986709.300   112264740.347    20986708.284   112264740.656    20986713.680    87317019.599    20986713.692    87317020.840  
G10  22351270.614   117456722.878    22351269.676   117456726.158    22351270.398    91524722.291                                  
G13  22319620.316   117290400.948    22319618.700   117290403.206    22319618.922    91395119.452                                  
G04  21416925.700   112546708.154    21416925.538   112546708.427    21416925.511    87698734.063                                  
G32  25037985.216   131575503.080    25037984.739   131575502.335    25037985.248   102526365.191                                  
G17  20046524.963   105345202.581    20046524.198   105345202.855    20046522.873    82087172.274    20046523.245    82087172.033  
G28  23544103.253   123725102.685    23544101.440   123725101.940    23544102.348    96409170.893                                  
G23  21930495.768   115245544.740    21930495.327   115245546.021    21930492.965    89801723.735                                  
G24  24650749.344   129540556.883    24650749.003   129540562.123    24650752.594   100940697.259                                  
G12  24893101.540   130814137.051    24893102.913   130814136.303    24893103.654   101933094.617    24893102.479   101933094.377  
G20  22107811.890   116177340.347    22107811.003   116177338.609    22107809.981    90527797.385                                  
R20  19286626.275   103134258.526    19286626.605   103134257.829    19286633.926    80215535.233    19286633.644    80215534.474  
R06  20703328.336   110476927.706    20703328.426   110476926.999    20703333.495    85926497.412    20703333.223    85926498.640  
S29  40073101.075   210585565.071  
S37  40101175.224   210733101.624  
J01  38773026.642   203753633.302    38773025.959   203753634.053    38773024.244   203753623.384    38773026.187   158769065.874    38773030.408   152153688.295  
> 2011 01 15 02 26 53.0000000  0 20                     
G11  24443162.215   128449687.447    24443161.540   128449687.695    24443161.708   100090665.987                                  
G02  24373070.648   128081362.822    24373070.726   128081364.093    24373069.614    99803661.136                                  
R05  19216367.185   102722493.701    19216366.837   102722493.000    19216372.737    79895273.057    19216373.438    79895273.298  
R21  22157175.363   118567512.805    22157174.526   118567520.108    22157179.482    92219180.899    22157180.504    92219183.145  
R19  20987266.753   112267724.642    20987266.153   112267724.950    20987271.174    87319340.716    20987271.462    87319341.956  
G10  22350740.692   117453938.067    22350740.314   117453941.349    22350740.596    91522552.304                                  
G13  22319135.039   117287853.775    22319134.290   117287856.034    22319134.095    91393134.641                                  
G04  21416640.555   112545207.784    21416640.085   112545208.055    21416639.740    87697564.948                                  
G32  25038676.585   131579135.812    25038676.261   131579135.023    25038676.522   102529195.907                                  
G17  20046608.557   105345642.644    20046607.897   105345642.919    20046606.716    82087515.179    20046606.938    82087514.940  
G28  23544756.195   123728536.530    23544755.452   123728535.792    23544756.234    96411846.618                                  
G23  21930392.354   115245000.780    21930391.920   115245002.064    21930389.197    89801299.869                                  
G24  24651273.157   129543308.141    24651273.025   129543313.391    24651275.561   100942841.107                                  
G12  24892809.138   130812591.926    24892808.568   130812591.159    24892808.053   101931890.603    24892808.964   101931890.382  
G20  22108395.706   116180409.974    22108394.045   116180408.238    22108394.018    90530189.302                                  
R20  19286495.884   103133557.908    19286495.602   103133557.213    19286502.353    80214990.307    19286502.545    80214989.551  
R06  20702840.142   110474322.590    20702840.211   110474321.885    20702845.424    85924471.212    20702845.394    85924472.441  
S29  40073147.924   210585809.139  
S37  40101222.747   210733345.128  
J01  38773058.990   203753806.131    38773059.176   203753806.883    38773057.263   203753796.213    38773059.020   158769200.547    38773063.268   152153817.357  
> 2011 01 15 02 26 54.0000000  0 20                     
G11  24443749.394   128452769.520    24443748.180   128452769.793    24443747.898   100093067.601                                  
G02  24372618.369   128078987.426    24372618.291   128078988.687    24372617.332    99801810.162                                  
R05  19216590.482   102723689.631    19216590.416   102723688.933    19216596.259    79896203.226    19216596.835    79896203.466  
R21  22156521.716   118564017.588    22156521.434   118564024.890    22156527.661    92216462.395    22156527.211    92216464.642  
R19  20987824.552   112270709.394    20987824.154   112270709.703    20987828.785    87321662.189    20987829.244    87321663.431  
G10  22350210.593   117451153.522    22350209.997   117451156.803    22350210.572    91520382.537                                  
G13  22318650.269   117285306.907    22318649.406   117285309.173    22318649.412    91391150.077                                  
G04  21416354.793   112543707.498    21416354.619   112543707.773    21416354.379    87696395.896                                  
G32  25039365.763   131582768.455    25039367.019   131582767.698    25039368.227   102532026.528                                  
G17  20046692.343   105346083.240    20046691.839   105346083.514    20046690.493    82087858.500    20046690.928    82087858.260  
G28  23545409.755   123731970.383    23545408.907   123731969.649    23545410.091    96414522.334                                  
G23  21930289.460   115244457.338    21930288.677   115244458.623    21930285.859    89800876.413                                  
G24  24651797.344   129546059.386    24651796.465   129546064.639    24651799.146   100944984.924                                  
G12  24892514.820   130811047.217    24892515.182   130811046.465    24892513.887   101930686.943    24892515.089   101930686.717  
G20  22108979.894   116183479.741    22108978.787   116183478.012    22108978.287    90532581.318                                  
R20  19286364.089   103132857.862    19286364.572   103132857.165    19286372.189    80214445.827    19286371.503    80214445.070  
R06  20702352.062   110471717.976    20702352.200   110471717.273    20702357.527    85922445.402    20702357.092    85922446.632  
S29  40073195.339   210586052.818  
S37  40101267.560   210733588.733  
J01  38773091.787   203753978.816    38773091.859   203753979.570    38773090.384   203753968.894    38773091.364   158769335.106    38773096.149   152153946.309  
> 2011 01 15 02 26 55.0000000  0 20                     
G11  24444336.223   128455851.516    24444334.781   128455851.756    24444334.125   100095469.156                                  
G02  24372166.246   128076611.843    24372166.028   128076613.114    24372165.728    99799959.066                                  
R05  19216814.697   102724886.119    19216814.379   102724885.418    19216820.405    79897133.825    19216821.023    79897134.069  
R21  22155868.375   118560522.340    22155868.223   118560529.640    22155874.161    92213743.870    22155873.745    92213746.117  
R19  20988382.130   112273694.502    20988382.355   112273694.811    20988387.233    87323983.938    20988387.467    87323985.179  
G10  22349681.001   117448369.160    22349679.961   117448372.441    22349680.812    91518212.896                                  
G13  22318165.316   117282760.207    22318165.043   117282762.482    22318164.389    91389165.630                                  
G04  21416069.550   112542207.274    21416068.791   112542207.552    21416068.782    87695226.883                                  
G32  25040056.766   131586400.890    25040057.939   131586400.158    25040058.841   102534857.007                                  
G17  20046776.135   105346524.248    20046775.754   105346524.523    20046774.381    82088202.142    20046774.369    82088201.903  
G28  23546063.024   123735404.145    23546062.868   123735403.418    23546063.183    96417197.996                                  
G23  21930186.076   115243914.332    21930185.273   115243915.616    21930182.569    89800453.288                                  
G24  24652319.501   129548810.466    24652320.248   129548815.678    24652323.054   100947128.639                                  
G12  24892221.071   130809502.861    24892220.522   130809502.075    24892219.941   101929483.544    24892220.312   101929483.313  
G20  22109564.282   116186549.551    22109563.434   116186547.824    22109562.618    90534973.387                                  
R20  19286234.827   103132158.281    19286233.841   103132157.584    19286241.363    80213901.712    19286240.658    80213900.953  
R06  20701863.673   110469113.751    20701864.171   110469113.043    20701868.167    85920419.895    20701868.961    85920421.123  
S29  40073240.812   210586296.865  
S37  40101314.855   210733831.787  
J01  38773124.644   203754151.240    38773125.007   203754151.989    38773123.214   203754141.317    38773124.824   158769469.462    38773128.832   152154075.067  
> 2011 01 15 02 26 56.0000000  0 20                     
G11  24444922.413   128458934.045    24444920.998   128458934.299    24444920.767   100097871.111                                  
G02  24371714.780   128074236.690    24371713.974   128074237.955    24371713.425    99798108.294                                  
R05  19217038.501   102726083.758    19217038.432   102726083.060    19217044.332    79898065.324    19217044.884    79898065.567  
R21  22155214.543   118557027.666    22155215.059   118557034.965    22155221.214    92211025.791    22155221.130    92211028.036  
R19  20988941.105   112276680.588    20988940.416   112276680.894    20988945.198    87326306.449    20988945.620    87326307.688  
G10  22349151.330   117445585.579    22349150.311   117445588.865    22349151.076    91516043.873                                  
G13  22317681.181   117280214.314    22317680.419   117280216.581    22317679.391    91387181.817                                  
G04  21415784.492   112540707.701    21415783.470   112540707.983    21415783.524    87694058.397                                  
G32  25040748.157   131590033.777    25040749.314   131590032.986    25040750.663   102537687.812                                  
G17  20046860.172   105346966.299    20046859.720   105346966.573    20046858.515    82088546.598    20046858.976    82088546.358  
G28  23546717.621   123738838.458    23546715.720   123738837.715    23546717.162    96419874.081                                  
G23  21930082.552   115243372.359    21930082.537   115243373.637    21930079.260    89800030.969                                  
G24  24652844.948   129551562.036    24652843.578   129551567.275    24652845.976   100949272.690                                  
G12  24891927.046   130807959.443    24891927.226   130807958.691    24891926.492   101928280.901    24891927.286   101928280.665  
G20  22110148.653   116189620.043    22110147.816   116189618.309    22110146.887    90537365.974                                  
R20  19286102.904   103131459.786    19286103.123   103131459.094    19286110.345    80213358.437    19286110.078    80213357.678  
R06  20701376.321   110466510.528    20701376.228   110466509.821    20701381.535    85918395.169    20701381.145    85918396.394  
S29  40073286.959   210586541.099  
S37  40101361.356   210734075.153  
J01  38773157.699   203754324.024    38773157.741   203754324.779    38773155.847   203754314.109    38773157.640   158769604.104    38773161.783   152154204.098  
> 2011 01 15 02 26 57.0000000  0 20                     
G11  24445509.539   128462016.798    24445508.556   128462017.045    24445507.641   100100273.268                                  
G02  24371262.744   128071861.687    24371262.381   128071862.958    24371261.839    99796257.663                                  
R05  19217262.902   102727282.263    19217262.476   102727281.562    19217268.949    79898997.495    19217269.233    79898997.734  
R21  22154562.450   118553533.286    22154561.985   118553540.584    22154567.594    92208307.941    22154568.478    92208310.188  
R19  20989500.080   112279667.368    20989498.641   112279667.676    20989503.390    87328629.496    20989504.212    87328630.736  
G10  22348621.222   117442802.506    22348620.830   117442805.782    22348621.582    91513875.239                                  
G13  22317197.442   117277668.930    22317196.647   117277671.198    22317195.610    91385198.403                                  
G04  21415498.787   112539208.471    21415497.872   112539208.749    21415498.421    87692890.162                                  
G32  25041438.066   131593666.762    25041440.237   131593665.999    25041442.311   102540518.691                                  
G17  20046944.453   105347409.100    20046944.198   105347409.373    20046942.882    82088891.636    20046943.083    82088891.394  
G28  23547370.886   123742272.979    23547368.923   123742272.244    23547370.278    96422550.331                                  
G23  21929979.360   115242831.134    21929979.111   115242832.417    21929976.341    89799609.236                                  
G24  24653367.582   129554313.770    24653367.423   129554318.991    24653369.312   100951416.894                                  
G12  24891633.589   130806416.707    24891633.349   130806415.942    24891633.283   101927078.762    24891634.086   101927078.528  
G20  22110732.897   116192690.928    22110731.938   116192689.197    22110731.254    90539758.871                                  
R20  19285972.083   103130762.072    19285972.683   103130761.375    19285979.815    80212815.766    19285979.707    80212815.010  
R06  20700888.544   110463908.026    20700888.559   110463907.318    20700893.997    85916371.000    20700893.512    85916372.225  
S29  40073332.668   210586785.383  
S37  40101408.376   210734318.862  
J01  38773190.395   203754496.891    38773190.866   203754497.644    38773189.382   203754486.963    38773190.530   158769738.800    38773194.730   152154333.183  
> 2011 01 15 02 26 58.0000000  0 20                     
G11  24446095.762   128465099.353    24446094.344   128465099.613    24446093.813   100102675.240                                  
G02  24370810.969   128069486.367    24370809.853   128069487.637    24370809.862    99794406.752                                  
R05  19217486.883   102728481.173    19217486.712   102728480.473    19217492.498    79899929.980    19217493.394    79899930.220  
R21  22153909.127   118550038.721    22153908.911   118550046.018    22153914.673    92205589.945    22153915.102    92205592.189  
R19  20990057.590   112282654.377    20990057.341   112282654.683    20990062.332    87330952.726    20990062.686    87330953.961  
G10  22348091.615   117440019.477    22348090.857   117440022.757    22348092.083    91511706.650                                  
G13  22316712.410   117275123.607    22316712.015   117275125.869    22316711.889    91383215.043                                  
G04  21415213.468   112537709.145    21415213.303   112537709.419    21415212.764    87691721.861                                  
G32  25042130.086   131597299.465    25042131.408   131597298.681    25042134.136   102543349.387                                  
G17  20047028.995   105347852.193    20047028.407   105347852.468    20047027.043    82089236.905    20047027.010    82089236.664  
G28  23548024.230   123745707.316    23548022.512   123745706.580    23548023.852    96425226.412                                  
G23  21929876.672   115242290.208    21929875.878   115242291.488    21929873.300    89799187.734                                  
G24  24653891.088   129557065.226    24653891.337   129557070.458    24653892.839   100953560.900                                  
G12  24891339.552   130804874.203    24891340.542   130804873.455    24891339.109   101925876.820    24891341.294   101925876.588  
G20  22111317.399   116195761.723    22111316.257   116195759.988    22111315.856    90542151.694                                  
R20  19285841.767   103130064.691    19285842.180   103130063.994    19285849.825    80212273.362    19285849.156    80212272.604  
R06  20700401.447   110461305.789    20700400.767   110461305.082    20700406.484    85914347.042    20700406.079    85914348.266  
S29  40073380.959   210587029.434  
S37  40101453.470   210734562.257  
J01  38773223.390   203754669.371    38773223.393   203754670.124    38773221.747   203754659.444    38773223.321   158769873.202    38773227.527   152154461.984  
> 2011 01 15 02 26 59.0000000  0 20                     
G11  24446681.892   128468182.151    24446681.892   128468182.399    24446680.540   100105077.436                                  
G02  24370359.445   128067111.197    24370358.234   128067112.467    24370357.646    99792555.972                                  
R05  19217711.679   102729680.958    19217711.253   102729680.259    19217716.832    79900863.147    19217717.876    79900863.386  
R21  22153256.449   118546544.441    22153256.017   118546551.739    22153262.567    92202872.174    22153262.504    92202874.419  
R19  20990616.559   112285642.063    20990615.968   112285642.370    20990620.867    87333276.481    20990620.864    87333277.717  
G10  22347562.517   117437236.948    22347561.852   117437240.226    22347562.556    91509538.445                                  
G13  22316227.688   117272578.786    22316227.628   117272581.047    22316227.586    91381232.063                                  
G04  21414928.665   112536210.151    21414927.439   112536210.424    21414927.508    87690553.810                                  
G32  25042821.923   131600932.305    25042822.583   131600931.540    25042825.512   102546180.150                                  
G17  20047113.392   105348296.038    20047112.922   105348296.311    20047111.644    82089582.757    20047111.575    82089582.516  
G28  23548678.305   123749141.897    23548676.003   123749141.172    23548677.442    96427902.728                                  
G23  21929774.023   115241750.042    21929773.367   115241751.323    21929770.699    89798766.832                                  
G24  24654413.768   129559816.845    24654414.883   129559822.046    24654416.520   100955705.003                                  
G12  24891047.108   130803332.353    24891046.685   130803331.601    24891045.594   101924675.400    24891047.395   101924675.148  
G20  22111902.082   116198832.896    22111900.787   116198831.167    22111899.761    90544544.823                                  
R20  19285712.001   103129368.094    19285711.962   103129367.397    19285719.035    80211731.564    19285718.831    80211730.805  
R06  20699913.619   110458704.266    20699913.382   110458703.559    20699918.002    85912323.635    20699918.721    85912324.858  
S29  40073427.373   210587273.510  
S37  40101499.749   210734805.691  
J01  38773256.439   203754841.923    38773256.217   203754842.678    38773254.146   203754831.994    38773256.256   158770007.658    38773260.324   152154590.839  
> 2011 01 15 02 27 00.0000000  0 20                     
G11  24447268.691   128471265.140    24447268.005   128471265.391    24447266.838   100107479.739                                  
G02  24369906.813   128064736.081    24369905.709   128064737.355    24369905.967    99790705.246                                  
R05  19217936.553   102730881.551    19217935.849   102730880.851    19217942.097    79901796.941    19217942.510    79901797.182  
R21  22152603.459   118543050.371    22152602.946   118543057.671    22152609.380    92200154.567    22152609.113    92200156.813  
R19  20991175.132   112288630.359    20991174.511   112288630.665    20991179.227    87335600.706    20991179.752    87335601.947  
G10  22347032.964   117434454.832    22347032.337   117434458.113    22347032.601    91507370.569                                  
G13  22315744.647   117270034.418    22315743.241   117270036.685    22315743.322    91379249.442                                  
G04  21414643.206   112534711.433    21414642.310   112534711.705    21414642.385    87689385.975                                  
G32  25043513.379   131604565.202    25043513.955   131604564.395    25043516.488   102549011.031                                  
G17  20047197.889   105348740.546    20047197.517   105348740.819    20047196.123    82089929.128    20047196.570    82089928.886  
G28  23549330.456   123752576.610    23549329.820   123752575.880    23549331.286    96430579.115                                  
G23  21929671.500   115241210.539    21929670.598   115241211.817    21929668.472    89798346.438                                  
G24  24654938.362   129562568.626    24654938.114   129562573.877    24654940.131   100957849.248                                  
G12  24890753.386   130801791.085    24890753.122   130801790.334    24890752.223   101923474.404    24890754.633   101923474.159  
G20  22112486.173   116201904.366    22112485.175   116201902.637    22112484.869    90546938.171                                  
R20  19285581.586   103128672.211    19285581.709   103128671.517    19285589.221    80211190.320    19285588.664    80211189.565  
R06  20699426.369   110456103.388    20699426.082   110456102.681    20699431.715    85910300.730    20699431.100    85910301.955  
S29  40073474.353   210587517.767  
S37  40101545.171   210735049.624  
J01  38773288.997   203755014.468    38773289.212   203755015.218    38773287.381   203755004.540    38773289.015   158770142.110    38773293.128   152154719.688  
> 2011 01 15 02 27 01.0000000  0 20                     
G11  24447854.827   128474348.197    24447854.593   128474348.456    24447852.786   100109882.134                                  
G02  24369455.358   128062360.974    24369453.311   128062362.239    24369453.550    99788854.516                                  
R05  19218160.636   102732082.868    19218160.537   102732082.171    19218167.085    79902731.298    19218167.223    79902731.541  
R21  22151950.511   118539556.423    22151950.127   118539563.721    22151955.748    92197437.052    22151956.309    92197439.295  
R19  20991734.338   112291619.173    20991733.049   112291619.480    20991738.055    87337925.337    20991738.451    87337926.577  
G10  22346503.962   117431673.071    22346503.318   117431676.352    22346503.998    91505202.958                                  
G13  22315260.231   117267490.362    22315259.164   117267492.626    22315259.298    91377267.058                                  
G04  21414358.661   112533212.919    21414357.060   112533213.194    21414357.291    87688218.304                                  
G32  25044204.569   131608198.062    25044205.127   131608197.249    25044208.226   102551841.801                                  
G17  20047282.730   105349185.647    20047282.199   105349185.921    20047281.006    82090275.958    20047281.327    82090275.718  
G28  23549983.958   123756011.444    23549983.578   123756010.713    23549984.570    96433255.611                                  
G23  21929569.073   115240671.629    21929567.994   115240672.912    21929565.880    89797926.512                                  
G24  24655462.385   129565320.385    24655461.608   129565325.634    24655464.792   100959993.479                                  
G12  24890459.433   130800250.357    24890459.416   130800249.606    24890459.116   101922273.834    24890459.445   101922273.599  
G20  22113070.613   116204976.065    22113069.788   116204974.335    22113069.402    90549331.697                                  
R20  19285452.234   103127976.958    19285451.521   103127976.261    19285459.402    80210649.569    19285458.761    80210648.810  
R06  20698938.541   110453503.070    20698938.802   110453502.361    20698944.978    85908278.262    20698943.730    85908279.490  
S29  40073520.518   210587761.921  
S37  40101591.018   210735293.584  
J01  38773321.878   203755186.923    38773322.142   203755187.676    38773319.986   203755177.001    38773321.749   158770276.491    38773325.928   152154848.470  
> 2011 01 15 02 27 02.0000000  0 20                     
G11  24448441.698   128477430.924    24448441.422   128477431.193    24448440.094   100112284.254                                  
G02  24369002.588   128059985.450    24369001.167   128059986.732    24369002.114    99787003.458                                  
R05  19218386.293   102733284.508    19218385.343   102733283.813    19218391.857    79903665.910    19218391.908    79903666.153  
R21  22151298.186   118536062.223    22151297.161   118536069.520    22151302.189    92194719.337    22151303.271    92194721.583  
R19  20992292.419   112294608.120    20992291.829   112294608.428    20992296.838    87340250.072    20992297.213    87340251.316  
G10  22345974.829   117428891.257    22345974.019   117428894.536    22345974.187    91503035.308                                  
G13  22314775.814   117264946.307    22314774.732   117264948.567    22314775.128    91375284.679                                  
G04  21414073.106   112531714.210    21414071.754   112531714.485    21414072.122    87687050.480                                  
G32  25044894.958   131611830.571    25044896.373   131611829.802    25044899.284   102554672.351                                  
G17  20047367.532   105349630.951    20047366.915   105349631.226    20047365.611    82090622.948    20047365.910    82090622.708  
G28  23550638.546   123759445.914    23550637.665   123759445.178    23550638.408    96435931.814                                  
G23  21929466.556   115240132.927    21929465.804   115240134.210    21929463.214    89797506.746                                  
G24  24655985.735   129568071.818    24655984.470   129568077.050    24655988.215   100962137.446                                  
G12  24890166.893   130798709.728    24890166.099   130798708.959    24890166.380   101921073.328    24890167.993   101921073.099  
G20  22113655.133   116208047.601    22113654.240   116208045.870    22113653.934    90551725.113                                  
R20  19285321.998   103127281.941    19285321.612   103127281.246    19285328.468    80210109.003    19285328.954    80210108.244  
R06  20698451.192   110450902.912    20698451.459   110450902.208    20698457.689    85906255.921    20698456.145    85906257.146  
S29  40073567.801   210588006.333  
S37  40101636.839   210735537.166  
J01  38773354.633   203755358.915    38773354.966   203755359.666    38773353.212   203755348.991    38773354.588   158770410.509    38773358.770   152154976.904  
> 2011 01 15 02 27 03.0000000  0 20                     
G11  24449028.500   128480514.118    24449028.506   128480514.363    24449026.806   100114686.758                                  
G02  24368550.797   128057610.272    24368549.535   128057611.543    24368549.274    99785152.676                                  
R05  19218610.568   102734487.227    19218610.229   102734486.528    19218616.147    79904601.356    19218616.983    79904601.595  
R21  22150644.252   118532568.513    22150644.153   118532575.807    22150650.065    92192002.009    22150650.485    92192004.253  
R19  20992850.384   112297597.959    20992850.798   112297598.264    20992855.256    87342575.500    20992855.936    87342576.742  
G10  22345445.611   117426110.155    22345444.765   117426113.432    22345445.341    91500868.219                                  
G13  22314291.913   117262402.959    22314291.413   117262405.216    22314291.032    91373302.856                                  
G04  21413788.018   112530216.057    21413786.750   112530216.329    21413786.903    87685883.086                                  
G32  25045585.809   131615463.398    25045588.351   131615462.605    25045590.869   102557503.110                                  
G17  20047452.436   105350077.202    20047451.873   105350077.474    20047450.620    82090970.674    20047450.755    82090970.434  
G28  23551292.837   123762880.850    23551290.226   123762880.117    23551292.091    96438608.392                                  
G23  21929363.604   115239595.171    21929363.781   115239596.450    21929360.708    89797087.708                                  
G24  24656509.251   129570823.612    24656508.019   129570828.852    24656511.826   100964281.702                                  
G12  24889873.189   130797169.975    24889872.194   130797169.219    24889873.117   101919873.521    24889873.933   101919873.298  
G20  22114239.638   116211119.711    22114238.631   116211117.981    22114238.205    90554118.959                                  
R20  19285191.619   103126587.922    19285191.933   103126587.225    19285200.022    80209569.209    19285199.146    80209568.451  
R06  20697964.962   110448303.689    20697964.317   110448302.980    20697970.238    85904234.300    20697969.213    85904235.524  
S29  40073614.911   210588250.727  
S37  40101684.784   210735780.476  
J01  38773387.766   203755531.172    38773387.682   203755531.927    38773385.305   203755521.242    38773386.924   158770544.734    38773391.502   152155105.536  
> 2011 01 15 02 27 04.0000000  0 20                     
G11  24449615.200   128483597.265    24449614.657   128483597.518    24449613.032   100117089.183                                  
G02  24368099.322   128055234.935    24368098.132   128055236.203    24368097.607    99783301.764                                  
R05  19218835.838   102735690.483    19218835.457   102735689.787    19218841.252    79905537.225    19218842.100    79905537.465  
R21  22149992.614   118529074.772    22149991.466   118529082.069    22149997.420    92189284.655    22149997.696    92189286.900  
R19  20993410.408   112300588.161    20993409.770   112300588.468    20993413.736    87344901.210    20993415.088    87344902.455  
G10  22344916.612   117423329.231    22344915.290   117423332.507    22344915.644    91498701.264                                  
G13  22313808.513   117259859.818    22313807.269   117259862.079    22313807.179    91371321.175                                  
G04  21413502.918   112528717.953    21413501.770   112528718.229    21413501.731    87684715.739                                  
G32  25046276.531   131619096.047    25046279.774   131619095.293    25046282.377   102560333.733                                  
G17  20047537.476   105350523.892    20047536.819   105350524.167    20047535.662    82091318.746    20047535.719    82091318.505  
G28  23551944.796   123766315.710    23551944.814   123766314.978    23551945.449    96441284.903                                  
G23  21929261.387   115239057.865    21929261.204   115239059.140    21929258.242    89796669.035                                  
G24  24657033.090   129573575.284    24657032.047   129573580.526    24657035.683   100966425.876                                  
G12  24889581.162   130795630.562    24889579.926   130795629.794    24889580.562   101918673.989    24889581.452   101918673.755  
G20  22114824.740   116214191.890    22114823.265   116214190.163    22114822.888    90556512.862                                  
R20  19285061.458   103125894.398    19285062.378   103125893.703    19285069.903    80209029.803    19285069.678    80209029.044  
R06  20697477.128   110445704.872    20697477.380   110445704.162    20697482.500    85902213.002    20697482.599    85902214.224  
S29  40073662.620   210588495.380  
S37  40101731.042   210736023.485  
J01  38773420.575   203755703.192    38773420.240   203755703.951    38773418.465   203755693.267    38773420.081   158770678.778    38773424.194   152155233.995  
> 2011 01 15 02 27 05.0000000  0 20                     
G11  24450202.160   128486680.771    24450201.393   128486681.039    24450200.445   100119491.943                                  
G02  24367646.659   128052859.863    24367646.042   128052861.145    24367645.625    99781451.070                                  
R05  19219060.817   102736894.728    19219060.739   102736894.033    19219067.463    79906473.859    19219067.272    79906474.099  
R21  22149338.674   118525581.415    22149338.311   118525588.711    22149343.944    92186567.601    22149345.164    92186569.846  
R19  20993968.526   112303579.171    20993968.934   112303579.476    20993973.596    87347227.553    20993974.165    87347228.794  
G10  22344386.999   117420548.926    22344385.964   117420552.203    22344386.846    91496534.797                                  
G13  22313324.399   117257317.305    22313323.545   117257319.563    22313323.467    91369339.998                                  
G04  21413218.206   112527220.299    21413216.350   112527220.567    21413216.764    87683548.732                                  
G32  25046967.537   131622728.943    25046971.336   131622728.162    25046972.574   102563164.557                                  
G17  20047622.422   105350971.448    20047621.954   105350971.723    20047620.713    82091667.490    20047620.767    82091667.250  
G28  23552598.769   123769750.937    23552598.248   123769750.195    23552599.645    96443961.697                                  
G23  21929159.302   115238521.423    21929158.594   115238522.700    21929156.514    89796251.028                                  
G24  24657557.310   129576327.260    24657556.366   129576332.508    24657559.835   100968570.283                                  
G12  24889289.383   130794091.975    24889287.614   130794091.208    24889287.536   101917475.074    24889288.339   101917474.849  
G20  22115409.093   116217264.568    22115408.005   116217262.829    22115408.146    90558907.152                                  
R20  19284932.715   103125201.792    19284932.760   103125201.098    19284940.060    80208491.110    19284939.967    80208490.352  
R06  20696991.068   110443106.904    20696990.451   110443106.194    20696995.526    85900192.357    20696995.841    85900193.582  
S29  40073707.741   210588740.059  
S37  40101776.533   210736266.800  
J01  38773453.289   203755875.404    38773452.716   203755876.161    38773451.151   203755865.479    38773452.500   158770812.969    38773456.976   152155362.595  
> 2011 01 15 02 27 06.0000000  0 20                     
G11  24450789.196   128489764.314    24450788.216   128489764.589    24450786.765   100121894.712                                  
G02  24367194.920   128050484.762    24367194.072   128050486.033    24367193.820    99779600.333                                  
R05  19219286.021   102738099.660    19219286.186   102738098.967    19219292.605    79907411.032    19219292.467    79907411.272  
R21  22148686.008   118522088.156    22148685.624   118522095.451    22148691.785    92183850.620    22148692.288    92183852.868  
R19  20994528.670   112306570.683    20994528.298   112306570.989    20994533.401    87349554.282    20994533.623    87349555.526  
G10  22343858.408   117417768.942    22343857.086   117417772.218    22343857.451    91494368.578                                  
G13  22312840.333   117254775.125    22312839.689   117254777.389    22312838.942    91367359.084                                  
G04  21412932.746   112525722.815    21412931.607   112525723.090    21412931.886    87682381.868                                  
G32  25047657.525   131626361.825    25047662.393   131626361.047    25047664.078   102565995.410                                  
G17  20047707.563   105351419.581    20047707.239   105351419.854    20047705.989    82092016.682    20047706.406    82092016.442  
G28  23553252.703   123773186.232    23553252.005   123773185.487    23553253.327    96446638.550                                  
G23  21929057.483   115237985.561    21929057.043   115237986.836    21929054.470    89795833.471                                  
G24  24658082.109   129579079.247    24658079.672   129579084.485    24658083.263   100970714.667                                  
G12  24888996.719   130792553.839    24888995.088   130792553.084    24888995.265   101916276.537    24888996.770   101916276.298  
G20  22115994.135   116220337.457    22115992.639   116220335.725    22115992.333    90561301.614                                  
R20  19284802.851   103124509.802    19284803.366   103124509.108    19284810.930    80207952.897    19284810.768    80207952.138  
R06  20696503.579   110440509.474    20696503.654   110440508.767    20696508.843    85898172.137    20696508.768    85898173.365  
S29  40073753.007   210588984.801  
S37  40101822.110   210736510.236  
J01  38773485.828   203756047.518    38773485.783   203756048.276    38773484.131   203756037.594    38773485.463   158770947.085    38773489.720   152155491.122  
> 2011 01 15 02 27 07.0000000  0 20                     
G11  24451375.143   128492848.181    24451375.209   128492848.446    24451374.130   100124297.706                                  
G02  24366743.720   128048109.864    24366742.203   128048111.143    24366741.607    99777749.765                                  
R05  19219511.552   102739305.547    19219511.666   102739304.853    19219518.399    79908348.942    19219518.162    79908349.184  
R21  22148033.036   118518595.252    22148033.096   118518602.548    22148039.424    92181133.919    22148039.379    92181136.163  
R19  20995088.020   112309562.945    20995087.459   112309563.251    20995093.054    87351881.599    20995093.018    87351882.839  
G10  22343329.166   117414989.529    22343328.024   117414992.809    22343328.590    91492202.799                                  
G13  22312356.723   117252233.516    22312355.692   117252235.782    22312355.356    91365378.621                                  
G04  21412647.991   112524225.763    21412647.011   112524226.038    21412646.885    87681215.334                                  
G32  25048349.368   131629994.911    25048354.179   131629994.127    25048355.579   102568826.364                                  
G17  20047793.139   105351868.509    20047792.470   105351868.781    20047791.538    82092366.497    20047792.014    82092366.258  
G28  23553907.126   123776621.830    23553905.055   123776621.087    23553906.578    96449315.620                                  
G23  21928955.926   115237450.528    21928955.734   115237451.800    21928952.844    89795416.565                                  
G24  24658605.205   129581831.493    24658603.970   129581836.728    24658606.953   100972859.243                                  
G12  24888703.837   130791016.433    24888701.882   130791015.668    24888703.036   101915078.551    24888703.372   101915078.320  
G20  22116578.226   116223410.782    22116577.159   116223409.053    22116577.708    90563696.417                                  
R20  19284674.216   103123818.690    19284674.195   103123817.996    19284681.570    80207415.365    19284681.414    80207414.608  
R06  20696017.708   110437912.830    20696017.082   110437912.121    20696021.785    85896152.525    20696022.541    85896153.749  
S29  40073798.755   210589229.676  
S37  40101868.734   210736754.036  
J01  38773518.925   203756219.769    38773518.704   203756220.523    38773516.656   203756209.845    38773518.446   158771081.304    38773522.478   152155619.750  
> 2011 01 15 02 27 08.0000000  0 20                     
G11  24451962.566   128495931.914    24451961.076   128495932.173    24451959.936   100126700.633                                  
G02  24366291.196   128045734.714    24366290.446   128045735.998    24366289.969    99775899.013                                  
R05  19219736.978   102740511.892    19219737.152   102740511.198    19219743.094    79909287.213    19219744.074    79909287.453  
R21  22147379.611   118515102.199    22147380.211   118515109.498    22147386.165    92178417.105    22147386.863    92178419.350  
R19  20995647.253   112312555.470    20995646.923   112312555.777    20995652.059    87354209.119    20995652.289    87354210.358  
G10  22342800.212   117412210.206    22342799.001   117412213.486    22342800.092    91490037.100                                  
G13  22311873.538   117249692.016    22311872.411   117249694.288    22311872.138    91363398.232                                  
G04  21412363.036   112522728.653    21412362.109   112522728.928    21412362.172    87680048.756                                  
G32  25049042.536   131633627.709    25049045.222   131633626.928    25049046.784   102571657.102                                  
G17  20047878.837   105352317.774    20047878.130   105352318.049    20047876.934    82092716.573    20047877.311    82092716.333  
G28  23554560.293   123780057.222    23554559.340   123780056.487    23554559.915    96451992.548                                  
G23  21928854.317   115236915.811    21928853.394   115236917.092    21928850.618    89794999.902                                  
G24  24659128.172   129584583.494    24659127.737   129584588.719    24659130.720   100975003.700                                  
G12  24888411.146   130789479.325    24888410.055   130789478.568    24888410.835   101913880.815    24888411.611   101913880.570  
G20  22117162.738   116226484.068    22117162.132   116226482.344    22117162.126    90566091.184                                  
R20  19284544.232   103123127.939    19284545.056   103123127.246    19284552.779    80206878.116    19284552.383    80206877.357  
R06  20695531.490   110435316.493    20695530.470   110435315.780    20695534.464    85894133.151    20695535.714    85894134.375  
S29  40073844.648   210589473.994  
S37  40101914.842   210736997.573  
J01  38773551.327   203756391.678    38773551.456   203756392.430    38773549.055   203756381.747    38773551.171   158771215.263    38773555.275   152155748.126  
> 2011 01 15 02 27 09.0000000  0 20                     
G11  24452549.667   128499015.444    24452548.015   128499015.700    24452546.606   100129103.351                                  
G02  24365839.070   128043359.276    24365838.305   128043360.554    24365837.514    99774048.027                                  
R05  19219963.117   102741718.696    19219963.027   102741718.003    19219969.470    79910225.840    19219969.770    79910226.080  
R21  22146728.252   118511609.003    22146727.491   118511616.300    22146732.752    92175700.176    22146733.555    92175702.416  
R19  20996207.283   112315548.262    20996206.303   112315548.568    20996210.896    87356536.842    20996211.399    87356538.084  
G10  22342272.026   117409430.950    22342271.151   117409434.219    22342270.833    91487871.438                                  
G13  22311389.652   117247150.615    22311388.843   117247152.881    22311388.378    91361417.923                                  
G04  21412078.556   112521231.476    21412077.132   112521231.751    21412077.243    87678882.126                                  
G32  25049732.898   131637260.219    25049736.681   131637259.441    25049738.348   102574487.630                                  
G17  20047964.398   105352767.374    20047963.700   105352767.648    20047962.470    82093066.911    20047963.145    82093066.671  
G28  23555214.563   123783492.457    23555212.992   123783491.725    23555214.093    96454669.365                                  
G23  21928752.585   115236381.427    21928751.815   115236382.695    21928749.327    89794583.494                                  
G24  24659650.569   129587335.248    24659650.950   129587340.498    24659654.086   100977147.899                                  
G12  24888118.369   130787942.409    24888117.536   130787941.641    24888118.351   101912683.219    24888118.513   101912682.963  
G20  22117747.972   116229557.321    22117747.378   116229555.593    22117746.740    90568485.915                                  
R20  19284415.609   103122437.554    19284415.921   103122436.860    19284422.741    80206341.150    19284423.164    80206340.391  
R06  20695044.989   110432720.436    20695043.964   110432719.724    20695048.953    85892113.996    20695049.193    85892115.221  
S29  40073891.068   210589718.174  
S37  40101960.767   210737241.081  
J01  38773584.058   203756563.237    38773584.052   203756563.989    38773581.264   203756553.309    38773583.860   158771348.942    38773587.917   152155876.237  
> 2011 01 15 02 27 10.0000000  0 20                     
G11  24453135.860   128502098.990    24453134.931   128502099.263    24453134.125   100131506.125                                  
G02  24365387.492   128040983.752    24365386.980   128040985.031    24365385.172    99772196.970                                  
R05  19220188.843   102742926.123    19220188.960   102742925.429    19220194.971    79911164.947    19220195.346    79911165.188  
R21  22146074.396   118508115.855    22146074.699   118508123.153    22146080.622    92172983.284    22146080.529    92172985.530  
R19  20996766.723   112318541.503    20996766.150   112318541.812    20996771.253    87358864.922    20996771.334    87358866.161  
G10  22341742.805   117406651.962    22341742.323   117406655.235    22341742.604    91485705.989                                  
G13  22310905.685   117244609.490    22310904.999   117244611.766    22310904.540    91359437.829                                  
G04  21411793.040   112519734.406    21411792.378   112519734.683    21411792.572    87677715.575                                  
G32  25050424.246   131640892.671    25050427.271   131640891.934    25050429.409   102577318.147                                  
G17  20048049.890   105353217.482    20048049.419   105353217.756    20048048.187    82093417.644    20048048.742    82093417.406  
G28  23555867.943   123786927.687    23555866.816   123786926.955    23555868.021    96457346.164                                  
G23  21928650.995   115235847.568    21928650.248   115235848.846    21928647.949    89794167.502                                  
G24  24660174.358   129590086.974    24660173.971   129590092.217    24660177.703   100979292.094                                  
G12  24887826.072   130786405.962    24887825.151   130786405.188    24887825.487   101911485.969    24887824.510   101911485.731  
G20  22118333.322   116232630.712    22118332.021   116232628.982    22118332.132    90570880.769                                  
R20  19284286.593   103121747.720    19284286.704   103121747.025    19284294.043    80205804.611    19284293.977    80205803.852  
R06  20694558.234   110430124.867    20694557.551   110430124.154    20694562.294    85890095.221    20694562.408    85890096.448  
S29  40073938.474   210589962.101  
S37  40102007.991   210737484.646  
J01  38773616.892   203756734.638    38773616.463   203756735.392    38773614.628   203756724.710    38773616.352   158771482.502    38773620.468   152156004.232  
> 2011 01 15 02 27 11.0000000  0 20                     
G11  24453723.343   128505182.596    24453721.607   128505182.852    24453721.154   100133908.906                                  
G02  24364935.381   128038608.213    24364934.746   128038609.471    24364933.202    99770345.899                                  
R05  19220415.588   102744134.255    19220414.683   102744133.560    19220421.143    79912104.609    19220421.668    79912104.847  
R21  22145422.173   118504622.825    22145421.945   118504630.122    22145428.091    92170266.482    22145428.430    92170268.732  
R19  20997325.788   112321535.272    20997325.731   112321535.584    20997330.719    87361193.412    20997330.896    87361194.647  
G10  22341213.965   117403873.302    22341213.435   117403876.581    22341213.081    91483540.809                                  
G13  22310423.199   117242068.714    22310421.832   117242070.977    22310421.191    91357457.993                                  
G04  21411507.985   112518237.517    21411507.611   112518237.795    21411507.746    87676549.174                                  
G32  25051115.049   131644525.055    25051118.844   131644524.283    25051120.790   102580148.552                                  
G17  20048135.882   105353668.171    20048135.211   105353668.443    20048133.853    82093768.829    20048134.341    82093768.589  
G28  23556521.425   123790363.007    23556520.699   123790362.266    23556520.579    96460023.030                                  
G23  21928549.602   115235314.289    21928548.658   115235315.566    21928546.160    89793751.969                                  
G24  24660697.600   129592838.704    24660697.792   129592843.938    24660701.441   100981436.300                                  
G12  24887533.441   130784870.010    24887533.228   130784869.240    24887533.576   101910289.148    24887533.369   101910288.894  
G20  22118918.113   116235704.332    22118916.722   116235702.598    22118916.482    90573275.797                                  
R20  19284158.081   103121058.501    19284157.874   103121057.802    19284166.143    80205268.550    19284165.444    80205267.790  
R06  20694071.506   110427529.851    20694071.336   110427529.140    20694076.669    85888076.873    20694076.336    85888078.101  
S29  40073984.639   210590206.093  
S37  40102052.834   210737727.930  
J01  38773648.957   203756905.939    38773648.858   203756906.694    38773647.273   203756896.011    38773648.592   158771615.985    38773653.136   152156132.152  
> 2011 01 15 02 27 12.0000000  0 20                     
G11  24454309.824   128508266.537    24454308.825   128508266.789    24454307.785   100136312.000                                  
G02  24364484.122   128036232.899    24364483.054   128036234.172    24364481.813    99768495.006                                  
R05  19220641.467   102745343.340    19220641.071   102745342.643    19220647.325    79913045.007    19220647.568    79913045.244  
R21  22144769.636   118501130.165    22144769.426   118501137.465    22144775.404    92167549.974    22144775.059    92167552.222  
R19  20997885.273   112324529.814    20997885.623   112324530.127    20997890.477    87363522.498    20997890.465    87363523.738  
G10  22340685.422   117401095.242    22340684.544   117401098.518    22340685.350    91481376.081                                  
G13  22309939.529   117239528.530    22309938.948   117239530.805    22309937.725    91355478.629                                  
G04  21411223.410   112516741.087    21411222.847   112516741.363    21411223.006    87675383.124                                  
G32  25051808.094   131648157.696    25051810.798   131648156.921    25051812.396   102582979.182                                  
G17  20048221.476   105354119.701    20048221.089   105354119.978    20048219.884    82094120.671    20048220.775    82094120.433  
G28  23557175.536   123793798.608    23557174.403   123793797.868    23557174.424    96462700.121                                  
G23  21928448.059   115234781.842    21928447.409   115234783.119    21928445.022    89793337.069                                  
G24  24661221.227   129595590.698    24661221.230   129595595.943    24661225.088   100983580.711                                  
G12  24887240.742   130783334.806    24887240.805   130783334.038    24887241.236   101909092.882    24887240.883   101909092.629  
G20  22119503.158   116238778.399    22119501.707   116238776.665    22119502.117    90575671.171                                  
R20  19284029.041   103120370.147    19284029.284   103120369.449    19284036.782    80204733.164    19284036.410    80204732.404  
R06  20693585.288   110424935.647    20693585.120   110424934.936    20693590.903    85886059.163    20693589.983    85886060.388  
S29  40074032.084   210590450.150  
S37  40102101.133   210737971.082  
J01  38773681.515   203757077.401    38773681.470   203757078.154    38773680.612   203757067.475    38773681.347   158771749.591    38773685.739   152156260.193  
> 2011 01 15 02 27 13.0000000  0 20                     
G11  24454897.099   128511350.600    24454895.258   128511350.858    24454894.593   100138715.191                                  
G02  24364031.549   128033857.555    24364029.990   128033858.829    24364029.708    99766644.089                                  
R05  19220867.837   102746553.124    19220867.378   102746552.432    19220874.465    79913985.954    19220873.935    79913986.189  
R21  22144116.994   118497637.634    22144116.667   118497644.932    22144122.063    92164833.562    22144123.032    92164835.810  
R19  20998445.881   112327524.888    20998445.429   112327525.203    20998450.750    87365852.001    20998450.903    87365853.240  
G10  22340156.451   117398317.505    22340156.019   117398320.778    22340156.175    91479211.610                                  
G13  22309456.087   117236988.691    22309454.798   117236990.965    22309454.672    91353499.545                                  
G04  21410938.764   112515244.853    21410938.164   112515245.127    21410938.125    87674217.225                                  
G32  25052500.123   131651790.301    25052501.856   131651789.527    25052503.265   102585809.751                                  
G17  20048307.412   105354571.801    20048306.917   105354572.075    20048305.835    82094472.956    20048306.440    82094472.718  
G28  23557828.918   123797234.296    23557827.812   123797233.567    23557829.203    96465377.279                                  
G23  21928346.897   115234249.979    21928346.049   115234251.251    21928343.312    89792922.632                                  
G24  24661745.411   129598342.702    24661745.291   129598347.933    24661748.945   100985725.116                                  
G12  24886948.372   130781800.117    24886949.496   130781799.350    24886949.305   101907897.003    24886948.711   101907896.774  
G20  22120087.987   116241852.670    22120086.836   116241850.943    22120087.306    90578066.708                                  
R20  19283900.203   103119682.418    19283900.458   103119681.722    19283908.543    80204198.264    19283907.814    80204197.504  
R06  20693098.995   110422342.011    20693098.935   110422341.301    20693103.782    85884041.894    20693104.208    85884043.116  
S29  40074078.027   210590694.349  
S37  40102148.093   210738214.478  
J01  38773714.276   203757248.766    38773714.195   203757249.518    38773713.119   203757238.843    38773714.003   158771883.122    38773718.317   152156388.161  
> 2011 01 15 02 27 14.0000000  0 20                     
G11  24455482.816   128514434.546    24455482.914   128514434.794    24455480.624   100141118.240                                  
G02  24363579.513   128031482.064    24363578.140   128031483.326    24363577.588    99764793.050                                  
R05  19221094.234   102747763.489    19221093.653   102747762.795    19221100.617    79914927.348    19221100.605    79914927.587  
R21  22143464.109   118494145.094    22143464.259   118494152.395    22143469.937    92162117.144    22143469.964    92162119.393  
R19  20999006.098   112330520.353    20999005.405   112330520.669    20999011.383    87368181.806    20999010.786    87368183.043  
G10  22339628.438   117395539.981    22339627.296   117395543.247    22339628.117    91477047.302                                  
G13  22308972.621   117234449.063    22308972.252   117234451.330    22308971.583    91351520.618                                  
G04  21410654.545   112513748.696    21410653.640   112513748.971    21410653.544    87673051.392                                  
G32  25053192.602   131655422.792    25053193.012   131655422.026    25053194.328   102588640.265                                  
G17  20048393.752   105355024.370    20048393.116   105355024.644    20048391.971    82094825.604    20048392.499    82094825.368  
G28  23558482.481   123800669.934    23558481.695   123800669.212    23558482.598    96468054.390                                  
G23  21928245.774   115233718.587    21928245.358   115233719.858    21928242.872    89792508.559                                  
G24  24662268.915   129601094.607    24662269.184   129601099.813    24662272.422   100987869.480                                  
G12  24886657.025   130780265.788    24886657.675   130780265.030    24886657.517   101906701.436    24886656.842   101906701.204  
G20  22120673.203   116244927.045    22120671.743   116244925.307    22120671.991    90580462.319                                  
R20  19283772.146   103118995.182    19283772.026   103118994.485    19283779.905    80203663.745    19283779.413    80203662.987  
R06  20692613.142   110419748.820    20692613.031   110419748.113    20692618.397    85882024.970    20692618.349    85882026.196  
S29  40074125.349   210590938.355  
S37  40102194.171   210738458.158  
J01  38773746.900   203757419.911    38773746.921   203757420.670    38773745.571   203757409.993    38773746.681   158772016.482    38773750.836   152156515.964  
> 2011 01 15 02 27 15.0000000  0 20                     
G11  24456070.834   128517518.737    24456069.863   128517519.011    24456067.723   100143521.529                                  
G02  24363126.814   128029106.683    24363126.562   128029107.951    24363125.429    99762942.117                                  
R05  19221320.584   102748974.697    19221320.419   102748974.005    19221326.999    79915869.402    19221326.930    79915869.637  
R21  22142811.533   118490652.797    22142811.323   118490660.095    22142817.043    92159400.913    22142817.438    92159403.159  
R19  20999565.921   112333516.463    20999565.483   112333516.779    20999570.460    87370512.111    20999570.892    87370513.349  
G10  22339099.829   117392762.930    22339098.879   117392766.209    22339099.805    91474883.373                                  
G13  22308489.832   117231909.935    22308489.313   117231912.213    22308488.054    91349542.064                                  
G04  21410369.308   112512252.840    21410369.221   112512253.116    21410368.633    87671885.793                                  
G32  25053882.163   131659055.334    25053884.157   131659054.572    25053885.836   102591470.835                                  
G17  20048479.831   105355477.658    20048479.633   105355477.930    20048478.212    82095178.815    20048478.566    82095178.579  
G28  23559136.523   123804105.777    23559135.483   123804105.023    23559136.784    96470731.666                                  
G23  21928145.407   115233187.901    21928144.112   115233189.179    21928142.169    89792095.044                                  
G24  24662793.581   129603846.660    24662793.168   129603851.877    24662796.567   100990013.941                                  
G12  24886364.913   130778732.089    24886366.052   130778731.336    24886365.435   101905506.355    24886364.577   101905506.114  
G20  22121258.134   116248001.756    22121256.934   116248000.023    22121256.997    90582858.208                                  
R20  19283643.532   103118308.704    19283643.535   103118308.011    19283650.506    80203129.821    19283650.976    80203129.062  
R06  20692127.553   110417156.330    20692127.322   110417155.623    20692131.882    85880008.593    20692132.359    85880009.814  
S29  40074171.257   210591182.348  
S37  40102240.591   210738702.013  
J01  38773779.445   203757591.099    38773779.415   203757591.857    38773778.021   203757581.179    38773779.418   158772149.875    38773783.534   152156643.798  
> 2011 01 15 02 27 16.0000000  0 20                     
G11  24456657.618   128520603.232    24456657.330   128520603.474    24456654.294   100145925.040                                  
G02  24362674.991   128026731.472    24362674.122   128026732.747    24362672.803    99761091.291                                  
R05  19221547.640   102750186.779    19221546.945   102750186.086    19221553.921    79916812.133    19221553.813    79916812.369  
R21  22142159.340   118487160.817    22142158.716   118487168.113    22142165.027    92156684.928    22142164.964    92156687.174  
R19  21000126.116   112336513.271    21000125.646   112336513.586    21000130.595    87372842.965    21000131.081    87372844.200  
G10  22338571.328   117389986.400    22338570.788   117389989.666    22338571.694    91472719.835                                  
G13  22308006.414   117229371.342    22308005.787   117229373.611    22308005.583    91347563.952                                  
G04  21410084.895   112510757.362    21410084.103   112510757.639    21410084.013    87670720.489                                  
G32  25054575.331   131662688.043    25054575.229   131662687.256    25054577.154   102594301.520                                  
G17  20048566.312   105355931.705    20048565.965   105355931.979    20048564.702    82095532.619    20048565.182    82095532.384  
G28  23559790.619   123807541.876    23559788.902   123807541.154    23559790.278    96473409.151                                  
G23  21928043.879   115232658.001    21928043.289   115232659.272    21928041.010    89791682.132                                  
G24  24663318.710   129606598.924    24663316.680   129606604.136    24663320.242   100992158.547                                  
G12  24886073.338   130777199.089    24886073.944   130777198.341    24886072.945   101904311.822    24886074.096   101904311.572  
G20  22121843.116   116251076.844    22121842.528   116251075.115    22121842.156    90585254.373                                  
R20  19283515.299   103117623.047    19283515.410   103117622.354    19283523.477    80202596.533    19283522.803    80202595.776  
R06  20691641.737   110414564.583    20691641.599   110414563.877    20691646.048    85877992.791    20691646.767    85877994.014  
S29  40074216.372   210591426.509  
S37  40102288.377   210738945.960  
J01  38773812.236   203757762.378    38773812.086   203757763.134    38773809.643   203757752.456    38773812.077   158772283.340    38773816.080   152156771.703  
> 2011 01 15 02 27 17.0000000  0 20                     
G11  24457244.747   128523687.570    24457243.647   128523687.834    24457240.820   100148328.387                                  
G02  24362222.670   128024356.085    24362221.819   128024357.361    24362221.027    99759240.344                                  
R05  19221774.179   102751399.396    19221774.011   102751398.704    19221780.981    79917755.279    19221780.615    79917755.515  
R21  22141506.617   118483668.789    22141506.356   118483676.083    22141512.526    92153968.911    22141512.412    92153971.157  
R19  21000686.605   112339510.427    21000685.931   112339510.743    21000691.468    87375174.082    21000691.228    87375175.322  
G10  22338043.501   117387210.042    22338042.782   117387213.318    22338043.061    91470556.443                                  
G13  22307523.361   117226832.918    22307522.291   117226835.184    22307522.252    91345585.953                                  
G04  21409800.125   112509261.921    21409799.852   112509262.195    21409799.567    87669555.206                                  
G32  25055266.470   131666320.579    25055266.812   131666319.819    25055268.185   102597132.049                                  
G17  20048652.838   105356386.198    20048652.404   105356386.470    20048651.271    82095886.769    20048651.378    82095886.532  
G28  23560444.467   123810977.906    23560443.738   123810977.181    23560443.888    96476086.560                                  
G23  21927943.176   115232128.520    21927942.564   115232129.788    21927940.019    89791269.547                                  
G24  24663841.647   129609351.042    24663840.618   129609356.257    24663843.592   100994303.051                                  
G12  24885781.664   130775666.446    24885781.229   130775665.689    24885780.743   101903117.554    24885781.940   101903117.300  
G20  22122428.383   116254152.030    22122427.780   116254150.302    22122427.231    90587650.627                                  
R20  19283386.301   103116937.859    19283387.222   103116937.168    19283394.873    80202063.609    19283394.705    80202062.851  
R06  20691156.585   110411973.237    20691155.989   110411972.530    20691160.093    85875977.302    20691161.181    85875978.522  
S29  40074262.109   210591670.483  
S37  40102333.184   210739189.504  
J01  38773844.482   203757933.412    38773844.332   203757934.169    38773842.389   203757923.488    38773844.260   158772416.611    38773848.682   152156899.423  
> 2011 01 15 02 27 18.0000000  0 20                     
G11  24457831.489   128526772.079    24457830.598   128526772.344    24457828.281   100150731.909                                  
G02  24361770.646   128021980.717    24361770.358   128021981.993    24361768.697    99757389.409                                  
R05  19222000.900   102752612.754    19222000.951   102752612.061    19222008.032    79918699.003    19222007.774    79918699.240  
R21  22140853.888   118480176.915    22140853.519   118480184.212    22140859.986    92151253.013    22140859.932    92151255.254  
R19  21001246.785   112342508.130    21001246.435   112342508.447    21001250.964    87377505.629    21001251.273    87377506.869  
G10  22337515.117   117384434.061    22337513.501   117384437.332    22337514.631    91468393.345                                  
G13  22307039.994   117224294.910    22307039.766   117224297.184    22307039.094    91343608.295                                  
G04  21409515.322   112507766.699    21409515.367   112507766.980    21409515.361    87668390.103                                  
G32  25055956.026   131669953.145    25055958.508   131669952.407    25055958.736   102599962.599                                  
G17  20048739.568   105356841.290    20048739.176   105356841.567    20048737.818    82096241.387    20048738.057    82096241.150  
G28  23561098.365   123814414.014    23561097.717   123814413.272    23561098.011    96478764.053                                  
G23  21927842.401   115231599.660    21927841.813   115231600.925    21927839.963    89790857.441                                  
G24  24664366.508   129612103.236    24664363.816   129612108.483    24664367.243   100996447.606                                  
G12  24885489.516   130774134.343    24885489.441   130774133.583    24885489.225   101901923.696    24885489.513   101901923.449  
G20  22123013.745   116257227.445    22123012.759   116257225.720    22123011.722    90590047.050                                  
R20  19283259.426   103116253.336    19283259.363   103116252.644    19283266.879    80201531.205    19283266.477    80201530.446  
R06  20690671.050   110409382.477    20690670.532   110409381.768    20690674.357    85873962.268    20690675.697    85873963.487  
S29  40074308.337   210591914.711  
S37  40102379.224   210739433.087  
J01  38773877.813   203758104.388    38773876.776   203758105.140    38773875.804   203758094.458    38773877.165   158772549.840    38773881.144   152157027.099  
> 2011 01 15 02 27 19.0000000  0 20                     
G11  24458418.359   128529856.822    24458417.244   128529857.071    24458415.481   100153135.588                                  
G02  24361318.898   128019605.485    24361318.397   128019606.752    24361316.329    99755538.575                                  
R05  19222228.436   102753827.010    19222227.965   102753826.319    19222234.594    79919643.427    19222234.696    79919643.665  
R21  22140200.994   118476685.345    22140201.090   118476692.640    22140206.984    92148537.350    22140207.442    92148539.593  
R19  21001806.966   112345506.527    21001806.642   112345506.842    21001811.184    87379837.715    21001812.197    87379838.954  
G10  22336986.613   117381658.593    22336986.091   117381661.862    22336986.667    91466230.641                                  
G13  22306557.082   117221757.407    22306557.238   117221759.677    22306556.015    91341631.022                                  
G04  21409230.870   112506271.857    21409230.777   112506272.132    21409230.936    87667225.292                                  
G32  25056647.869   131673585.843    25056649.946   131673585.071    25056649.485   102602793.285                                  
G17  20048826.115   105357297.153    20048825.777   105357297.428    20048824.470    82096596.604    20048824.545    82096596.368  
G28  23561752.512   123817850.399    23561750.941   123817849.675    23561751.865    96481441.757                                  
G23  21927742.234   115231071.567    21927740.549   115231072.837    21927738.717    89790445.945                                  
G24  24664889.349   129614855.614    24664888.246   129614860.847    24664890.875   100998592.287                                  
G12  24885198.735   130772602.908    24885198.337   130772602.147    24885198.526   101900730.391    24885198.274   101900730.132  
G20  22123599.255   116260303.253    22123597.993   116260301.518    22123597.018    90592443.784                                  
R20  19283131.706   103115569.627    19283131.721   103115568.933    19283138.907    80200999.429    19283138.895    80200998.669  
R06  20690185.210   110406792.454    20690185.186   110406791.746    20690190.162    85871947.808    20690190.010    85871949.026  
S29  40074355.623   210592159.148  
S37  40102425.476   210739676.553  
J01  38773909.975   203758275.449    38773909.942   203758276.203    38773907.834   203758265.519    38773909.813   158772683.135    38773913.683   152157154.839  
> 2011 01 15 02 27 20.0000000  0 20                     
G11  24459005.131   128532941.557    24459004.469   128532941.810    24459002.196   100155539.299                                  
G02  24360867.192   128017230.165    24360866.172   128017231.429    24360865.732    99753687.687                                  
R05  19222455.181   102755041.907    19222455.211   102755041.216    19222461.414    79920588.347    19222462.223    79920588.587  
R21  22139549.104   118473193.797    22139548.451   118473201.096    22139553.409    92145821.708    22139554.722    92145823.946  
R19  21002367.757   112348505.375    21002367.401   112348505.687    21002372.389    87382170.147    21002372.905    87382171.387  
G10  22336458.550   117378883.386    22336457.578   117378886.653    22336458.490    91464068.145                                  
G13  22306074.779   117219220.185    22306074.734   117219222.453    22306073.571    91339653.962                                  
G04  21408947.140   112504777.126    21408946.604   112504777.401    21408946.625    87666060.559                                  
G32  25057339.190   131677218.445    25057340.785   131677217.676    25057340.770   102605623.877                                  
G17  20048913.187   105357753.510    20048912.585   105357753.784    20048911.421    82096952.206    20048911.637    82096951.968  
G28  23562406.123   123821286.774    23562404.582   123821286.023    23562405.988    96484119.437                                  
G23  21927642.376   115230543.985    21927640.391   115230545.253    21927638.233    89790034.842                                  
G24  24665413.767   129617607.896    24665412.754   129617613.096    24665414.880   101000736.954                                  
G12  24884907.169   130771071.907    24884907.055   130771071.148    24884906.726   101899537.388    24884907.085   101899537.146  
G20  22124184.543   116263379.201    22124183.443   116263377.470    22124182.732    90594840.623                                  
R20  19283003.428   103114886.460    19283003.475   103114885.768    19283011.270    80200468.078    19283011.021    80200467.317  
R06  20689699.780   110404202.888    20689699.924   110404202.183    20689704.981    85869933.702    20689705.059    85869934.922  
S29  40074403.053   210592403.664  
S37  40102471.488   210739919.947  
J01  38773942.172   203758446.334    38773941.984   203758447.089    38773939.996   203758436.412    38773941.972   158772816.292    38773946.196   152157282.449  
> 2011 01 15 02 27 21.0000000  0 20                     
G11  24459591.741   128536026.368    24459591.699   128536026.626    24459589.792   100157943.071                                  
G02  24360414.496   128014854.790    24360414.235   128014856.070    24360413.192    99751836.744                                  
R05  19222682.721   102756257.483    19222682.595   102756256.792    19222689.580    79921533.795    19222689.574    79921534.032  
R21  22138895.823   118469702.336    22138896.285   118469709.636    22138902.865    92143106.131    22138902.299    92143108.371  
R19  21002928.624   112351504.712    21002928.114   112351505.027    21002933.457    87384502.965    21002933.613    87384504.205  
G10  22335930.582   117376108.472    22335929.257   117376111.745    22335930.813    91461905.877                                  
G13  22305591.076   117216683.261    22305591.603   117216685.539    22305591.109    91337677.137                                  
G04  21408662.304   112503282.536    21408661.990   112503282.808    21408662.197    87664895.948                                  
G32  25058031.546   131680850.966    25058031.633   131680850.184    25058032.532   102608454.450                                  
G17  20049000.211   105358210.433    20048999.725   105358210.704    20048998.301    82097308.248    20048998.556    82097308.011  
G28  23563060.282   123824723.183    23563058.900   123824722.444    23563060.150    96486797.165                                  
G23  21927541.685   115230016.955    21927540.438   115230018.229    21927538.132    89789624.177                                  
G24  24665936.863   129620360.206    24665935.892   129620365.438    24665938.692   101002881.607                                  
G12  24884616.098   130769541.359    24884615.531   130769540.609    24884614.869   101898344.762    24884615.255   101898344.513  
G20  22124769.932   116266455.311    22124768.490   116266453.582    22124768.092    90597237.597                                  
R20  19282875.764   103114203.898    19282875.878   103114203.204    19282883.636    80199937.195    19282883.412    80199936.439  
R06  20689214.932   110401613.854    20689214.692   110401613.150    20689218.898    85867920.010    20689219.845    85867921.232  
S29  40074450.618   210592647.842  
S37  40102518.018   210740163.633  
J01  38773974.796   203758617.105    38773974.874   203758617.857    38773972.155   203758607.176    38773974.307   158772949.363    38773978.702   152157409.973  
> 2011 01 15 02 27 22.0000000  0 20                     
G11  24460179.160   128539111.216    24460178.633   128539111.474    24460176.996   100160346.841                                  
G02  24359961.513   128012479.375    24359961.372   128012480.638    24359959.978    99749985.780                                  
R05  19222910.455   102757473.756    19222910.038   102757473.067    19222917.698    79922479.786    19222916.862    79922480.023  
R21  22138243.898   118466210.971    22138243.775   118466218.269    22138250.103    92140390.624    22138249.711    92140392.863  
R19  21003488.951   112354504.562    21003488.876   112354504.874    21003493.136    87386836.177    21003494.060    87386837.422  
G10  22335402.815   117373333.891    22335401.158   117373337.162    22335402.036    91459743.866                                  
G13  22305108.847   117214146.692    22305109.249   117214148.960    22305108.026    91335700.588                                  
G04  21408378.302   112501788.097    21408377.700   112501788.372    21408377.526    87663731.457                                  
G32  25058721.455   131684483.467    25058723.128   131684482.727    25058723.988   102611284.957                                  
G17  20049087.094   105358667.910    20049086.629   105358668.182    20049085.364    82097664.723    20049085.460    82097664.489  
G28  23563714.600   123828159.649    23563712.636   123828158.916    23563713.841    96489474.918                                  
G23  21927441.053   115229490.481    21927440.046   115229491.752    21927437.873    89789213.933                                  
G24  24666460.199   129623112.505    24666459.389   129623117.709    24666462.354   101005026.251                                  
G12  24884324.810   130768011.307    24884324.649   130768010.558    24884324.403   101897152.500    24884325.071   101897152.266  
G20  22125354.570   116269531.626    22125354.264   116269529.905    22125353.152    90599634.720                                  
R20  19282747.576   103113521.942    19282748.316   103113521.246    19282756.324    80199406.785    19282755.784    80199406.026  
R06  20688729.559   110399025.346    20688729.532   110399024.645    20688735.045    85865906.732    20688734.778    85865907.953  
S29  40074496.639   210592892.205  
S37  40102564.738   210740407.539  
J01  38774007.293   203758787.765    38774007.803   203758788.518    38774005.228   203758777.838    38774007.092   158773082.341    38774011.170   152157537.413  
> 2011 01 15 02 27 23.0000000  0 20                     
G11  24460765.806   128542196.269    24460765.273   128542196.524    24460764.181   100162750.785                                  
G02  24359510.661   128010104.043    24359508.829   128010105.310    24359508.955    99748134.871                                  
R05  19223138.069   102758690.811    19223137.839   102758690.120    19223144.875    79923426.384    19223144.542    79923426.622  
R21  22137591.786   118462719.826    22137591.264   118462727.122    22137596.634    92137675.288    22137597.254    92137677.528  
R19  21004050.115   112357505.032    21004049.764   112357505.342    21004054.968    87389169.878    21004054.794    87389171.119  
G10  22334874.884   117370559.732    22334873.565   117370563.006    22334874.191    91457582.184                                  
G13  22304626.412   117211610.559    22304626.601   117211612.826    22304626.170    91333724.381                                  
G04  21408093.955   112500293.943    21408093.490   112500294.220    21408093.190    87662567.179                                  
G32  25059411.736   131688116.016    25059414.482   131688115.256    25059415.259   102614115.501                                  
G17  20049174.342   105359126.076    20049173.764   105359126.350    20049172.637    82098021.738    20049172.754    82098021.500  
G28  23564367.395   123831596.268    23564367.740   123831595.536    23564367.578    96492152.806                                  
G23  21927341.211   115228964.692    21927340.002   115228965.965    21927337.487    89788804.231                                  
G24  24666983.619   129625864.909    24666983.511   129625870.124    24666985.492   101007170.989                                  
G12  24884034.111   130766481.861    24884033.661   130766481.109    24884033.433   101895960.718    24884033.898   101895960.482  
G20  22125940.640   116272608.235    22125939.531   116272606.513    22125938.850    90602032.084                                  
R20  19282621.009   103112840.717    19282621.087   103112840.021    19282627.824    80198876.942    19282628.555    80198876.183  
R06  20688245.301   110396437.484    20688244.503   110396436.780    20688249.402    85863893.947    20688249.756    85863895.168  
S29  40074545.173   210593136.386  
S37  40102609.140   210740651.373  
J01  38774039.839   203758958.418    38774039.938   203758959.173    38774037.950   203758948.491    38774039.431   158773215.320    38774043.733   152157664.849  
> 2011 01 15 02 27 24.0000000  0 20                     
G11  24461352.887   128545281.448    24461352.269   128545281.706    24461351.211   100165154.790                                  
G02  24359058.157   128007728.769    24359057.722   128007730.030    24359056.376    99746284.000                                  
R05  19223366.086   102759908.662    19223365.567   102759907.974    19223373.032    79924373.602    19223372.648    79924373.841  
R21  22136937.585   118459228.894    22136938.754   118459236.192    22136944.363    92134960.121    22136944.987    92134962.364  
R19  21004611.527   112360506.110    21004610.840   112360506.423    21004615.547    87391504.045    21004615.952    87391505.288  
G10  22334346.362   117367786.009    22334345.828   117367789.282    22334346.751    91455420.841                                  
G13  22304144.130   117209074.870    22304143.468   117209077.138    22304142.230    91331748.518                                  
G04  21407809.632   112498800.069    21407809.017   112498800.341    21407808.975    87661403.120                                  
G32  25060103.321   131691748.673    25060105.288   131691747.898    25060106.541   102616946.140                                  
G17  20049261.846   105359584.914    20049261.045   105359585.188    20049260.011    82098379.272    20049260.113    82098379.035  
G28  23565021.785   123835033.083    23565020.906   123835032.352    23565021.431    96494830.840                                  
G23  21927241.284   115228439.589    21927240.531   115228440.863    21927237.521    89788395.062                                  
G24  24667507.875   129628617.424    24667507.416   129628622.654    24667509.772   101009315.787                                  
G12  24883743.612   130764953.017    24883742.422   130764952.267    24883742.260   101894769.413    24883743.750   101894769.177  
G20  22126525.898   116275685.167    22126525.346   116275683.440    22126524.393    90604429.688                                  
R20  19282493.702   103112160.218    19282493.720   103112159.524    19282501.173    80198347.666    19282501.245    80198346.905  
R06  20687760.407   110393850.283    20687759.664   110393849.577    20687764.473    85861881.679    20687764.946    85861882.901  
S29  40074592.396   210593380.401  
S37  40102655.932   210740895.490  
J01  38774072.186   203759129.079    38774072.300   203759129.830    38774069.827   203759119.151    38774071.731   158773348.303    38774076.147   152157792.293  
> 2011 01 15 02 27 25.0000000  0 20                     
G11  24461939.419   128548366.804    24461939.410   128548367.059    24461938.426   100167558.948                                  
G02  24358606.028   128005353.582    24358605.245   128005354.841    24358604.760    99744433.209                                  
R05  19223594.566   102761127.306    19223593.697   102761126.614    19223599.741    79925321.436    19223600.592    79925321.674  
R21  22136286.697   118455738.178    22136286.676   118455745.472    22136292.366    92132245.115    22136292.384    92132247.357  
R19  21005172.214   112363507.796    21005171.986   112363508.105    21005176.435    87393838.690    21005177.136    87393839.932  
G10  22333818.886   117365012.710    22333817.744   117365015.986    22333818.787    91453259.827                                  
G13  22303661.566   117206539.620    22303661.467   117206541.881    22303660.106    91329772.995                                  
G04  21407525.602   112497306.478    21407525.066   112497306.751    21407524.298    87660239.281                                  
G32  25060794.463   131695381.408    25060795.941   131695380.631    25060798.046   102619776.834                                  
G17  20049349.187   105360044.424    20049348.780   105360044.696    20049347.314    82098737.332    20049347.952    82098737.096  
G28  23565675.506   123838470.022    23565675.368   123838469.294    23565675.659    96497508.974                                  
G23  21927141.513   115227915.157    21927140.506   115227916.427    21927138.050    89787986.412                                  
G24  24668032.218   129631370.060    24668031.108   129631375.300    24668033.627   101011460.703                                  
G12  24883452.061   130763424.751    24883452.160   130763424.000    24883451.539   101893578.561    24883451.896   101893578.316  
G20  22127111.617   116278762.396    22127110.277   116278760.673    22127109.945    90606827.532                                  
R20  19282366.066   103111480.439    19282366.644   103111479.742    19282373.929    80197818.948    19282374.103    80197818.189  
R06  20687275.739   110391263.728    20687275.103   110391263.021    20687279.175    85859869.916    20687280.002    85859871.135  
S29  40074636.157   210593624.892  
S37  40102702.382   210741139.334  
J01  38774104.690   203759299.736    38774104.672   203759300.493    38774102.435   203759289.812    38774104.675   158773481.281    38774108.602   152157919.731  
> 2011 01 15 02 27 26.0000000  0 20                     
G11  24462526.994   128551452.250    24462527.144   128551452.493    24462527.105   100169963.196                                  
G02  24358154.229   128002978.357    24358153.587   128002979.625    24358152.298    99742582.394                                  
R05  19223822.019   102762346.633    19223821.728   102762345.942    19223829.046    79926269.801    19223828.363    79926270.043  
R21  22135634.039   118452247.592    22135634.060   118452254.890    22135640.617    92129530.217    22135640.185    92129532.465  
R19  21005733.746   112366509.987    21005733.081   112366510.296    21005737.979    87396173.726    21005738.582    87396174.970  
G10  22333291.386   117362239.742    22333289.797   117362243.011    22333291.050    91451099.073                                  
G13  22303179.101   117204004.713    22303178.913   117204006.983    22303177.569    91327797.752                                  
G04  21407240.946   112495813.070    21407241.009   112495813.342    21407240.098    87659075.594                                  
G32  25061486.171   131699014.063    25061487.211   131699013.289    25061489.712   102622607.507                                  
G17  20049436.973   105360504.514    20049436.100   105360504.786    20049434.733    82099095.840    20049435.195    82099095.605  
G28  23566329.905   123841907.069    23566329.345   123841906.337    23566330.682    96500187.196                                  
G23  21927041.523   115227391.301    21927041.163   115227392.568    21927038.651    89787578.214                                  
G24  24668555.002   129634122.693    24668555.155   129634127.913    24668557.316   101013605.627                                  
G12  24883161.724   130761896.989    24883161.148   130761896.233    24883161.229   101892388.091    24883160.746   101892387.848  
G20  22127696.743   116281839.827    22127696.432   116281838.103    22127695.463    90609225.525                                  
R20  19282239.958   103110801.284    19282239.706   103110800.589    19282246.541    80197290.719    19282247.186    80197289.958  
R06  20686790.813   110388677.727    20686790.534   110388677.019    20686795.480    85857858.577    20686795.837    85857859.802  
S29  40074683.959   210593869.192  
S37  40102747.776   210741382.796  
J01  38774137.169   203759470.288    38774137.334   203759471.043    38774135.209   203759460.363    38774136.675   158773614.178    38774141.058   152158047.091  
> 2011 01 15 02 27 27.0000000  0 20                     
G11  24463114.809   128554537.628    24463114.599   128554537.874    24463113.814   100172367.384                                  
G02  24357702.109   128000602.976    24357700.996   128000604.252    24357700.940    99740731.446                                  
R05  19224049.846   102763566.546    19224049.942   102763565.855    19224056.073    79927218.622    19224057.017    79927218.863  
R21  22134982.030   118448756.998    22134982.078   118448764.296    22134986.500    92126815.317    22134988.083    92126817.562  
R19  21006295.054   112369512.552    21006294.622   112369512.863    21006299.239    87398509.053    21006299.643    87398510.298  
G10  22332763.910   117359466.980    22332762.171   117359470.254    22332764.171    91448938.488                                  
G13  22302696.657   117201470.040    22302696.394   117201472.306    22302695.632    91325822.683                                  
G04  21406956.623   112494319.723    21406956.713   112494319.999    21406956.318    87657911.947                                  
G32  25062177.199   131702646.564    25062178.698   131702645.764    25062180.092   102625437.985                                  
G17  20049524.521   105360965.056    20049523.688   105360965.329    20049522.434    82099454.703    20049522.791    82099454.470  
G28  23566983.998   123845344.022    23566983.192   123845343.299    23566983.705    96502865.324                                  
G23  21926941.863   115226867.905    21926941.680   115226869.179    21926939.024    89787170.377                                  
G24  24669079.531   129636875.220    24669078.667   129636880.448    24669081.179   101015750.428                                  
G12  24882870.910   130760369.565    24882870.298   130760368.812    24882870.166   101891197.904    24882870.919   101891197.659  
G20  22128282.691   116284917.343    22128281.878   116284915.622    22128280.694    90611623.594                                  
R20  19282112.288   103110122.612    19282112.711   103110121.918    19282119.528    80196762.863    19282120.236    80196762.102  
R06  20686306.306   110386092.155    20686305.811   110386091.449    20686310.215    85855847.580    20686310.923    85855848.801  
S29  40074729.863   210594113.172  
S37  40102795.060   210741626.156  
J01  38774169.709   203759640.618    38774169.373   203759641.372    38774167.619   203759630.693    38774168.923   158773746.905    38774173.480   152158174.286  
> 2011 01 15 02 27 28.0000000  0 20                     
G11  24463701.827   128557623.183    24463702.303   128557623.439    24463700.454   100174771.727                                  
G02  24357250.894   127998227.627    24357249.065   127998228.884    24357249.314    99738880.516                                  
R05  19224278.720   102764787.213    19224278.306   102764786.521    19224285.552    79928168.028    19224285.021    79928168.271  
R21  22134329.238   118445266.582    22134330.020   118445273.879    22134334.946    92124100.546    22134335.578    92124102.792  
R19  21006856.100   112372515.680    21006855.734   112372515.992    21006860.783    87400844.820    21006861.032    87400846.057  
G10  22332237.094   117356694.593    22332234.732   117356697.868    22332236.171    91446778.179                                  
G13  22302214.597   117198935.728    22302214.186   117198937.990    22302213.053    91323847.892                                  
G04  21406672.447   112492826.584    21406672.429   112492826.861    21406672.075    87656748.462                                  
G32  25062869.408   131706279.093    25062869.788   131706278.328    25062871.170   102628268.545                                  
G17  20049612.180   105361426.221    20049611.680   105361426.494    20049610.187    82099814.054    20049610.639    82099813.818  
G28  23567638.053   123848781.100    23567637.186   123848780.365    23567638.607    96505543.568                                  
G23  21926842.881   115226345.149    21926841.840   115226346.416    21926839.520    89786763.029                                  
G24  24669604.353   129639627.804    24669601.916   129639633.025    24669604.689   101017895.294                                  
G12  24882580.186   130758842.762    24882579.745   130758842.004    24882579.353   101890008.178    24882580.993   101890007.940  
G20  22128868.356   116287995.094    22128867.802   116287993.370    22128866.779    90614021.843                                  
R20  19281985.752   103109444.613    19281986.253   103109443.918    19281992.147    80196235.529    19281993.487    80196234.768  
R06  20685821.281   110383507.178    20685821.542   110383506.473    20685826.485    85853837.045    20685826.482    85853838.265  
S29  40074777.095   210594357.577  
S37  40102841.698   210741869.256  
J01  38774201.805   203759810.899    38774202.068   203759811.657    38774199.580   203759800.969    38774201.529   158773879.590    38774205.885   152158301.443  
> 2011 01 15 02 27 29.0000000  0 20                     
G11  24464287.609   128560708.534    24464288.428   128560708.820    24464288.035   100177175.872                                  
G02  24356798.999   127995851.998    24356797.428   127995853.255    24356797.125    99737029.394                                  
R05  19224506.412   102766008.349    19224506.673   102766007.656    19224513.424    79929117.803    19224513.535    79929118.040  
R21  22133677.174   118441776.054    22133677.375   118441783.349    22133683.503    92121385.691    22133683.350    92121387.940  
R19  21007417.752   112375519.084    21007417.324   112375519.396    21007421.997    87403180.802    21007422.672    87403182.042  
G10  22331708.707   117353922.309    22331707.637   117353925.588    22331708.437    91444617.958                                  
G13  22301732.189   117196401.561    22301732.339   117196403.827    22301730.777    91321873.217                                  
G04  21406388.601   112491333.409    21406388.034   112491333.685    21406387.854    87655584.946                                  
G32  25063559.365   131709911.366    25063561.083   131709910.595    25063561.179   102631098.868                                  
G17  20049700.214   105361887.744    20049699.480   105361888.019    20049697.558    82100173.684    20049698.227    82100173.448  
G28  23568292.886   123852217.996    23568290.905   123852217.267    23568292.119    96508221.664                                  
G23  21926743.295   115225822.735    21926742.450   115225824.011    21926740.016    89786355.949                                  
G24  24670127.155   129642380.177    24670125.474   129642385.412    24670128.936   101020039.988                                  
G12  24882289.259   130757316.145    24882289.229   130757315.397    24882289.136   101888818.617    24882289.930   101888818.368  
G20  22129454.528   116291072.831    22129453.536   116291071.102    22129452.775    90616420.074                                  
R20  19281859.719   103108766.991    19281859.270   103108766.299    19281867.004    80195708.490    19281866.818    80195707.731  
R06  20685337.260   110380922.517    20685337.080   110380921.809    20685341.940    85851826.752    20685342.389    85851827.974  
S29  40074822.364   210594601.873  
S37  40102888.484   210742112.421  
J01  38774234.020   203759980.852    38774233.825   203759981.605    38774232.428   203759970.924    38774234.233   158774012.022    38774238.256   152158428.358  
> 2011 01 15 02 27 30.0000000  0 20                     
G11  24464874.678   128563794.005    24464875.244   128563794.260    24464874.870   100179580.160                                  
G02  24356346.792   127993476.417    24356344.957   127993477.698    24356345.128    99735178.285                                  
R05  19224734.806   102767230.232    19224735.184   102767229.541    19224742.052    79930068.155    19224741.911    79930068.400  
R21  22133024.709   118438285.685    22133025.236   118438292.982    22133031.259    92118670.964    22133031.025    92118673.209  
R19  21007979.045   112378523.052    21007978.799   112378523.363    21007983.790    87405517.222    21007983.763    87405518.459  
G10  22331181.171   117351150.412    22331179.906   117351153.689    22331180.469    91442458.045                                  
G13  22301250.617   117193867.772    22301249.442   117193870.041    22301248.900    91319898.848                                  
G04  21406104.367   112489840.491    21406104.193   112489840.766    21406104.092    87654421.641                                  
G32  25064251.265   131713543.644    25064252.404   131713542.888    25064252.305   102633929.214                                  
G17  20049788.048   105362349.909    20049787.439   105362350.181    20049785.796    82100533.811    20049786.234    82100533.574  
G28  23568946.200   123855655.031    23568945.609   123855654.298    23568945.936    96510899.877                                  
G23  21926644.001   115225300.953    21926643.294   115225302.230    21926640.868    89785949.376                                  
G24  24670651.160   129645132.605    24670649.520   129645137.834    24670652.578   101022184.753                                  
G12  24881999.290   130755790.169    24881999.350   130755789.424    24881999.170   101887629.551    24881999.956   101887629.305  
G20  22130039.933   116294150.836    22130038.992   116294149.107    22130038.119    90618818.520                                  
R20  19281732.304   103108090.044    19281732.763   103108089.352    19281739.230    80195181.976    19281739.874    80195181.216  
R06  20684852.957   110378338.470    20684852.789   110378337.762    20684857.568    85849816.939    20684857.934    85849818.161  
S29  40074868.217   210594846.217  
S37  40102935.512   210742355.673  
J01  38774266.686   203760150.762    38774266.425   203760151.519    38774264.917   203760140.838    38774265.981   158774144.420    38774270.565   152158555.238  
> 2011 01 15 02 27 31.0000000  0 20                     
G11  24465462.052   128566879.779    24465463.008   128566880.026    24465462.223   100181984.647                                  
G02  24355894.732   127991101.010    24355893.731   127991102.271    24355893.701    99733327.315                                  
R05  19224964.309   102768453.019    19224963.997   102768452.325    19224970.887    79931019.212    19224970.584    79931019.454  
R21  22132373.542   118434795.625    22132373.089   118434802.917    22132380.293    92115956.472    22132378.734    92115958.718  
R19  21008541.129   112381527.744    21008540.634   112381528.057    21008544.948    87407854.202    21008545.883    87407855.442  
G10  22330653.836   117348379.044    22330652.406   117348382.326    22330652.718    91440298.536                                  
G13  22300768.299   117191334.558    22300767.493   117191336.822    22300766.974    91317924.910                                  
G04  21405820.281   112488347.945    21405820.092   112488348.221    21405819.660    87653258.613                                  
G32  25064942.643   131717176.115    25064942.931   131717175.303    25064943.738   102636759.721                                  
G17  20049876.013   105362812.845    20049875.500   105362813.118    20049874.007    82100894.537    20049874.196    82100894.301  
G28  23569600.362   123859092.334    23569599.295   123859091.613    23569599.703    96513578.287                                  
G23  21926544.818   115224779.954    21926544.164   115224781.222    21926541.745    89785543.403                                  
G24  24671174.166   129647885.277    24671174.738   129647890.498    24671176.036   101024329.693                                  
G12  24881708.947   130754264.858    24881708.456   130754264.116    24881709.127   101886440.993    24881709.496   101886440.751  
G20  22130625.988   116297229.249    22130624.828   116297227.517    22130624.202    90621217.275                                  
R20  19281606.299   103107413.931    19281606.341   103107413.237    19281613.539    80194656.109    19281613.473    80194655.351  
R06  20684368.079   110375755.186    20684368.735   110375754.479    20684373.883    85847807.722    20684374.033    85847808.941  
S29  40074915.653   210595090.488  
S37  40102982.862   210742599.342  
J01  38774299.093   203760320.786    38774298.877   203760321.541    38774296.890   203760310.859    38774298.467   158774276.904    38774302.931   152158682.204  
> 2011 01 15 02 27 32.0000000  0 20                     
G11  24466049.708   128569965.578    24466051.150   128569965.846    24466049.693   100184389.159                                  
G02  24355442.516   127988725.531    24355441.814   127988726.800    24355440.804    99731476.291                                  
R05  19225193.225   102769676.455    19225192.916   102769675.766    19225200.138    79931970.775    19225199.673    79931971.014  
R21  22131720.378   118431305.632    22131720.833   118431312.929    22131727.363    92113242.035    22131726.832    92113244.281  
R19  21009102.955   112384532.911    21009102.238   112384533.220    21009107.398    87410191.553    21009107.236    87410192.793  
G10  22330126.384   117345607.966    22330124.936   117345611.239    22330125.842    91438139.256                                  
G13  22300285.714   117188801.619    22300285.544   117188803.887    22300285.175    91315951.187                                  
G04  21405536.656   112486855.549    21405535.949   112486855.823    21405535.451    87652095.708                                  
G32  25065635.500   131720808.493    25065634.396   131720807.718    25065635.293   102639590.130                                  
G17  20049964.179   105363276.318    20049963.594   105363276.590    20049962.155    82101255.687    20049962.539    82101255.452  
G28  23570254.470   123862529.646    23570254.039   123862528.910    23570254.162    96516256.700                                  
G23  21926446.312   115224259.502    21926445.425   115224260.775    21926442.906    89785137.857                                  
G24  24671698.889   129650637.895    24671698.344   129650643.090    24671699.462   101026474.596                                  
G12  24881418.499   130752739.972    24881418.853   130752739.224    24881418.526   101885252.768    24881418.715   101885252.527  
G20  22131212.215   116300307.810    22131210.937   116300306.090    22131209.891    90623616.163                                  
R20  19281479.337   103106738.404    19281480.122   103106737.710    19281487.956    80194130.698    19281487.086    80194129.940  
R06  20683884.915   110373172.411    20683884.673   110373171.706    20683889.592    85845798.898    20683889.790    85845800.119  
S29  40074961.992   210595334.573  
S37  40103031.092   210742843.150  
J01  38774331.345   203760490.663    38774331.375   203760491.420    38774329.513   203760480.735    38774330.694   158774409.278    38774335.302   152158809.061  
> 2011 01 15 02 27 33.0000000  0 20                     
G11  24466636.276   128573051.349    24466637.760   128573051.602    24466636.888   100186793.664                                  
G02  24354990.351   127986349.924    24354989.512   127986351.180    24354988.807    99729625.169                                  
R05  19225421.798   102770900.472    19225421.852   102770899.779    19225428.106    79932922.789    19225428.607    79932923.027  
R21  22131068.491   118427815.644    22131068.566   118427822.942    22131074.805    92110527.606    22131074.595    92110529.847  
R19  21009664.397   112387538.483    21009664.118   112387538.794    21009668.474    87412529.221    21009669.445    87412530.458  
G10  22329598.686   117342837.121    22329597.532   117342840.397    22329598.642    91435980.155                                  
G13  22299803.600   117186268.943    22299803.621   117186271.212    22299802.569    91313977.674                                  
G04  21405252.723   112485363.238    21405252.372   112485363.512    21405251.422    87650932.868                                  
G32  25066326.770   131724440.761    25066325.799   131724439.990    25066326.147   102642420.484                                  
G17  20050052.683   105363740.272    20050052.015   105363740.545    20050050.405    82101617.207    20050050.642    82101616.972  
G28  23570908.342   123865966.925    23570908.153   123865966.191    23570907.685    96518935.104                                  
G23  21926347.108   115223739.515    21926346.244   115223740.787    21926343.711    89784732.672                                  
G24  24672222.753   129653390.424    24672221.365   129653395.636    24672223.925   101028619.419                                  
G12  24881128.204   130751215.512    24881128.537   130751214.760    24881128.471   101884064.880    24881128.165   101884064.645  
G20  22131797.889   116303386.483    22131796.621   116303384.763    22131795.848    90626015.126                                  
R20  19281353.496   103106063.395    19281353.796   103106062.704    19281361.659    80193605.695    19281361.245    80193604.933  
R06  20683400.583   110370590.087    20683400.856   110370589.381    20683404.984    85843790.427    20683405.886    85843791.646  
S29  40075008.670   210595578.698  
S37  40103077.002   210743086.989  
J01  38774363.237   203760660.337    38774363.432   203760661.092    38774361.981   203760650.413    38774363.066   158774541.491    38774367.542   152158935.766  
> 2011 01 15 02 27 34.0000000  0 20                     
G11  24467223.306   128576137.133    24467224.931   128576137.417    24467223.911   100189198.152                                  
G02  24354538.369   127983974.249    24354537.634   127983975.521    24354537.230    99727773.999                                  
R05  19225650.903   102772125.131    19225651.140   102772124.437    19225657.867    79933875.300    19225657.714    79933875.541  
R21  22130416.083   118424325.708    22130416.469   118424333.006    22130422.594    92107813.210    22130422.276    92107815.454  
R19  21010227.290   112390544.532    21010226.088   112390544.843    21010230.294    87414867.255    21010231.694    87414868.495  
G10  22329072.002   117340066.545    22329070.386   117340069.820    22329071.528    91433821.261                                  
G13  22299321.984   117183736.562    22299321.522   117183738.830    22299321.045    91312004.401                                  
G04  21404969.089   112483871.061    21404968.595   112483871.341    21404967.878    87649770.136                                  
G32  25067016.155   131728072.916    25067016.817   131728072.160    25067017.702   102645250.740                                  
G17  20050140.906   105364204.747    20050140.331   105364205.021    20050138.853    82101979.138    20050139.030    82101978.901  
G28  23571563.235   123869404.230    23571562.267   123869403.491    23571562.171    96521613.519                                  
G23  21926248.152   115223220.076    21926247.076   115223221.353    21926244.768    89784327.918                                  
G24  24672745.645   129656142.934    24672745.360   129656148.152    24672747.656   101030764.227                                  
G12  24880838.356   130749691.496    24880838.455   130749690.755    24880838.821   101882877.340    24880838.932   101882877.098  
G20  22132383.147   116306465.320    22132382.290   116306463.594    22132381.432    90628414.221                                  
R20  19281227.397   103105388.972    19281227.796   103105388.277    19281234.679    80193081.142    19281235.012    80193080.381  
R06  20682916.907   110368008.263    20682916.832   110368007.558    20682921.622    85841782.342    20682921.961    85841783.560  
S29  40075054.286   210595823.171  
S37  40103121.774   210743330.755  
J01  38774395.866   203760829.866    38774395.767   203760830.625    38774393.996   203760819.945    38774395.402   158774673.589    38774399.767   152159062.362  
> 2011 01 15 02 27 35.0000000  0 20                     
G11  24467811.079   128579223.129    24467811.828   128579223.391    24467810.974   100191602.870                                  
G02  24354086.306   127981598.699    24354085.299   127981599.965    24354084.978    99725922.923                                  
R05  19225880.490   102773350.656    19225880.214   102773349.964    19225886.914    79934828.489    19225886.831    79934828.729  
R21  22129764.580   118420836.065    22129764.523   118420843.362    22129770.228    92105099.044    22129770.270    92105101.288  
R19  21010788.772   112393551.239    21010788.382   112393551.548    21010792.228    87417205.807    21010793.625    87417207.042  
G10  22328544.337   117337296.451    22328544.086   117337299.731    22328543.936    91431662.751                                  
G13  22298840.373   117181204.671    22298839.234   117181206.928    22298839.300    91310031.486                                  
G04  21404685.186   112482379.189    21404684.478   112482379.462    21404683.582    87648607.637                                  
G32  25067708.810   131731705.178    25067707.764   131731704.362    25067709.461   102648081.065                                  
G17  20050229.186   105364669.968    20050228.850   105364670.243    20050227.375    82102341.647    20050227.606    82102341.412  
G28  23572217.236   123872841.739    23572216.621   123872841.016    23572216.276    96524292.103                                  
G23  21926149.311   115222701.359    21926148.705   115222702.638    21926146.580    89783923.725                                  
G24  24673270.887   129658895.593    24673270.042   129658900.791    24673271.265   101032909.159                                  
G12  24880550.489   130748168.105    24880548.076   130748167.354    24880548.855   101881690.285    24880549.056   101881690.043  
G20  22132969.274   116309544.523    22132968.120   116309542.798    22132967.392    90630813.597                                  
R20  19281101.211   103104715.329    19281101.646   103104714.634    19281109.306    80192557.196    19281108.961    80192556.434  
R06  20682433.338   110365427.140    20682433.329   110365426.436    20682438.132    85839774.801    20682438.387    85839776.023  
S29  40075100.514   210596067.208  
S37  40103169.276   210743574.828  
J01  38774428.040   203760999.454    38774428.022   203761000.206    38774426.343   203760989.526    38774427.566   158774805.737    38774432.075   152159189.002  
> 2011 01 15 02 27 36.0000000  0 20                     
G11  24468397.878   128582309.255    24468399.485   128582309.528    24468398.159   100194007.597                                  
G02  24353633.610   127979223.147    24353633.337   127979224.411    24353632.840    99724071.842                                  
R05  19226109.594   102774576.909    19226109.606   102774576.214    19226116.049    79935782.241    19226116.406    79935782.480  
R21  22129112.078   118417346.539    22129112.090   118417353.836    22129118.503    92102384.970    22129118.233    92102387.214  
R19  21011351.329   112396558.473    21011350.508   112396558.782    21011354.180    87419544.765    21011356.054    87419546.002  
G10  22328017.002   117334526.704    22328017.011   117334529.982    22328017.401    91429504.511                                  
G13  22298358.670   117178673.141    22298358.196   117178675.411    22298358.295    91308058.877                                  
G04  21404400.956   112480887.535    21404400.431   112480887.807    21404399.876    87647445.313                                  
G32  25068399.037   131735337.457    25068398.405   131735336.665    25068400.623   102650911.429                                  
G17  20050317.757   105365135.774    20050317.547   105365136.049    20050316.090    82102704.611    20050316.108    82102704.374  
G28  23572871.098   123876279.334    23572870.447   123876278.612    23572870.651    96526970.735                                  
G23  21926050.619   115222183.251    21926050.142   115222184.527    21926047.798    89783520.004                                  
G24  24673794.004   129661648.290    24673793.962   129661653.504    24673794.262   101035054.135                                  
G12  24880259.838   130746645.250    24880258.192   130746644.499    24880258.902   101880503.648    24880258.968   101880503.408  
G20  22133555.090   116312623.934    22133554.097   116312622.210    22133553.384    90633213.135                                  
R20  19280975.116   103104042.334    19280975.946   103104041.640    19280983.018    80192033.756    19280983.033    80192032.994  
R06  20681949.800   110362846.597    20681949.890   110362845.891    20681954.864    85837767.717    20681955.211    85837768.932  
S29  40075147.201   210596311.532  
S37  40103216.718   210743818.809  
J01  38774460.514   203761168.959    38774460.409   203761169.718    38774458.481   203761159.032    38774459.752   158774937.820    38774464.342   152159315.581  
> 2011 01 15 02 27 37.0000000  0 20                     
G11  24468986.475   128585395.286    24468986.361   128585395.541    24468984.808   100196412.312                                  
G02  24353182.366   127976847.435    24353181.083   127976848.702    24353180.843    99722220.632                                  
R05  19226339.367   102775803.719    19226339.061   102775803.024    19226345.993    79936736.427    19226345.711    79936736.664  
R21  22128461.043   118413856.985    22128460.162   118413864.280    22128466.661    92099670.870    22128466.341    92099673.112  
R19  21011913.029   112399566.074    21011912.762   112399566.381    21011916.762    87421884.012    21011918.180    87421885.241  
G10  22327490.117   117331757.164    22327489.916   117331760.442    22327490.120    91427346.428                                  
G13  22297876.732   117176141.813    22297876.432   117176144.077    22297876.169    91306086.414                                  
G04  21404117.085   112479395.914    21404117.037   112479396.186    21404116.213    87646283.012                                  
G32  25069091.900   131738969.550    25069089.759   131738968.770    25069091.750   102653741.622                                  
G17  20050406.522   105365602.020    20050406.202   105365602.292    20050404.913    82103067.919    20050405.050    82103067.683  
G28  23573524.583   123879716.856    23573524.651   123879716.128    23573524.550    96529649.321                                  
G23  21925952.134   115221665.584    21925951.307   115221666.861    21925949.157    89783116.628                                  
G24  24674317.370   129664400.859    24674317.885   129664406.068    24674318.614   101037198.977                                  
G12  24879970.025   130745122.758    24879968.748   130745122.003    24879968.466   101879317.283    24879968.865   101879317.048  
G20  22134141.298   116315703.422    22134140.710   116315701.696    22134139.304    90635612.735                                  
R20  19280850.039   103103369.814    19280850.270   103103369.115    19280857.822    80191510.680    19280857.402    80191509.922  
R06  20681466.286   110360266.447    20681466.328   110360265.739    20681471.403    85835760.927    20681471.340    85835762.151  
S29  40075194.001   210596555.859  
S37  40103261.582   210744062.609  
J01  38774493.167   203761338.232    38774492.774   203761338.989    38774490.751   203761328.301    38774491.962   158775069.722    38774496.582   152159441.987  
> 2011 01 15 02 27 38.0000000  0 20                     
G11  24469573.682   128588481.423    24469573.745   128588481.710    24469571.991   100198817.098                                  
G02  24352730.500   127974471.718    24352729.502   127974472.983    24352728.282    99720369.445                                  
R05  19226569.503   102777031.269    19226568.747   102777030.577    19226575.292    79937691.188    19226575.451    79937691.429  
R21  22127807.571   118410367.575    22127808.041   118410374.871    22127814.448    92096956.886    22127813.749    92096959.129  
R19  21012475.506   112402574.211    21012475.158   112402574.520    21012478.786    87424223.671    21012480.494    87424224.906  
G10  22326963.877   117328987.967    22326962.387   117328991.241    22326963.031    91425188.614                                  
G13  22297395.110   117173610.872    22297395.397   117173613.140    22297394.423    91304114.252                                  
G04  21403833.625   112477904.516    21403833.095   112477904.791    21403832.234    87645120.881                                  
G32  25069781.782   131742601.678    25069781.162   131742600.897    25069782.951   102656571.859                                  
G17  20050495.060   105366068.872    20050494.982   105366069.145    20050493.522    82103431.702    20050493.699    82103431.464  
G28  23574179.773   123883154.473    23574179.200   123883153.752    23574178.676    96532327.988                                  
G23  21925853.748   115221148.517    21925852.735   115221149.793    21925850.669    89782713.715                                  
G24  24674839.653   129667153.460    24674841.359   129667158.685    24674842.501   101039343.825                                  
G12  24879679.553   130743600.783    24879679.451   130743600.055    24879678.789   101878131.325    24879678.564   101878131.095  
G20  22134727.104   116318783.144    22134726.424   116318781.422    22134725.291    90638012.517                                  
R20  19280724.423   103102697.940    19280724.495   103102697.244    19280732.290    80190988.112    19280731.645    80190987.354  
R06  20680982.247   110357686.869    20680982.879   110357686.162    20680988.114    85833754.592    20680987.943    85833755.814  
S29  40075240.167   210596800.468  
S37  40103306.985   210744306.389  
J01  38774525.029   203761507.425    38774525.167   203761508.188    38774522.918   203761497.506    38774524.840   158775201.560    38774528.731   152159568.331  
> 2011 01 15 02 27 39.0000000  0 20                     
G11  24470160.837   128591567.908    24470160.687   128591568.176    24470159.407   100201222.148                                  
G02  24352278.908   127972096.236    24352277.184   127972097.492    24352276.837    99718518.410                                  
R05  19226798.889   102778259.766    19226798.604   102778259.072    19226805.068    79938646.686    19226805.230    79938646.925  
R21  22127155.765   118406878.549    22127156.188   118406885.841    22127161.965    92094243.197    22127161.839    92094245.439  
R19  21013037.527   112405583.111    21013037.527   112405583.423    21013042.114    87426563.926    21013042.869    87426565.165  
G10  22326436.434   117326219.361    22326435.822   117326222.636    22326435.972    91423031.264                                  
G13  22296914.650   117171080.514    22296913.928   117171082.780    22296912.585    91302142.544                                  
G04  21403549.557   112476413.561    21403549.026   112476413.835    21403548.313    87643959.105                                  
G32  25070473.292   131746234.003    25070472.324   131746233.232    25070474.150   102659402.207                                  
G17  20050584.440   105366536.556    20050584.086   105366536.828    20050582.606    82103796.125    20050582.974    82103795.890  
G28  23574833.306   123886592.396    23574833.021   123886591.670    23574833.159    96535006.874                                  
G23  21925755.989   115220632.289    21925754.877   115220633.562    21925752.832    89782311.464                                  
G24  24675364.706   129669906.330    24675364.533   129669911.560    24675367.279   101041488.928                                  
G12  24879389.207   130742079.558    24879389.927   130742078.817    24879389.819   101876945.970    24879389.945   101876945.726  
G20  22135314.194   116321863.324    22135312.302   116321861.598    22135311.601    90640412.665                                  
R20  19280598.942   103102026.946    19280599.032   103102026.249    19280606.011    80190466.227    19280606.182    80190465.467  
R06  20680499.605   110355108.096    20680499.407   110355107.386    20680504.195    85831748.881    20680504.734    85831750.099  
S29  40075286.484   210597044.893  
S37  40103353.069   210744550.276  
J01  38774556.783   203761676.788    38774556.801   203761677.538    38774554.567   203761666.857    38774556.978   158775333.530    38774560.965   152159694.804  
> 2011 01 15 02 27 40.0000000  0 20                     
G11  24470748.610   128594654.441    24470747.369   128594654.709    24470746.515   100203627.252                                  
G02  24351825.625   127969720.715    24351825.019   127969721.980    24351824.663    99716667.357                                  
R05  19227029.082   102779488.960    19227028.497   102779488.264    19227035.207    79939602.725    19227035.009    79939602.960  
R21  22126503.291   118403389.622    22126504.034   118403396.916    22126510.815    92091529.588    22126509.943    92091531.833  
R19  21013600.423   112408592.537    21013600.264   112408592.846    21013604.485    87428904.589    21013605.574    87428905.824  
G10  22325910.184   117323451.103    22325909.042   117323454.384    22325909.569    91420874.171                                  
G13  22296432.773   117168550.510    22296432.176   117168552.772    22296431.727    91300171.118                                  
G04  21403266.007   112474922.798    21403265.441   112474923.076    21403264.778    87642797.471                                  
G32  25071162.581   131749866.258    25071163.148   131749865.508    25071165.696   102662232.597                                  
G17  20050673.389   105367004.817    20050673.296   105367005.092    20050671.788    82104161.008    20050671.956    82104160.771  
G28  23575487.279   123890030.404    23575487.231   123890029.672    23575487.132    96537685.842                                  
G23  21925657.582   115220116.648    21925656.812   115220117.922    21925654.500    89781909.667                                  
G24  24675889.184   129672659.225    24675888.075   129672664.440    24675890.662   101043634.045                                  
G12  24879101.685   130740558.859    24879100.711   130740558.114    24879100.273   101875760.992    24879100.378   101875760.763  
G20  22135899.889   116324943.711    22135898.226   116324941.992    22135897.788    90642812.961                                  
R20  19280473.149   103101356.564    19280473.668   103101355.867    19280480.332    80189944.815    19280480.710    80189944.060  
R06  20680017.005   110352529.866    20680016.346   110352529.159    20680021.481    85829743.591    20680021.559    85829744.814  
S29  40075333.294   210597289.456  
S37  40103400.640   210744794.071  
J01  38774589.484   203761846.037    38774588.954   203761846.790    38774587.335   203761836.111    38774588.873   158775465.412    38774593.193   152159821.190  
> 2011 01 15 02 27 41.0000000  0 20                     
G11  24471335.550   128597740.859    24471335.058   128597741.113    24471333.835   100206032.241                                  
G02  24351373.814   127967344.960    24351372.935   127967346.229    24351372.285    99714816.113                                  
R05  19227258.972   102780718.611    19227258.504   102780717.920    19227265.180    79940559.121    19227265.276    79940559.360  
R21  22125852.459   118399900.605    22125852.090   118399907.900    22125858.068    92088815.905    22125857.915    92088818.153  
R19  21014163.035   112411602.231    21014162.672   112411602.543    21014167.894    87431245.460    21014167.918    87431246.697  
G10  22325383.485   117320682.947    22325381.932   117320686.225    22325382.846    91418717.172                                  
G13  22295951.243   117166020.633    22295950.506   117166022.906    22295949.768    91298199.782                                  
G04  21402982.344   112473431.975    21402981.513   112473432.249    21402981.228    87641635.785                                  
G32  25071852.548   131753498.293    25071854.331   131753497.499    25071857.060   102665062.730                                  
G17  20050762.082   105367473.435    20050762.385   105367473.707    20050760.955    82104526.162    20050761.213    82104525.927  
G28  23576141.294   123893468.239    23576140.883   123893467.501    23576141.129    96540364.677                                  
G23  21925559.196   115219601.366    21925558.537   115219602.641    21925556.405    89781508.147                                  
G24  24676413.075   129675411.894    24676412.061   129675417.113    24676414.016   101045778.993                                  
G12  24878811.831   130739038.411    24878811.621   130739037.662    24878811.531   101874576.253    24878811.420   101874575.996  
G20  22136486.286   116328024.079    22136485.036   116328022.354    22136484.137    90645213.252                                  
R20  19280347.497   103100686.569    19280348.388   103100685.872    19280355.720    80189423.708    19280355.346    80189422.951  
R06  20679532.996   110349951.967    20679533.308   110349951.261    20679538.569    85827738.562    20679538.455    85827739.782  
S29  40075379.924   210597533.879  
S37  40103445.426   210745037.411  
J01  38774621.250   203762014.974    38774621.214   203762015.732    38774619.131   203762005.049    38774620.950   158775597.052    38774625.366   152159947.346  
> 2011 01 15 02 27 42.0000000  0 20                     
G11  24471923.485   128600827.491    24471921.944   128600827.744    24471920.862   100208437.429                                  
G02  24350921.502   127964969.301    24350919.979   127964970.560    24350920.309    99712964.969                                  
R05  19227489.062   102781949.102    19227488.736   102781948.408    19227494.956    79941516.171    19227495.514    79941516.408  
R21  22125200.033   118396411.845    22125200.303   118396419.140    22125206.445    92086102.429    22125206.298    92086104.673  
R19  21014725.592   112414612.573    21014725.397   112414612.888    21014729.951    87433586.841    21014730.869    87433588.077  
G10  22324856.815   117317915.257    22324855.001   117317918.530    22324856.195    91416560.539                                  
G13  22295470.046   117163491.268    22295469.123   117163493.543    22295468.236    91296228.851                                  
G04  21402698.005   112471941.465    21402698.077   112471941.740    21402697.478    87640474.357                                  
G32  25072545.071   131757130.477    25072545.452   131757129.686    25072548.735   102667893.005                                  
G17  20050851.660   105367942.781    20050851.747   105367943.053    20050850.218    82104891.886    20050850.656    82104891.651  
G28  23576796.101   123896906.280    23576795.549   123896905.539    23576795.558    96543043.670                                  
G23  21925461.458   115219086.789    21925461.143   115219088.061    21925458.418    89781107.178                                  
G24  24676936.725   129678164.745    24676936.491   129678169.943    24676937.810   101047924.049                                  
G12  24878522.432   130737518.606    24878521.782   130737517.862    24878521.989   101873391.984    24878521.986   101873391.738  
G20  22137072.156   116331104.791    22137071.101   116331103.062    22137070.456    90647613.807                                  
R20  19280223.521   103100017.353    19280223.254   103100016.658    19280230.326    80188903.208    19280230.488    80188902.452  
R06  20679050.408   110347374.776    20679050.258   110347374.070    20679055.130    85825734.083    20679055.442    85825735.302  
S29  40075425.648   210597778.455  
S37  40103492.917   210745280.779  
J01  38774653.286   203762183.957    38774653.076   203762184.715    38774651.257   203762174.033    38774653.181   158775728.728    38774657.528   152160073.534  
> 2011 01 15 02 27 43.0000000  0 20                     
G11  24472510.613   128603914.427    24472509.669   128603914.694    24472508.743   100210842.832                                  
G02  24350470.227   127962593.901    24350468.075   127962595.154    24350467.988    99711113.996                                  
R05  19227719.588   102783180.559    19227719.048   102783179.866    19227725.296    79942473.970    19227725.739    79942474.208  
R21  22124548.479   118392923.481    22124548.173   118392930.774    22124554.948    92083389.258    22124554.241    92083391.502  
R19  21015288.432   112417623.717    21015288.303   112417624.030    21015293.615    87435928.839    21015293.675    87435930.076  
G10  22324329.900   117315148.179    22324328.494   117315151.460    22324329.699    91414404.367                                  
G13  22294988.247   117160962.484    22294988.478   117160964.745    22294987.153    91294258.366                                  
G04  21402414.872   112470451.416    21402414.495   112470451.695    21402414.198    87639313.279                                  
G32  25073236.378   131760762.848    25073237.115   131760762.073    25073239.573   102670723.391                                  
G17  20050941.331   105368412.967    20050941.292   105368413.242    20050939.697    82105258.269    20050940.162    82105258.031  
G28  23577450.395   123900344.634    23577449.789   123900343.903    23577449.852    96545722.901                                  
G23  21925364.031   115218573.087    21925363.204   115218574.360    21925360.626    89780706.895                                  
G24  24677459.338   129680917.852    24677460.082   129680923.063    24677461.602   101050069.331                                  
G12  24878233.939   130735999.603    24878233.109   130735998.851    24878233.250   101872208.345    24878232.587   101872208.101  
G20  22137658.472   116334185.982    22137657.087   116334184.261    22137656.979    90650014.737                                  
R20  19280098.001   103099349.031    19280098.064   103099348.337    19280104.983    80188383.405    19280105.349    80188382.646  
R06  20678567.676   110344798.421    20678567.521   110344797.716    20678572.704    85823730.252    20678572.509    85823731.475  
S29  40075472.614   210598023.028  
S37  40103539.822   210745524.468  
J01  38774685.664   203762353.112    38774685.205   203762353.867    38774684.003   203762343.184    38774685.490   158775860.537    38774689.690   152160199.851  
> 2011 01 15 02 27 44.0000000  0 20                     
G11  24473098.033   128607001.535    24473097.547   128607001.806    24473096.324   100213248.345                                  
G02  24350017.828   127960218.542    24350016.144   127960219.812    24350015.877    99709263.091                                  
R05  19227949.873   102784412.778    19227949.576   102784412.085    19227956.307    79943432.364    19227956.166    79943432.602  
R21  22123896.355   118389435.287    22123896.313   118389442.584    22123903.457    92080676.218    22123902.165    92080678.463  
R19  21015852.347   112420635.448    21015851.385   112420635.759    21015855.885    87438271.295    21015856.826    87438272.531  
G10  22323803.755   117312381.497    22323802.004   117312384.778    22323803.231    91412248.509                                  
G13  22294506.558   117158434.125    22294506.735   117158436.399    22294506.070    91292288.221                                  
G04  21402131.179   112468961.610    21402131.077   112468961.887    21402130.474    87638152.390                                  
G32  25073924.545   131764395.285    25073928.389   131764394.514    25073930.910   102673553.870                                  
G17  20051031.230   105368883.802    20051030.849   105368884.077    20051029.290    82105625.153    20051029.563    82105624.915  
G28  23578105.243   123903783.121    23578103.960   123903782.388    23578104.302    96548402.235                                  
G23  21925266.458   115218060.021    21925265.208   115218061.293    21925262.809    89780307.097                                  
G24  24677984.428   129683671.052    24677983.975   129683676.264    24677985.585   101052214.676                                  
G12  24877944.681   130734481.119    24877943.737   130734480.377    24877944.408   101871025.111    24877944.546   101871024.865  
G20  22138245.061   116337267.431    22138243.697   116337265.708    22138243.166    90652415.860                                  
R20  19279972.978   103098681.400    19279973.320   103098680.701    19279980.728    80187864.131    19279980.581    80187863.376  
R06  20678084.834   110342222.693    20678084.825   110342221.985    20678090.230    85821726.908    20678089.966    85821728.129  
S29  40075517.738   210598267.566  
S37  40103585.328   210745768.552  
J01  38774718.089   203762522.224    38774717.466   203762522.982    38774715.856   203762512.302    38774717.094   158775992.313    38774721.891   152160326.139  
> 2011 01 15 02 27 45.0000000  0 20                     
G11  24473685.692   128610088.676    24473684.835   128610088.968    24473684.130   100215653.891                                  
G02  24349566.134   127957843.107    24349564.431   127957844.382    24349564.557    99707412.094                                  
R05  19228180.408   102785645.643    19228180.219   102785644.949    19228187.150    79944391.261    19228186.907    79944391.497  
R21  22123244.573   118385947.163    22123244.561   118385954.457    22123249.847    92077963.235    22123250.497    92077965.481  
R19  21016415.190   112423647.651    21016414.521   112423647.963    21016419.405    87440614.117    21016419.683    87440615.357  
G10  22323276.720   117309615.098    22323275.737   117309618.378    22323277.101    91410092.880                                  
G13  22294025.646   117155906.081    22294025.700   117155908.345    22294025.442    91290318.324                                  
G04  21401847.896   112467471.963    21401847.326   112467472.234    21401847.036    87636991.626                                  
G32  25074616.178   131768027.594    25074619.539   131768026.825    25074621.683   102676384.243                                  
G17  20051120.760   105369355.183    20051120.466   105369355.455    20051119.099    82105992.459    20051119.342    82105992.223  
G28  23578759.037   123907221.634    23578758.782   123907220.908    23578758.881    96551081.595                                  
G23  21925168.923   115217547.494    21925167.766   115217548.769    21925165.269    89779907.728                                  
G24  24678508.786   129686424.214    24678507.233   129686429.428    24678509.484   101054360.001                                  
G12  24877654.398   130732963.131    24877655.346   130732962.389    24877655.777   101869842.255    24877656.425   101869842.025  
G20  22138831.332   116340349.058    22138829.545   116340347.328    22138829.779    90654817.128                                  
R20  19279848.028   103098014.347    19279848.747   103098013.650    19279854.938    80187345.313    19279855.553    80187344.556  
R06  20677602.123   110339647.485    20677602.135   110339646.779    20677606.872    85819723.973    20677607.321    85819725.191  
S29  40075562.995   210598512.178  
S37  40103633.019   210746012.468  
J01  38774750.167   203762691.197    38774749.978   203762691.956    38774748.314   203762681.276    38774749.906   158776123.981    38774754.112   152160452.318  
> 2011 01 15 02 27 46.0000000  0 20                     
G11  24474273.174   128613175.859    24474272.317   128613176.124    24474271.175   100218059.500                                  
G02  24349113.615   127955467.631    24349112.356   127955468.901    24349112.455    99705561.066                                  
R05  19228411.287   102786879.176    19228410.990   102786878.484    19228417.903    79945350.674    19228417.723    79945350.913  
R21  22122594.306   118382459.120    22122592.885   118382466.414    22122599.213    92075250.317    22122598.868    92075252.561  
R19  21016977.996   112426660.333    21016977.609   112426660.644    21016982.784    87442957.313    21016983.071    87442958.551  
G10  22322750.989   117306849.010    22322749.322   117306852.290    22322751.211    91407937.486                                  
G13  22293545.343   117153378.345    22293544.818   117153380.612    22293544.314    91288348.662                                  
G04  21401564.047   112465982.473    21401563.873   112465982.751    21401564.067    87635830.984                                  
G32  25075307.962   131771659.884    25075310.612   131771659.094    25075312.599   102679214.610                                  
G17  20051210.770   105369827.102    20051210.158   105369827.380    20051208.785    82106360.191    20051209.178    82106359.953  
G28  23579414.353   123910660.207    23579412.704   123910659.469    23579413.283    96553760.990                                  
G23  21925071.740   115217035.516    21925070.274   115217036.787    21925067.899    89779508.785                                  
G24  24679032.763   129689177.362    24679031.405   129689182.584    24679033.654   101056505.304                                  
G12  24877365.599   130731445.572    24877367.104   130731444.840    24877366.564   101868659.755    24877367.206   101868659.511  
G20  22139417.897   116343430.860    22139416.599   116343429.133    22139415.810    90657218.523                                  
R20  19279723.551   103097347.894    19279724.151   103097347.197    19279731.559    80186826.960    19279731.100    80186826.205  
R06  20677119.934   110337072.802    20677119.511   110337072.095    20677124.308    85817721.443    20677124.631    85817722.662  
S29  40075610.647   210598756.783  
S37  40103678.230   210746256.337  
J01  38774782.131   203762860.056    38774782.089   203762860.813    38774780.185   203762850.136    38774781.930   158776255.559    38774786.166   152160578.414  
> 2011 01 15 02 27 47.0000000  0 20                     
G11  24474860.468   128616263.153    24474860.252   128616263.408    24474858.909   100220465.219                                  
G02  24348661.247   127953092.182    24348660.077   127953093.449    24348660.467    99703710.085                                  
R05  19228641.617   102788113.475    19228641.992   102788112.783    19228648.519    79946310.683    19228648.636    79946310.925  
R21  22121941.460   118378971.263    22121941.367   118378978.558    22121947.524    92072537.542    22121947.081    92072539.781  
R19  21017540.877   112429673.574    21017541.096   112429673.888    21017546.489    87445300.945    21017546.312    87445302.184  
G10  22322224.272   117304083.317    22322223.091   117304086.594    22322224.344    91405782.398                                  
G13  22293063.876   117150851.025    22293064.242   117150853.286    22293062.872    91286379.312                                  
G04  21401281.024   112464493.251    21401280.659   112464493.526    21401280.368    87634670.551                                  
G32  25075999.319   131775292.181    25076001.957   131775291.365    25076003.891   102682044.958                                  
G17  20051300.605   105370299.668    20051300.300   105370299.945    20051298.591    82106728.423    20051299.056    82106728.185  
G28  23580068.671   123914098.889    23580067.163   123914098.160    23580067.412    96556440.479                                  
G23  21924974.064   115216524.182    21924973.441   115216525.451    21924970.773    89779110.344                                  
G24  24679556.312   129691930.592    24679555.415   129691935.826    24679557.445   101058650.663                                  
G12  24877078.098   130729928.603    24877078.278   130729927.856    24877078.017   101867477.690    24877079.639   101867477.459  
G20  22140004.513   116346512.925    22140002.939   116346511.200    22140002.228    90659620.143                                  
R20  19279599.296   103096682.139    19279599.629   103096681.445    19279607.085    80186309.153    19279606.470    80186308.395  
R06  20676637.169   110334498.745    20676637.205   110334498.037    20676642.184    85815719.399    20676642.445    85815720.618  
S29  40075658.041   210599001.198  
S37  40103724.009   210746500.458  
J01  38774814.550   203763028.878    38774814.446   203763029.634    38774812.632   203763018.955    38774814.386   158776387.108    38774818.349   152160704.484  
> 2011 01 15 02 27 48.0000000  0 20                     
G11  24475448.771   128619350.549    24475447.203   128619350.771    24475446.091   100222870.968                                  
G02  24348209.231   127950716.674    24348207.628   127950717.938    24348208.428    99701859.034                                  
R05  19228873.036   102789348.426    19228872.925   102789347.731    19228879.623    79947271.200    19228879.665    79947271.439  
R21  22121289.216   118375483.473    22121289.417   118375490.773    22121294.708    92069824.817    22121295.269    92069827.059  
R19  21018104.367   112432687.290    21018104.463   112432687.603    21018110.399    87447644.942    21018109.224    87447646.182  
G10  22321697.959   117301317.915    22321696.688   117301321.192    22321698.136    91403627.540                                  
G13  22292583.273   117148324.035    22292583.255   117148326.301    22292582.047    91284410.223                                  
G04  21400997.565   112463004.152    21400997.145   112463004.432    21400996.935    87633510.215                                  
G32  25076692.319   131778924.436    25076693.431   131778923.657    25076695.557   102684875.274                                  
G17  20051390.759   105370772.768    20051390.309   105370773.044    20051388.738    82107097.071    20051389.059    82107096.836  
G28  23580723.394   123917537.600    23580721.766   123917536.862    23580721.787    96559120.007                                  
G23  21924877.000   115216013.396    21924876.233   115216014.667    21924873.616    89778712.326                                  
G24  24680080.169   129694683.784    24680080.220   129694689.016    24680081.341   101060796.044                                  
G12  24876789.350   130728412.104    24876789.137   130728411.366    24876789.539   101866296.011    24876789.593   101866295.772  
G20  22140590.793   116349595.146    22140589.756   116349593.422    22140589.498    90662021.868                                  
R20  19279474.582   103096016.993    19279475.305   103096016.296    19279482.776    80185791.813    19279482.260    80185791.054  
R06  20676154.905   110331925.191    20676155.037   110331924.484    20676159.980    85813717.748    20676160.415    85813718.967  
S29  40075704.224   210599245.879  
S37  40103769.763   210746744.414  
J01  38774846.700   203763197.565    38774846.505   203763198.323    38774844.641   203763187.638    38774846.490   158776518.552    38774850.373   152160830.450  
> 2011 01 15 02 27 49.0000000  0 20                     
G11  24476035.975   128622438.002    24476034.170   128622438.254    24476034.110   100225276.768                                  
G02  24347756.953   127948341.205    24347756.014   127948342.473    24347756.341    99700008.028                                  
R05  19229104.320   102790584.142    19229104.272   102790583.448    19229110.652    79948232.312    19229110.556    79948232.550  
R21  22120638.229   118371995.868    22120637.710   118372003.168    22120643.022    92067112.237    22120643.511    92067114.477  
R19  21018668.307   112435701.577    21018667.830   112435701.890    21018674.512    87449989.389    21018673.094    87449990.631  
G10  22321172.597   117298552.921    22321170.963   117298556.196    22321171.850    91401472.999                                  
G13  22292102.241   117145797.447    22292101.971   117145799.701    22292101.716    91282441.447                                  
G04  21400714.144   112461515.315    21400713.964   112461515.588    21400713.715    87632350.083                                  
G32  25077382.954   131782556.737    25077384.741   131782555.951    25077386.186   102687705.689                                  
G17  20051480.619   105371246.506    20051480.244   105371246.785    20051478.832    82107466.221    20051479.150    82107465.984  
G28  23581377.178   123920976.424    23581376.045   123920975.691    23581376.201    96561799.601                                  
G23  21924779.805   115215503.242    21924779.244   115215504.511    21924776.570    89778314.807                                  
G24  24680602.575   129697437.052    24680603.891   129697442.252    24680606.359   101062941.418                                  
G12  24876500.929   130726896.140    24876500.461   130726895.402    24876500.809   101865114.742    24876501.624   101865114.501  
G20  22141177.691   116352677.651    22141175.859   116352675.927    22141175.355    90664423.822                                  
R20  19279351.371   103095352.545    19279350.747   103095351.849    19279358.272    80185275.023    19279358.029    80185274.262  
R06  20675672.332   110329352.246    20675672.946   110329351.541    20675677.797    85811716.569    20675678.124    85811717.787  
S29  40075751.870   210599490.476  
S37  40103815.403   210746988.492  
J01  38774878.664   203763366.213    38774878.295   203763366.973    38774876.599   203763356.292    38774878.029   158776649.966    38774882.462   152160956.389  
> 2011 01 15 02 27 50.0000000  0 20                     
G11  24476622.948   128625525.622    24476622.384   128625525.895    24476622.093   100227682.727                                  
G02  24347305.438   127945965.752    24347304.170   127945967.009    24347304.230    99698157.005                                  
R05  19229335.700   102791820.622    19229335.511   102791819.927    19229341.786    79949194.018    19229342.076    79949194.256  
R21  22119986.168   118368508.441    22119986.150   118368515.741    22119992.113    92064399.791    22119991.729    92064402.036  
R19  21019231.623   112438716.433    21019231.530   112438716.744    21019237.682    87452334.275    21019236.719    87452335.512  
G10  22320645.718   117295788.288    22320644.860   117295791.565    22320645.807    91399318.741                                  
G13  22291621.742   117143271.217    22291621.515   117143273.494    22291621.053    91280472.972                                  
G04  21400430.900   112460026.683    21400430.873   112460026.957    21400430.339    87631190.107                                  
G32  25078076.554   131786188.996    25078075.714   131786188.228    25078076.983   102690535.998                                  
G17  20051570.970   105371720.882    20051570.608   105371721.154    20051569.070    82107835.858    20051569.453    82107835.620  
G28  23582031.727   123924415.384    23582030.501   123924414.657    23582030.711    96564479.304                                  
G23  21924682.753   115214993.743    21924682.309   115214995.015    21924679.416    89777917.800                                  
G24  24681127.506   129700190.410    24681127.524   129700195.648    24681130.390   101065086.902                                  
G12  24876212.582   130725380.755    24876211.812   130725380.010    24876213.194   101863933.918    24876212.930   101863933.685  
G20  22141763.890   116355760.408    22141762.730   116355758.687    22141762.277    90666825.974                                  
R20  19279225.632   103094688.789    19279226.777   103094688.095    19279233.726    80184758.769    19279233.906    80184758.012  
R06  20675190.314   110326779.896    20675190.802   110326779.190    20675195.749    85809715.855    20675196.112    85809717.071  
S29  40075799.196   210599735.041  
S37  40103862.507   210747232.536  
J01  38774910.478   203763534.819    38774910.502   203763535.581    38774908.592   203763524.894    38774910.355   158776781.348    38774914.546   152161082.297  
> 2011 01 15 02 27 51.0000000  0 20                     
G11  24477209.641   128628613.150    24477209.641   128628613.387    24477209.174   100230088.600                                  
G02  24346853.480   127943590.114    24346852.584   127943591.380    24346852.173    99696305.880                                  
R05  19229566.921   102793057.619    19229566.786   102793056.923    19229573.564    79950156.124    19229573.243    79950156.364  
R21  22119334.288   118365020.961    22119334.392   118365028.255    22119340.613    92061687.304    22119340.112    92061689.549  
R19  21019795.718   112441731.618    21019795.134   112441731.931    21019800.587    87454679.419    21019799.894    87454680.657  
G10  22320120.241   117293023.829    22320118.538   117293027.107    22320119.633    91397164.618                                  
G13  22291142.009   117140745.188    22291140.743   117140747.449    22291139.514    91278504.632                                  
G04  21400147.686   112458538.076    21400147.344   112458538.348    21400146.889    87630030.156                                  
G32  25078768.748   131789821.088    25078767.015   131789820.314    25078768.334   102693366.218                                  
G17  20051661.343   105372195.655    20051660.968   105372195.930    20051659.475    82108205.814    20051660.012    82108205.575  
G28  23582685.982   123927854.219    23582684.849   123927853.489    23582684.408    96567158.915                                  
G23  21924585.938   115214484.656    21924585.413   115214485.934    21924582.622    89777521.108                                  
G24  24681651.126   129702943.584    24681650.917   129702948.798    24681653.486   101067232.238                                  
G12  24875924.359   130723865.692    24875923.567   130723864.947    24875924.578   101862753.356    24875924.994   101862753.114  
G20  22142350.683   116358843.195    22142349.675   116358841.469    22142349.136    90669228.139                                  
R20  19279102.345   103094025.487    19279102.651   103094024.790    19279109.885    80184242.867    19279109.894    80184242.107  
R06  20674709.117   110324207.922    20674708.772   110324207.218    20674713.961    85807715.432    20674714.132    85807716.648  
S29  40075845.885   210599979.138  
S37  40103909.634   210747476.347  
J01  38774942.586   203763703.161    38774942.517   203763703.918    38774940.721   203763693.236    38774941.896   158776912.525    38774946.558   152161208.007  
> 2011 01 15 02 27 52.0000000  0 20                     
G11  24477797.666   128631700.803    24477797.154   128631701.043    24477796.923   100232494.546                                  
G02  24346401.984   127941214.532    24346400.383   127941215.784    24346400.347    99694454.773                                  
R05  19229798.708   102794295.392    19229798.265   102794294.697    19229803.733    79951118.838    19229804.908    79951119.076  
R21  22118682.674   118361533.677    22118682.608   118361540.968    22118687.926    92058974.968    22118688.478    92058977.217  
R19  21020359.181   112444747.399    21020358.842   112444747.706    21020364.215    87457025.024    21020363.702    87457026.262  
G10  22319594.321   117290259.776    22319592.795   117290263.050    22319593.737    91395010.810                                  
G13  22290660.752   117138219.582    22290659.810   117138221.846    22290658.707    91276536.630                                  
G04  21399864.253   112457049.721    21399864.043   112457049.996    21399863.801    87628870.401                                  
G32  25079458.189   131793453.232    25079457.860   131793452.452    25079459.862   102696196.411                                  
G17  20051751.469   105372671.084    20051751.574   105372671.359    20051749.907    82108576.277    20051750.636    82108576.039  
G28  23583340.135   123931293.196    23583339.128   123931292.464    23583339.185    96569838.628                                  
G23  21924489.117   115213976.236    21924488.299   115213977.504    21924486.008    89777124.935                                  
G24  24682175.431   129705696.863    24682175.278   129705702.092    24682177.367   101069377.683                                  
G12  24875635.938   130722351.214    24875634.861   130722350.471    24875635.698   101861573.239    24875636.630   101861573.007  
G20  22142937.089   116361926.266    22142936.117   116361924.535    22142935.461    90671630.534                                  
R20  19278978.669   103093362.889    19278978.906   103093362.192    19278985.711    80183727.511    19278985.873    80183726.752  
R06  20674227.116   110321636.581    20674226.841   110321635.873    20674231.451    85805715.497    20674231.994    85805716.712  
S29  40075893.651   210600223.465  
S37  40103957.628   210747720.214  
J01  38774975.143   203763871.478    38774974.484   203763872.236    38774972.382   203763861.557    38774974.514   158777043.678    38774978.603   152161333.697  
> 2011 01 15 02 27 53.0000000  0 20                     
G11  24478385.934   128634788.576    24478384.174   128634788.820    24478383.907   100234900.610                                  
G02  24345949.759   127938838.923    24345947.663   127938840.187    24345948.619    99692603.647                                  
R05  19230030.481   102795533.883    19230030.190   102795533.188    19230036.537    79952082.107    19230036.819    79952082.348  
R21  22118030.553   118358046.558    22118030.961   118358053.847    22118036.492    92056262.768    22118036.756    92056265.012  
R19  21020923.136   112447763.703    21020922.653   112447764.011    21020926.826    87459371.035    21020927.723    87459372.271  
G10  22319068.527   117287496.075    22319066.837   117287499.346    22319067.664    91392857.279                                  
G13  22290180.352   117135694.341    22290179.711   117135696.611    22290178.401    91274568.917                                  
G04  21399581.384   112455561.564    21399580.952   112455561.831    21399580.494    87627710.797                                  
G32  25080150.092   131797085.345    25080148.869   131797084.573    25080150.866   102699026.657                                  
G17  20051842.309   105373147.117    20051842.127   105373147.392    20051840.511    82108947.211    20051840.930    82108946.971  
G28  23583994.681   123934732.269    23583992.784   123934731.534    23583994.160    96572518.418                                  
G23  21924392.470   115213468.408    21924391.819   115213469.689    21924389.073    89776729.226                                  
G24  24682700.718   129708450.176    24682699.147   129708455.410    24682701.338   101071523.106                                  
G12  24875347.612   130720837.245    24875346.953   130720836.501    24875347.651   101860393.522    24875347.810   101860393.288  
G20  22143523.752   116365009.557    22143522.673   116365007.829    22143522.116    90674033.096                                  
R20  19278854.651   103092700.936    19278855.040   103092700.240    19278861.582    80183212.658    19278862.244    80183211.897  
R06  20673745.563   110319065.809    20673745.086   110319065.100    20673749.799    85803716.007    20673750.395    85803717.228  
S29  40075938.686   210600467.962  
S37  40104004.297   210747964.116  
J01  38775006.801   203764039.723    38775006.621   203764040.477    38775004.331   203764029.791    38775006.529   158777174.778    38775010.660   152161459.335  
> 2011 01 15 02 27 54.0000000  0 20                     
G11  24478972.841   128637876.410    24478971.576   128637876.679    24478971.803   100237306.702                                  
G02  24345497.186   127936463.320    24345495.825   127936464.588    24345495.954    99690752.531                                  
R05  19230262.649   102796773.085    19230261.924   102796772.390    19230267.991    79953045.932    19230268.438    79953046.173  
R21  22117379.946   118354559.555    22117379.299   118354566.850    22117384.881    92053550.661    22117385.199    92053552.901  
R19  21021487.192   112450780.526    21021486.524   112450780.835    21021491.650    87461717.456    21021492.223    87461718.693  
G10  22318542.011   117284732.721    22318541.348   117284735.996    22318541.765    91390704.019                                  
G13  22289700.064   117133169.472    22289698.904   117133171.741    22289698.112    91272601.479                                  
G04  21399298.305   112454073.624    21399297.481   112454073.898    21399297.589    87626551.364                                  
G32  25080841.962   131800717.487    25080840.056   131800716.686    25080842.361   102701856.871                                  
G17  20051933.060   105373623.740    20051932.745   105373624.015    20051931.156    82109318.608    20051931.429    82109318.368  
G28  23584648.484   123938171.396    23584647.713   123938170.653    23584648.181    96575198.261                                  
G23  21924296.156   115212961.178    21924295.106   115212962.457    21924292.177    89776333.988                                  
G24  24683224.021   129711203.506    24683223.142   129711208.737    24683225.295   101073668.551                                  
G12  24875059.488   130719323.791    24875059.032   130719323.046    24875059.338   101859214.220    24875060.195   101859213.972  
G20  22144110.821   116368093.072    22144109.259   116368091.341    22144108.791    90676435.836                                  
R20  19278731.697   103092039.626    19278731.292   103092038.932    19278738.574    80182698.306    19278738.541    80182697.546  
R06  20673263.763   110316495.619    20673263.398   110316494.912    20673268.563    85801716.975    20673268.593    85801718.196  
S29  40075985.807   210600712.198  
S37  40104047.937   210748208.161  
J01  38775038.825   203764207.875    38775038.477   203764208.633    38775036.652   203764197.956    38775038.678   158777305.809    38775042.588   152161584.905  
> 2011 01 15 02 27 55.0000000  0 20                     
G11  24479560.056   128640964.455    24479559.580   128640964.694    24479558.956   100239712.974                                  
G02  24345044.745   127934087.781    24345044.158   127934089.049    24345043.627    99688901.450                                  
R05  19230494.185   102798013.085    19230493.843   102798012.391    19230500.136    79954010.374    19230500.723    79954010.615  
R21  22116727.472   118351072.766    22116727.481   118351080.058    22116732.620    92050838.718    22116733.618    92050840.959  
R19  21022051.174   112453797.978    21022050.565   112453798.286    21022055.668    87464064.358    21022055.866    87464065.597  
G10  22318016.013   117281969.797    22318015.473   117281973.070    22318016.634    91388551.092                                  
G13  22289219.547   117130645.018    22289218.612   117130647.272    22289217.506    91270634.374                                  
G04  21399015.253   112452585.938    21399014.959   112452586.210    21399014.174    87625392.128                                  
G32  25081532.025   131804349.612    25081530.805   131804348.854    25081533.985   102704687.107                                  
G17  20052023.609   105374101.043    20052023.726   105374101.317    20052022.068    82109690.530    20052022.620    82109690.290  
G28  23585302.904   123941610.676    23585302.184   123941609.934    23585302.754    96577878.211                                  
G23  21924199.721   115212454.627    21924199.068   115212455.899    21924195.953    89775939.267                                  
G24  24683747.113   129713956.958    24683746.667   129713962.188    24683749.344   101075814.087                                  
G12  24874771.921   130717810.911    24874771.000   130717810.169    24874771.690   101858035.343    24874773.063   101858035.108  
G20  22144697.776   116371176.890    22144696.634   116371175.159    22144695.341    90678838.803                                  
R20  19278607.493   103091379.031    19278607.873   103091378.336    19278614.649    80182184.508    19278615.239    80182183.750  
R06  20672781.907   110313926.081    20672781.916   110313925.378    20672786.215    85799718.451    20672787.078    85799719.668  
S29  40076031.993   210600956.759  
S37  40104095.451   210748452.267  
J01  38775070.849   203764376.031    38775070.384   203764376.793    38775069.119   203764366.103    38775070.489   158777436.839    38775074.623   152161710.476  
> 2011 01 15 02 27 56.0000000  0 20                     
G11  24480148.600   128644052.426    24480147.586   128644052.682    24480146.978   100242119.187                                  
G02  24344593.045   127931712.107    24344590.895   127931713.362    24344591.237    99687050.276                                  
R05  19230726.362   102799253.659    19230726.092   102799252.965    19230732.610    79954975.267    19230732.511    79954975.507  
R21  22116075.921   118347585.971    22116076.056   118347593.266    22116081.291    92048126.767    22116081.911    92048129.012  
R19  21022615.221   112456815.808    21022614.721   112456816.114    21022620.899    87466411.561    21022620.246    87466412.796  
G10  22317490.756   117279207.091    22317489.239   117279210.372    22317490.027    91386398.339                                  
G13  22288739.451   117128120.815    22288738.476   117128123.078    22288737.346    91268667.465                                  
G04  21398732.267   112451098.348    21398731.979   112451098.627    21398731.356    87624232.971                                  
G32  25082226.248   131807981.634    25082222.552   131807980.851    25082225.652   102707517.278                                  
G17  20052114.422   105374578.794    20052114.485   105374579.069    20052112.935    82110062.804    20052113.265    82110062.563  
G28  23585958.655   123945049.946    23585957.123   123945049.216    23585957.947    96580558.149                                  
G23  21924103.224   115211948.542    21924102.595   115211949.817    21924099.896    89775544.919                                  
G24  24684272.539   129716710.298    24684271.382   129716715.525    24684273.564   101077959.557                                  
G12  24874483.721   130716298.462    24874483.436   130716297.721    24874483.856   101856856.806    24874484.804   101856856.573  
G20  22145284.742   116374260.789    22145283.741   116374259.062    22145282.590    90681241.847                                  
R20  19278484.539   103090718.936    19278484.545   103090718.240    19278491.911    80181671.103    19278491.464    80181670.341  
R06  20672300.000   110311356.987    20672300.449   110311356.282    20672305.321    85797720.265    20672305.711    85797721.483  
S29  40076078.794   210601201.091  
S37  40104142.555   210748696.351  
J01  38775102.555   203764543.966    38775102.780   203764544.731    38775101.260   203764534.052    38775102.369   158777567.697    38775106.620   152161835.881  
> 2011 01 15 02 27 57.0000000  0 20                     
G11  24480736.397   128647140.527    24480734.472   128647140.785    24480733.996   100244525.470                                  
G02  24344140.904   127929336.431    24344140.089   127929337.689    24344139.567    99685199.105                                  
R05  19230957.997   102800494.972    19230958.294   102800494.277    19230964.859    79955940.732    19230964.745    79955940.971  
R21  22115424.460   118344099.324    22115424.394   118344106.622    22115430.024    92045414.932    22115430.141    92045417.177  
R19  21023179.137   112459834.183    21023178.954   112459834.491    21023184.224    87468759.186    21023184.254    87468760.422  
G10  22316965.309   117276444.738    22316964.044   117276448.012    22316964.455    91384245.846                                  
G13  22288258.961   117125596.990    22288257.894   117125599.250    22288257.289    91266700.847                                  
G04  21398448.990   112449610.965    21398448.513   112449611.242    21398448.097    87623073.969                                  
G32  25082914.431   131811613.664    25082913.091   131811612.886    25082916.892   102710347.412                                  
G17  20052205.586   105375057.167    20052205.595   105375057.445    20052203.880    82110435.563    20052204.057    82110435.323  
G28  23586613.063   123948489.250    23586611.360   123948488.514    23586612.115    96583238.132                                  
G23  21924007.195   115211443.074    21924006.487   115211444.348    21924003.573    89775151.049                                  
G24  24684795.614   129719463.674    24684795.197   129719468.910    24684797.367   101080105.032                                  
G12  24874197.129   130714786.526    24874196.091   130714785.791    24874195.822   101855678.677    24874195.525   101855678.441  
G20  22145871.385   116377344.918    22145870.258   116377343.190    22145869.787    90683645.070                                  
R20  19278361.162   103090059.491    19278361.237   103090058.798    19278368.438    80181158.201    19278368.252    80181157.442  
R06  20671819.429   110308788.486    20671819.090   110308787.782    20671824.385    85795722.545    20671824.286    85795723.763  
S29  40076125.628   210601445.372  
S37  40104187.650   210748940.309  
J01  38775134.711   203764711.846    38775134.483   203764712.606    38775133.053   203764701.920    38775134.441   158777698.514    38775138.497   152161961.247  
> 2011 01 15 02 27 58.0000000  0 20                     
G11  24481324.359   128650228.676    24481322.404   128650228.932    24481321.442   100246931.804                                  
G02  24343689.168   127926960.742    24343687.957   127926962.005    24343687.693    99683347.921                                  
R05  19231190.285   102801737.006    19231190.414   102801736.309    19231197.264    79956906.759    19231197.585    79956906.995  
R21  22114773.671   118340612.803    22114773.179   118340620.097    22114779.097    92042703.195    22114778.632    92042705.438  
R19  21023743.499   112462853.081    21023743.433   112462853.392    21023749.342    87471107.219    21023748.314    87471108.456  
G10  22316439.428   117273682.748    22316437.897   117273686.029    22316439.135    91382093.651                                  
G13  22287778.268   117123073.522    22287777.893   117123075.779    22287777.561    91264734.507                                  
G04  21398166.310   112448123.750    21398165.710   112448124.028    21398165.141    87621915.110                                  
G32  25083604.922   131815245.680    25083604.760   131815244.901    25083607.959   102713177.537                                  
G17  20052296.633   105375536.126    20052296.750   105375536.403    20052295.110    82110808.778    20052295.263    82110808.537  
G28  23587266.901   123951928.661    23587266.214   123951927.921    23587266.772    96585918.199                                  
G23  21923910.925   115210938.197    21923910.206   115210939.472    21923907.634    89774757.639                                  
G24  24685320.622   129722217.088    24685318.931   129722222.290    24685321.228   101082250.554                                  
G12  24873908.447   130713275.117    24873908.051   130713274.379    24873908.348   101854500.957    24873908.938   101854500.713  
G20  22146458.523   116380429.273    22146457.471   116380427.539    22146456.244    90686048.463                                  
R20  19278238.229   103089400.681    19278237.999   103089399.983    19278244.756    80180645.792    19278245.092    80180645.032  
R06  20671337.414   110306220.549    20671338.022   110306219.844    20671342.744    85793725.260    20671343.131    85793726.477  
S29  40076172.977   210601690.032  
S37  40104234.013   210749183.868  
J01  38775166.597   203764879.634    38775166.513   203764880.392    38775164.660   203764869.708    38775166.390   158777829.258    38775170.440   152162086.543  
> 2011 01 15 02 27 59.0000000  0 20                     
G11  24481911.625   128653316.828    24481909.871   128653317.096    24481908.933   100249338.170                                  
G02  24343236.592   127924584.904    24343235.893   127924586.168    24343235.995    99681496.617                                  
R05  19231423.545   102802979.628    19231422.915   102802978.934    19231429.969    79957873.244    19231430.017    79957873.483  
R21  22114121.964   118337126.296    22114121.457   118337133.588    22114127.069    92039991.467    22114127.309    92039993.709  
R19  21024308.305   112465872.385    21024307.670   112465872.695    21024312.940    87473455.568    21024312.928    87473456.804  
G10  22315914.120   117270920.971    22315912.171   117270924.245    22315913.721    91379941.622                                  
G13  22287298.855   117120550.296    22287297.923   117120552.562    22287297.473    91262768.355                                  
G04  21397883.503   112446636.633    21397882.454   112446636.907    21397882.358    87620756.312                                  
G32  25084298.000   131818877.532    25084295.892   131818876.782    25084298.920   102716007.547                                  
G17  20052387.893   105376015.554    20052387.905   105376015.829    20052386.181    82111182.355    20052386.418    82111182.115  
G28  23587921.309   123955368.034    23587920.643   123955367.302    23587921.063    96588598.212                                  
G23  21923814.803   115210433.805    21923814.242   115210435.081    21923811.373    89774364.604                                  
G24  24685843.241   129724970.411    24685842.735   129724975.618    24685845.313   101084396.000                                  
G12  24873620.667   130711764.084    24873620.967   130711763.357    24873621.005   101853323.534    24873621.179   101853323.285  
G20  22147045.154   116383513.714    22147044.572   116383511.991    22147043.424    90688451.923                                  
R20  19278114.502   103088742.380    19278114.877   103088741.687    19278122.000    80180133.783    19278121.976    80180133.021  
R06  20670856.100   110303653.045    20670856.691   110303652.341    20670862.714    85791728.313    20670862.195    85791729.534  
S29  40076219.064   210601934.219  
S37  40104281.449   210749427.041  
J01  38775198.051   203765047.223    38775198.366   203765047.975    38775196.804   203765037.293    38775198.336   158777959.845    38775202.362   152162211.689  
> 2011 01 15 02 28 00.0000000  0 20                     
G11  24482498.988   128656405.183    24482497.531   128656405.444    24482496.910   100251744.666                                  
G02  24342784.028   127922209.182    24342783.746   127922210.447    24342784.055    99679645.398                                  
R05  19231655.902   102804223.048    19231655.524   102804222.356    19231661.571    79958840.348    19231662.122    79958840.584  
R21  22113469.975   118333640.021    22113469.729   118333647.312    22113475.216    92037279.923    22113475.572    92037282.166  
R19  21024872.913   112468892.332    21024872.191   112468892.643    21024877.176    87475804.415    21024877.329    87475805.649  
G10  22315387.795   117268159.643    22315387.163   117268162.916    22315387.733    91377789.938                                  
G13  22286817.580   117118027.527    22286817.484   117118029.796    22286816.708    91260802.563                                  
G04  21397600.248   112445149.818    21397599.714   112445150.096    21397598.964    87619597.755                                  
G32  25084987.573   131822509.477    25084987.016   131822508.708    25084989.993   102718837.649                                  
G17  20052479.284   105376495.686    20052479.242   105376495.961    20052477.821    82111556.489    20052478.115    82111556.248  
G28  23588575.420   123958807.571    23588575.159   123958806.829    23588575.876    96591278.385                                  
G23  21923719.145   115209930.107    21923718.432   115209931.379    21923715.715    89773972.116                                  
G24  24686367.467   129727723.853    24686366.775   129727729.053    24686369.134   101086541.538                                  
G12  24873334.194   130710253.698    24873333.490   130710252.943    24873333.717   101852146.596    24873334.272   101852146.354  
G20  22147632.528   116386598.472    22147631.263   116386596.742    22147630.759    90690855.633                                  
R20  19277991.287   103088084.825    19277992.043   103088084.133    19277998.174    80179622.350    19277999.160    80179621.590  
R06  20670375.590   110301086.211    20670375.830   110301085.506    20670382.665    85789731.887    20670381.073    85789733.105  
S29  40076265.358   210602178.897  
S37  40104326.478   210749670.469  
J01  38775230.626   203765214.821    38775230.327   203765215.579    38775228.072   203765204.899    38775230.093   158778090.442    38775234.152   152162336.845  
> 2011 01 15 02 28 01.0000000  0 20                     
G11  24483086.653   128659493.671    24483085.466   128659493.906    24483085.349   100254151.309                                  
G02  24342332.337   127919833.509    24342330.904   127919834.793    24342332.517    99677794.244                                  
R05  19231888.244   102805467.244    19231888.382   102805466.550    19231895.166    79959808.055    19231895.229    79959808.294  
R21  22112818.517   118330153.967    22112818.334   118330161.258    22112823.578    92034568.548    22112824.168    92034570.791  
R19  21025437.276   112471912.892    21025436.913   112471913.204    21025441.347    87478153.740    21025442.201    87478154.973  
G10  22314862.583   117265398.749    22314861.498   117265402.023    22314862.307    91375638.589                                  
G13  22286338.050   117115505.217    22286337.894   117115507.486    22286336.326    91258837.127                                  
G04  21397317.474   112443663.277    21397316.773   112443663.552    21397316.497    87618439.413                                  
G32  25085681.242   131826141.480    25085678.337   131826140.689    25085680.856   102721667.797                                  
G17  20052570.940   105376976.482    20052570.802   105376976.757    20052569.099    82111931.132    20052569.585    82111930.894  
G28  23589230.314   123962247.273    23589229.147   123962246.545    23589230.395    96593958.663                                  
G23  21923623.286   115209427.090    21923622.474   115209428.364    21923620.393    89773580.154                                  
G24  24686892.479   129730477.404    24686890.081   129730482.619    24686892.503   101088687.150                                  
G12  24873045.788   130708743.844    24873046.363   130708743.090    24873046.333   101850970.111    24873047.979   101850969.849  
G20  22148219.621   116389683.541    22148218.682   116389681.817    22148217.837    90693259.576                                  
R20  19277868.115   103087427.991    19277869.131   103087427.294    19277875.388    80179111.474    19277876.167    80179110.717  
R06  20669895.103   110298520.006    20669894.822   110298519.302    20669900.889    85787735.952    20669900.044    85787737.170  
S29  40076312.185   210602423.592  
S37  40104373.239   210749913.805  
J01  38775262.890   203765382.415    38775262.123   203765383.180    38775259.634   203765372.499    38775262.072   158778221.035    38775266.146   152162461.997  
> 2011 01 15 02 28 02.0000000  0 20                     
G11  24483674.891   128662582.202    24483673.020   128662582.464    24483673.281   100256557.942                                  
G02  24341880.727   127917457.791    24341878.673   127917459.054    24341880.409    99675943.040                                  
R05  19232121.057   102806712.090    19232121.237   102806711.394    19232128.117    79960776.272    19232127.835    79960776.511  
R21  22112166.996   118326667.999    22112166.957   118326675.293    22112173.535    92031857.247    22112172.839    92031859.488  
R19  21026002.247   112474933.948    21026001.809   112474934.260    21026007.283    87480503.448    21026006.986    87480504.683  
G10  22314338.060   117262638.150    22314335.947   117262641.422    22314337.083    91373487.478                                  
G13  22285858.035   117112983.212    22285858.307   117112985.472    22285856.835    91256871.934                                  
G04  21397034.443   112442176.890    21397033.853   112442177.168    21397033.082    87617281.194                                  
G32  25086370.213   131829773.413    25086368.972   131829772.613    25086372.165   102724497.850                                  
G17  20052662.497   105377457.839    20052662.314   105377458.115    20052660.695    82112306.216    20052661.001    82112305.977  
G28  23589885.249   123965686.997    23589884.095   123965686.269    23589885.114    96596638.961                                  
G23  21923527.982   115208924.630    21923527.287   115208925.905    21923524.607    89773188.629                                  
G24  24687415.077   129733230.921    24687413.995   129733236.122    24687416.690   101090832.736                                  
G12  24872759.147   130707234.477    24872759.393   130707233.749    24872759.132   101849793.970    24872759.561   101849793.724  
G20  22148806.479   116392768.779    22148804.872   116392767.050    22148804.381    90695663.652                                  
R20  19277746.552   103086771.752    19277746.459   103086771.056    19277753.477    80178601.064    19277753.534    80178600.309  
R06  20669414.146   110295954.332    20669414.056   110295953.628    20669419.938    85785740.427    20669419.327    85785741.648  
S29  40076358.219   210602668.462  
S37  40104420.181   210750157.353  
J01  38775293.793   203765549.898    38775293.535   203765550.658    38775291.811   203765539.974    38775293.934   158778351.540    38775297.978   152162587.065  
> 2011 01 15 02 28 03.0000000  0 20                     
G11  24484262.295   128665670.822    24484260.844   128665671.122    24484260.904   100258964.645                                  
G02  24341428.319   127915082.032    24341426.841   127915083.290    24341427.902    99674091.804                                  
R05  19232354.076   102807957.610    19232354.271   102807956.916    19232361.145    79961745.008    19232360.696    79961745.244  
R21  22111515.298   118323182.129    22111515.334   118323189.423    22111522.814    92029146.017    22111521.363    92029148.259  
R19  21026567.388   112477955.497    21026566.630   112477955.811    21026570.989    87482853.543    21026571.600    87482854.777  
G10  22313812.617   117259877.867    22313811.235   117259881.139    22313812.491    91371336.611                                  
G13  22285378.229   117110461.556    22285377.515   117110463.823    22285376.847    91254907.003                                  
G04  21396751.847   112440690.670    21396751.115   112440690.951    21396750.999    87616123.098                                  
G32  25087061.640   131833405.334    25087059.778   131833404.556    25087063.468   102727327.912                                  
G17  20052754.146   105377939.753    20052754.077   105377940.031    20052752.569    82112681.731    20052752.839    82112681.494  
G28  23590539.420   123969126.779    23590538.776   123969126.061    23590539.378    96599319.301                                  
G23  21923432.388   115208422.732    21923431.281   115208424.007    21923428.817    89772797.543                                  
G24  24687940.442   129735984.447    24687938.275   129735989.638    24687940.958   101092978.347                                  
G12  24872471.580   130705725.624    24872471.670   130705724.877    24872472.093   101848618.230    24872473.154   101848617.990  
G20  22149393.353   116395854.201    22149392.529   116395852.475    22149391.695    90698067.878                                  
R20  19277623.880   103086116.117    19277623.709   103086115.425    19277630.898    80178091.131    19277631.054    80178090.374  
R06  20668933.288   110293389.194    20668933.312   110293388.489    20668939.056    85783745.320    20668938.939    85783746.542  
S29  40076403.008   210602913.206  
S37  40104466.864   210750401.190  
J01  38775325.715   203765717.254    38775325.319   203765718.016    38775323.763   203765707.335    38775325.412   158778481.949    38775329.780   152162712.040  
> 2011 01 15 02 28 04.0000000  0 20                     
G11  24484850.991   128668759.467    24484848.749   128668759.736    24484849.459   100261371.402                                  
G02  24340976.556   127912706.214    24340974.811   127912707.486    24340975.758    99672240.504                                  
R05  19232587.624   102809203.805    19232587.459   102809203.111    19232594.168    79962714.273    19232594.267    79962714.506  
R21  22110864.125   118319696.356    22110864.014   118319703.652    22110869.644    92026434.865    22110869.935    92026437.106  
R19  21027131.862   112480977.505    21027131.364   112480977.815    21027135.573    87485203.990    21027136.637    87485205.225  
G10  22313287.117   117257117.887    22313285.600   117257121.157    22313286.979    91369185.979                                  
G13  22284898.309   117107940.206    22284898.369   117107942.471    22284897.598    91252942.319                                  
G04  21396468.702   112439204.605    21396468.192   112439204.881    21396468.132    87614965.126                                  
G32  25087751.054   131837037.133    25087750.865   131837036.355    25087754.706   102730157.896                                  
G17  20052846.221   105378422.210    20052845.766   105378422.487    20052844.309    82113057.672    20052844.555    82113057.433  
G28  23591194.584   123972566.582    23591193.834   123972565.847    23591193.735    96601999.663                                  
G23  21923336.862   115207921.367    21923335.935   115207922.640    21923333.603    89772406.868                                  
G24  24688463.805   129738737.947    24688462.210   129738743.146    24688465.154   101095123.923                                  
G12  24872185.506   130704217.191    24872184.787   130704216.456    24872184.634   101847442.841    24872185.308   101847442.590  
G20  22149980.401   116398939.791    22149979.690   116398938.067    22149978.263    90700472.234                                  
R20  19277501.381   103085461.065    19277501.432   103085460.372    19277508.598    80177581.644    19277508.256    80177580.887  
R06  20668452.310   110290824.578    20668452.484   110290823.872    20668458.045    85781750.621    20668458.051    85781751.842  
S29  40076448.738   210603157.574  
S37  40104513.698   210750645.297  
J01  38775357.421   203765884.478    38775356.866   203765885.239    38775355.322   203765874.554    38775357.580   158778612.252    38775361.588   152162836.914  
> 2011 01 15 02 28 05.0000000  0 20                     
G11  24485437.694   128671848.385    24485436.792   128671848.630    24485437.092   100263778.353                                  
G02  24340524.741   127910330.574    24340522.355   127910331.845    24340523.815    99670389.371                                  
R05  19232820.850   102810450.937    19232820.760   102810450.242    19232826.771    79963684.264    19232827.428    79963684.499  
R21  22110212.484   118316210.922    22110213.006   118316218.216    22110218.999    92023723.972    22110218.507    92023726.213  
R19  21027697.087   112484000.221    21027696.422   112484000.528    21027700.766    87487554.991    21027701.803    87487556.222  
G10  22312761.748   117254358.452    22312760.786   117254361.725    22312761.985    91367035.771                                  
G13  22284418.830   117105419.417    22284418.203   117105421.681    22284417.526    91250978.071                                  
G04  21396186.061   112437718.939    21396185.617   112437719.215    21396185.221    87613807.464                                  
G32  25088445.494   131840669.182    25088442.604   131840668.406    25088446.345   102732988.025                                  
G17  20052938.423   105378905.471    20052937.778   105378905.746    20052936.276    82113434.239    20052936.705    82113433.999  
G28  23591849.418   123976006.672    23591848.095   123976005.940    23591848.317    96604680.242                                  
G23  21923241.848   115207420.816    21923240.760   115207422.091    21923238.080    89772016.825                                  
G24  24688988.814   129741491.680    24688986.694   129741496.917    24688988.793   101097269.704                                  
G12  24871898.440   130702709.489    24871897.604   130702708.748    24871897.774   101846268.002    24871897.930   101846267.765  
G20  22150567.550   116402025.811    22150567.238   116402024.091    22150565.721    90702876.930                                  
R20  19277378.811   103084806.865    19277379.069   103084806.171    19277386.729    80177072.820    19277385.770    80177072.065  
R06  20667972.076   110288260.751    20667972.172   110288260.045    20667977.895    85779756.533    20667977.556    85779757.754  
S29  40076495.434   210603402.703  
S37  40104560.412   210750889.687  
J01  38775389.462   203766051.833    38775389.289   203766052.591    38775387.364   203766041.908    38775389.088   158778742.660    38775393.495   152162961.887  
> 2011 01 15 02 28 06.0000000  0 20                     
G11  24486025.782   128674937.332    24486024.487   128674937.616    24486024.550   100266185.308                                  
G02  24340073.062   127907954.847    24340070.805   127907956.119    24340072.133    99668538.154                                  
R05  19233054.472   102811698.703    19233054.167   102811698.008    19233060.585    79964654.749    19233060.516    79964654.982  
R21  22109560.868   118312725.531    22109561.497   118312732.826    22109566.450    92021013.114    22109567.253    92021015.355  
R19  21028261.749   112487023.371    21028261.614   112487023.680    21028266.219    87489906.327    21028267.098    87489907.562  
G10  22312236.515   117251599.275    22312235.367   117251602.545    22312236.356    91364885.759                                  
G13  22283939.771   117102898.921    22283939.003   117102901.187    22283937.966    91249014.040                                  
G04  21395903.131   112436233.360    21395902.799   112436233.639    21395902.697    87612649.869                                  
G32  25089136.090   131844301.026    25089134.075   131844300.273    25089137.535   102735818.054                                  
G17  20053030.645   105379389.239    20053029.886   105379389.516    20053028.291    82113811.202    20053028.660    82113810.961  
G28  23592503.673   123979446.747    23592502.827   123979446.012    23592502.815    96607360.822                                  
G23  21923146.802   115206920.787    21923145.432   115206922.067    21923143.166    89771627.201                                  
G24  24689511.847   129744245.355    24689511.430   129744250.565    24689513.115   101099415.397                                  
G12  24871610.702   130701202.265    24871610.558   130701201.513    24871611.116   101845093.564    24871611.404   101845093.308  
G20  22151155.203   116405111.953    22151154.280   116405110.237    22151152.871    90705281.717                                  
R20  19277257.039   103084153.208    19277256.694   103084152.516    19277264.222    80176564.422    19277263.919    80176563.663  
R06  20667492.093   110285697.402    20667491.766   110285696.695    20667498.080    85777762.819    20667497.243    85777764.040  
S29  40076542.648   210603647.698  
S37  40104607.035   210751133.822  
J01  38775421.282   203766219.008    38775421.124   203766219.770    38775419.292   203766209.076    38775420.995   158778872.925    38775425.303   152163086.725  
> 2011 01 15 02 28 07.0000000  0 20                     
G11  24486613.381   128678026.297    24486612.428   128678026.544    24486611.822   100268592.302                                  
G02  24339619.878   127905579.059    24339619.038   127905580.310    24339620.109    99666686.910                                  
R05  19233287.594   102812947.131    19233287.777   102812946.437    19233294.255    79965625.747    19233294.330    79965625.981  
R21  22108910.249   118309240.230    22108910.147   118309247.525    22108915.052    92018302.325    22108916.029    92018304.571  
R19  21028826.546   112490046.996    21028826.816   112490047.307    21028831.127    87492258.036    21028832.353    87492259.271  
G10  22311711.815   117248840.404    22311710.946   117248843.674    22311711.719    91362735.996                                  
G13  22283459.362   117100378.723    22283459.107   117100380.985    22283458.325    91247050.260                                  
G04  21395620.862   112434747.969    21395620.055   112434748.244    21395620.076    87611492.426                                  
G32  25089826.721   131847932.855    25089825.192   131847932.084    25089828.601   102738648.042                                  
G17  20053122.468   105379873.550    20053122.069   105379873.829    20053120.654    82114188.587    20053120.870    82114188.348  
G28  23593158.143   123982886.840    23593157.733   123982886.095    23593157.496    96610041.419                                  
G23  21923051.579   115206421.298    21923050.824   115206422.575    21923048.491    89771237.985                                  
G24  24690035.677   129746999.002    24690035.371   129747004.225    24690036.636   101101561.122                                  
G12  24871324.346   130699695.475    24871324.496   130699694.739    24871324.562   101843919.442    24871324.328   101843919.190  
G20  22151742.461   116408198.277    22151741.531   116408196.559    22151740.566    90707686.648                                  
R20  19277134.217   103083500.146    19277134.690   103083499.457    19277141.688    80176056.485    19277141.720    80176055.727  
R06  20667011.592   110283134.577    20667011.421   110283133.873    20667016.730    85775769.516    20667017.156    85775770.736  
S29  40076590.123   210603892.437  
S37  40104652.112   210751377.309  
J01  38775453.576   203766386.062    38775453.135   203766386.817    38775451.034   203766376.132    38775452.686   158779003.097    38775457.051   152163211.474  
> 2011 01 15 02 28 08.0000000  0 20                     
G11  24487201.121   128681115.534    24487200.195   128681115.808    24487199.859   100270999.473                                  
G02  24339167.974   127903203.415    24339167.341   127903204.672    24339167.995    99664835.748                                  
R05  19233522.005   102814196.432    19233521.444   102814195.735    19233527.542    79966597.427    19233528.276    79966597.658  
R21  22108258.734   118305755.241    22108258.704   118305762.538    22108264.625    92015591.780    22108264.919    92015594.026  
R19  21029392.294   112493071.334    21029392.270   112493071.648    21029397.024    87494610.299    21029397.924    87494611.534  
G10  22311187.715   117246082.053    22311185.832   117246085.331    22311186.486    91360586.623                                  
G13  22282980.450   117097859.069    22282979.901   117097861.337    22282979.481    91245086.894                                  
G04  21395338.158   112433262.925    21395337.801   112433263.200    21395337.750    87610335.250                                  
G32  25090517.689   131851564.866    25090516.055   131851564.083    25090519.341   102741478.185                                  
G17  20053214.861   105380358.620    20053214.510   105380358.898    20053213.000    82114566.564    20053212.886    82114566.323  
G28  23593812.623   123986327.181    23593812.689   123986326.456    23593812.078    96612722.196                                  
G23  21922956.467   115205922.588    21922955.703   115205923.862    21922953.190    89770849.378                                  
G24  24690560.053   129749752.868    24690559.309   129749758.091    24690560.410   101103706.991                                  
G12  24871038.171   130698189.333    24871037.271   130698188.606    24871037.961   101842745.819    24871038.398   101842745.580  
G20  22152329.703   116411284.969    22152328.870   116411283.247    22152328.141    90710091.855                                  
R20  19277012.534   103082847.904    19277012.609   103082847.212    19277019.387    80175549.186    19277019.540    80175548.430  
R06  20666531.669   110280572.504    20666531.411   110280571.799    20666536.510    85773776.787    20666536.825    85773778.010  
S29  40076636.129   210604137.743  
S37  40104699.440   210751621.090  
J01  38775485.276   203766553.192    38775485.111   203766553.949    38775483.067   203766543.264    38775484.653   158779133.329    38775488.865   152163336.279  
> 2011 01 15 02 28 09.0000000  0 20                     
G11  24487789.461   128684204.628    24487787.692   128684204.853    24487788.454   100273406.608                                  
G02  24338716.054   127900827.573    24338714.852   127900828.824    24338715.836    99662984.435                                  
R05  19233755.639   102815446.224    19233755.150   102815445.527    19233761.428    79967569.485    19233762.070    79967569.720  
R21  22107607.714   118302270.169    22107607.480   118302277.463    22107612.651    92012881.169    22107613.482    92012883.417  
R19  21029957.732   112496095.994    21029957.600   112496096.303    21029961.953    87496962.809    21029962.820    87496964.047  
G10  22310661.867   117243323.835    22310660.797   117243327.105    22310661.909    91358437.364                                  
G13  22282500.797   117095339.589    22282500.212   117095341.853    22282499.957    91243123.660                                  
G04  21395055.918   112431777.885    21395054.578   112431778.165    21395055.007    87609178.075                                  
G32  25091208.339   131855196.614    25091207.302   131855195.824    25091210.360   102744308.141                                  
G17  20053307.284   105380844.083    20053306.736   105380844.359    20053305.153    82114944.846    20053305.432    82114944.606  
G28  23594466.573   123989767.373    23594466.816   123989766.629    23594466.681    96615402.859                                  
G23  21922861.724   115205424.261    21922860.917   115205425.535    21922858.741    89770461.075                                  
G24  24691082.636   129752506.520    24691084.174   129752511.737    24691083.784   101105852.686                                  
G12  24870750.448   130696683.550    24870750.454   130696682.811    24870750.688   101841572.493    24870752.040   101841572.245  
G20  22152917.428   116414371.693    22152916.199   116414369.975    22152915.108    90712497.095                                  
R20  19276890.312   103082196.098    19276890.800   103082195.404    19276898.802    80175042.222    19276897.833    80175041.465  
R06  20666050.775   110278010.786    20666051.179   110278010.080    20666056.168    85771784.344    20666056.956    85771785.564  
S29  40076681.188   210604382.174  
S37  40104746.034   210751864.456  
J01  38775516.742   203766720.030    38775516.311   203766720.792    38775514.482   203766710.106    38775515.924   158779263.334    38775520.604   152163460.865  
> 2011 01 15 02 28 10.0000000  0 20                     
G11  24488376.491   128687293.758    24488374.929   128687294.020    24488377.108   100275813.662                                  
G02  24338263.782   127898451.615    24338262.765   127898452.880    24338263.275    99661133.053                                  
R05  19233989.054   102816696.612    19233989.192   102816695.913    19233995.698    79968542.007    19233995.614    79968542.240  
R21  22106956.834   118298785.116    22106956.468   118298792.413    22106962.237    92010170.579    22106962.392    92010172.820  
R19  21030523.941   112499121.082    21030523.141   112499121.391    21030527.821    87499315.653    21030528.441    87499316.887  
G10  22310137.317   117240565.864    22310135.956   117240569.137    22310136.520    91356288.303                                  
G13  22282020.874   117092820.348    22282020.949   117092822.616    22282020.799    91241160.614                                  
G04  21394773.247   112430292.930    21394772.239   112430293.210    21394772.515    87608020.972                                  
G32  25091900.611   131858828.243    25091899.043   131858827.458    25091901.213   102747137.972                                  
G17  20053399.644   105381330.030    20053399.306   105381330.306    20053397.660    82115323.507    20053398.355    82115323.266  
G28  23595122.306   123993207.562    23595121.164   123993206.824    23595121.967    96618083.520                                  
G23  21922766.992   115204926.418    21922766.162   115204927.698    21922763.709    89770073.143                                  
G24  24691606.407   129755260.106    24691608.496   129755265.313    24691608.967   101107998.337                                  
G12  24870464.994   130695178.155    24870463.037   130695177.415    24870464.467   101840399.458    24870465.126   101840399.210  
G20  22153505.441   116417458.507    22153503.526   116417456.783    22153502.923    90714902.404                                  
R20  19276768.833   103081544.826    19276768.848   103081544.132    19276775.674    80174535.681    19276776.070    80174534.920  
R06  20665570.465   110275449.543    20665571.254   110275448.833    20665576.257    85769792.265    20665576.995    85769793.484  
S29  40076727.794   210604626.354  
S37  40104790.430   210752107.732  
J01  38775548.460   203766886.688    38775548.322   203766887.450    38775546.443   203766876.764    38775548.260   158779393.195    38775552.340   152163585.318  
> 2011 01 15 02 28 11.0000000  0 20                     
G11  24488965.100   128690382.983    24488963.185   128690383.189    24488964.941   100278220.896                                  
G02  24337811.955   127896075.705    24337810.699   127896076.956    24337810.993    99659281.691                                  
R05  19234223.807   102817947.776    19234223.393   102817947.079    19234229.872    79969515.136    19234229.965    79969515.367  
R21  22106305.130   118295300.263    22106304.978   118295307.554    22106311.489    92007460.133    22106311.063    92007462.379  
R19  21031089.050   112502146.762    21031088.681   112502147.070    21031093.442    87501668.959    21031093.823    87501670.195  
G10  22309612.426   117237808.291    22309611.532   117237811.571    22309612.573    91354139.544                                  
G13  22281541.641   117090301.530    22281541.734   117090303.788    22281540.702    91239197.901                                  
G04  21394490.788   112428808.232    21394489.913   112428808.510    21394489.949    87606864.062                                  
G32  25092590.226   131862459.908    25092590.238   131862459.111    25092591.995   102749967.860                                  
G17  20053492.337   105381816.638    20053491.702   105381816.915    20053490.254    82115702.681    20053490.922    82115702.441  
G28  23595775.688   123996647.884    23595776.189   123996647.135    23595777.046    96620764.293                                  
G23  21922672.006   115204429.259    21922671.847   115204430.537    21922668.921    89769685.749                                  
G24  24692131.325   129758013.790    24692131.820   129758019.037    24692132.986   101110144.072                                  
G12  24870178.678   130693673.337    24870177.580   130693672.591    24870178.519   101839226.847    24870179.739   101839226.625  
G20  22154092.534   116420545.617    22154091.272   116420543.904    22154090.447    90717307.948                                  
R20  19276646.805   103080894.267    19276647.225   103080893.574    19276653.847    80174029.691    19276654.573    80174028.931  
R06  20665092.056   110272888.932    20665091.520   110272888.223    20665096.979    85767800.680    20665097.189    85767801.901  
S29  40076774.717   210604870.865  
S37  40104835.012   210752351.586  
J01  38775579.879   203767053.322    38775580.017   203767054.080    38775578.047   203767043.397    38775579.816   158779523.041    38775584.043   152163709.753  
> 2011 01 15 02 28 12.0000000  0 20                     
G11  24489554.213   128693472.522    24489551.156   128693472.790    24489552.777   100280628.309                                  
G02  24337359.185   127893699.973    24337359.275   127893701.229    24337358.399    99657430.471                                  
R05  19234457.915   102819199.836    19234457.429   102819199.139    19234465.080    79970488.958    19234463.992    79970489.189  
R21  22105654.401   118291815.704    22105653.690   118291822.997    22105660.421    92004749.924    22105659.623    92004752.165  
R19  21031654.974   112505173.153    21031654.602   112505173.461    21031658.083    87504022.818    21031659.606    87504024.056  
G10  22309088.308   117235051.258    22309086.782   117235054.537    22309087.669    91351991.207                                  
G13  22281062.833   117087783.268    22281062.617   117087785.536    22281061.631    91237235.610                                  
G04  21394208.483   112427323.937    21394207.113   112427324.222    21394207.568    87605707.467                                  
G32  25093283.400   131866091.767    25093281.203   131866091.004    25093282.996   102752797.889                                  
G17  20053584.802   105382304.017    20053584.490   105382304.293    20053582.937    82116082.456    20053583.801    82116082.216  
G28  23596430.096   124000088.452    23596430.393   124000087.705    23596430.972    96623445.242                                  
G23  21922577.400   115203932.869    21922577.263   115203934.147    21922574.786    89769298.956                                  
G24  24692655.416   129760767.667    24692656.361   129760772.882    24692656.589   101112289.943                                  
G12  24869892.007   130692169.232    24869891.243   130692168.488    24869892.661   101838054.842    24869893.710   101838054.594  
G20  22154679.806   116423633.117    22154678.874   116423631.398    22154677.903    90719713.785                                  
R20  19276525.479   103080244.539    19276525.803   103080243.846    19276532.512    80173524.347    19276532.767    80173523.585  
R06  20664611.249   110270329.063    20664611.738   110270328.353    20664617.494    85765809.669    20664617.194    85765810.890  
S29  40076821.491   210605115.275  
S37  40104882.679   210752595.762  
J01  38775611.974   203767220.055    38775611.777   203767220.810    38775609.762   203767210.129    38775611.573   158779652.964    38775615.701   152163834.262  
> 2011 01 15 02 28 13.0000000  0 20                     
G11  24490141.723   128696561.985    24490139.333   128696562.220    24490139.543   100283035.700                                  
G02  24336907.461   127891324.065    24336907.122   127891325.330    24336906.049    99655579.121                                  
R05  19234691.852   102820452.470    19234691.834   102820451.775    19234698.124    79971463.228    19234698.243    79971463.464  
R21  22105003.671   118288331.148    22105002.547   118288338.444    22105009.257    92002039.718    22105008.525    92002041.962  
R19  21032220.704   112508199.922    21032220.329   112508200.232    21032224.547    87506376.970    21032225.809    87506378.205  
G10  22308563.314   117232294.440    22308561.869   117232297.718    22308562.708    91349843.041                                  
G13  22280583.678   117085265.224    22280583.738   117085267.485    22280582.695    91235273.506                                  
G04  21393925.976   112425839.715    21393924.999   112425839.996    21393925.206    87604550.936                                  
G32  25093973.349   131869723.438    25093972.605   131869722.697    25093973.996   102755627.759                                  
G17  20053677.777   105382791.849    20053677.303   105382792.129    20053675.765    82116462.585    20053676.518    82116462.346  
G28  23597085.119   124003528.955    23597084.957   124003528.221    23597086.273    96626126.158                                  
G23  21922482.756   115203436.935    21922482.909   115203438.213    21922480.223    89768912.514                                  
G24  24693180.290   129763521.451    24693180.293   129763526.678    24693180.701   101114435.734                                  
G12  24869606.257   130690665.501    24869605.840   130690664.764    24869605.915   101836883.081    24869607.015   101836882.846  
G20  22155267.400   116426720.701    22155266.557   116426718.979    22155264.728    90722119.695                                  
R20  19276403.470   103079595.314    19276404.402   103079594.622    19276411.507    80173019.394    19276411.444    80173018.633  
R06  20664132.469   110267769.637    20664132.115   110267768.928    20664138.234    85763819.004    20664137.496    85763820.228  
S29  40076869.221   210605359.875  
S37  40104930.367   210752839.850  
J01  38775643.513   203767386.563    38775643.600   203767387.321    38775641.333   203767376.644    38775643.099   158779782.712    38775647.464   152163958.605  
> 2011 01 15 02 28 14.0000000  0 20                     
G11  24490729.511   128699651.431    24490727.043   128699651.699    24490727.211   100285443.024                                  
G02  24336455.955   127888948.047    24336455.188   127888949.301    24336453.536    99653727.682                                  
R05  19234926.562   102821705.680    19234926.326   102821704.982    19234933.311    79972437.944    19234932.804    79972438.181  
R21  22104351.857   118284846.608    22104351.494   118284853.902    22104358.938    91999329.517    22104357.310    91999331.764  
R19  21032786.994   112511227.074    21032786.247   112511227.382    21032790.900    87508731.418    21032791.493    87508732.655  
G10  22308038.251   117229537.837    22308037.532   117229541.115    22308038.320    91347695.039                                  
G13  22280104.834   117082747.445    22280104.505   117082749.702    22280103.323    91233311.606                                  
G04  21393643.482   112424355.550    21393642.639   112424355.829    21393642.355    87603394.442                                  
G32  25094664.931   131873354.976    25094663.474   131873354.237    25094664.820   102758457.486                                  
G17  20053770.859   105383280.168    20053770.212   105383280.441    20053768.830    82116843.092    20053769.447    82116842.852  
G28  23597740.129   124006969.432    23597739.980   124006968.684    23597740.603    96628807.055                                  
G23  21922388.876   115202941.473    21922388.510   115202942.752    21922386.469    89768526.444                                  
G24  24693703.644   129766275.130    24693703.830   129766280.364    24693705.254   101116581.484                                  
G12  24869320.132   130689162.172    24869319.535   130689161.439    24869320.207   101835711.673    24869321.280   101835711.429  
G20  22155854.942   116429808.377    22155853.623   116429806.653    22155852.537    90724525.670                                  
R20  19276282.815   103078946.599    19276283.058   103078945.908    19276289.719    80172514.835    19276290.136    80172514.078  
R06  20663653.212   110265210.654    20663652.480   110265209.941    20663657.448    85761828.684    20663658.203    85761829.905  
S29  40076914.555   210605604.356  
S37  40104977.318   210753083.664  
J01  38775675.303   203767552.874    38775675.327   203767553.637    38775673.621   203767542.950    38775674.835   158779912.300    38775679.146   152164082.795  
> 2011 01 15 02 28 15.0000000  0 20                     
G11  24491316.801   128702741.079    24491315.149   128702741.331    24491314.646   100287850.554                                  
G02  24336003.664   127886572.142    24336003.071   127886573.412    24336001.398    99651876.323                                  
R05  19235160.859   102822959.723    19235160.835   102822959.027    19235167.458    79973413.310    19235167.497    79973413.546  
R21  22103701.046   118281362.341    22103700.399   118281369.632    22103705.273    91996619.538    22103706.038    91996621.779  
R19  21033353.346   112514254.880    21033352.375   112514255.188    21033357.070    87511086.382    21033357.816    87511087.615  
G10  22307513.717   117226781.708    22307512.796   117226784.987    22307513.926    91345547.407                                  
G13  22279625.979   117080230.132    22279625.451   117080232.391    22279624.408    91231350.054                                  
G04  21393360.930   112422871.708    21393359.875   112422871.991    21393360.169    87602238.199                                  
G32  25095355.365   131876986.624    25095354.753   131876985.865    25095356.354   102761287.352                                  
G17  20053864.155   105383769.196    20053863.279   105383769.473    20053861.765    82117224.151    20053862.452    82117223.915  
G28  23598395.338   124010410.071    23598395.071   124010409.328    23598395.374    96631488.057                                  
G23  21922294.750   115202446.748    21922294.648   115202448.027    21922292.181    89768140.943                                  
G24  24694227.255   129769028.965    24694227.852   129769034.205    24694229.030   101118727.320                                  
G12  24869034.118   130687659.455    24869033.437   130687658.714    24869034.556   101834540.724    24869034.724   101834540.481  
G20  22156442.595   116432896.402    22156441.249   116432894.680    22156440.592    90726931.932                                  
R20  19276161.549   103078298.654    19276161.879   103078297.963    19276168.249    80172010.881    19276168.723    80172010.121  
R06  20663173.475   110262652.365    20663173.199   110262651.654    20663178.106    85759838.905    20663178.691    85759840.127  
S29  40076959.884   210605848.718  
S37  40105024.955   210753327.615  
J01  38775707.123   203767719.225    38775706.646   203767719.978    38775705.138   203767709.299    38775706.541   158780041.926    38775710.804   152164207.019  
> 2011 01 15 02 28 16.0000000  0 20                     
G11  24491904.619   128705831.010    24491903.156   128705831.234    24491902.665   100290258.306                                  
G02  24335551.175   127884196.377    24335550.423   127884197.643    24335548.978    99650025.090                                  
R05  19235396.067   102824214.643    19235395.612   102824213.948    19235401.668    79974389.360    19235402.165    79974389.598  
R21  22103049.894   118277878.373    22103049.255   118277885.664    22103055.287    91993909.785    22103055.044    91993912.025  
R19  21033919.523   112517283.367    21033918.521   112517283.675    21033922.529    87513441.869    21033923.855    87513443.103  
G10  22306989.458   117224026.084    22306988.873   117224029.362    22306989.467    91343400.166                                  
G13  22279146.776   117077713.363    22279146.374   117077715.621    22279145.172    91229388.936                                  
G04  21393078.694   112421388.203    21393078.025   112421388.476    21393077.776    87601082.222                                  
G32  25096045.175   131880618.442    25096046.018   131880617.682    25096047.106   102764117.345                                  
G17  20053957.090   105384258.985    20053956.584   105384259.263    20053955.103    82117605.809    20053955.463    82117605.569  
G28  23599051.089   124013850.994    23599050.196   124013850.255    23599050.034    96634169.299                                  
G23  21922201.071   115201952.781    21922200.519   115201954.061    21922197.758    89767756.033                                  
G24  24694750.996   129771782.979    24694751.508   129771788.210    24694753.178   101120873.324                                  
G12  24868749.312   130686157.436    24868747.828   130686156.679    24868748.551   101833370.316    24868748.209   101833370.074  
G20  22157030.761   116435984.809    22157029.700   116435983.088    22157028.485    90729338.483                                  
R20  19276040.571   103077651.540    19276040.931   103077650.846    19276047.643    80171507.566    19276047.898    80171506.805  
R06  20662693.885   110260094.812    20662693.810   110260094.100    20662699.344    85757849.701    20662699.176    85757850.924  
S29  40077006.969   210606093.610  
S37  40105070.338   210753571.539  
J01  38775738.481   203767885.652    38775738.691   203767886.413    38775736.790   203767875.727    38775738.121   158780171.611    38775742.444   152164331.299  
> 2011 01 15 02 28 17.0000000  0 20                     
G11  24492493.115   128708920.942    24492491.367   128708921.181    24492491.241   100292666.020                                  
G02  24335098.930   127881820.572    24335098.978   127881821.839    24335097.521    99648173.808                                  
R05  19235630.493   102825470.210    19235630.619   102825469.513    19235636.690    79975365.910    19235637.241    79975366.146  
R21  22102398.913   118274394.481    22102398.232   118274401.771    22102403.910    91991200.095    22102403.949    91991202.334  
R19  21034484.880   112520312.325    21034484.688   112520312.631    21034489.911    87515797.722    21034489.647    87515798.962  
G10  22306465.279   117221270.761    22306464.971   117221274.042    22306465.312    91341253.160                                  
G13  22278667.845   117075196.896    22278667.363   117075199.160    22278666.109    91227428.059                                  
G04  21392796.469   112419904.842    21392795.669   112419905.119    21392795.549    87599926.356                                  
G32  25096736.431   131884250.151    25096736.911   131884249.416    25096737.693   102766947.241                                  
G17  20054050.446   105384749.320    20054049.768   105384749.595    20054048.275    82117987.885    20054049.184    82117987.646  
G28  23599704.927   124017291.914    23599704.663   124017291.182    23599704.870    96636850.536                                  
G23  21922107.107   115201459.354    21922106.549   115201460.632    21922104.196    89767371.543                                  
G24  24695275.665   129774536.989    24695275.908   129774542.229    24695276.817   101123019.297                                  
G12  24868462.597   130684655.885    24868461.637   130684655.142    24868462.294   101832200.284    24868464.096   101832200.034  
G20  22157617.937   116439073.375    22157617.290   116439071.651    22157615.821    90731745.150                                  
R20  19275919.970   103077005.000    19275919.844   103077004.306    19275926.653    80171004.701    19275926.836    80171003.941  
R06  20662215.431   110257537.763    20662214.606   110257537.050    20662219.991    85755860.883    20662219.793    85755862.107  
S29  40077055.281   210606338.451  
S37  40105116.275   210753815.483  
J01  38775770.433   203768051.940    38775770.607   203768052.703    38775768.310   203768042.019    38775769.770   158780301.185    38775774.126   152164455.475  
> 2011 01 15 02 28 18.0000000  0 20                     
G11  24493080.936   128712010.917    24493079.344   128712011.165    24493078.792   100295073.801                                  
G02  24334647.043   127879444.699    24334646.780   127879445.952    24334645.149    99646322.475                                  
R05  19235865.818   102826726.458    19235865.719   102826725.764    19235872.315    79976342.993    19235872.225    79976343.230  
R21  22101748.222   118270910.695    22101747.239   118270917.989    22101753.621    91988490.488    22101752.905    91988492.725  
R19  21035051.704   112523341.780    21035051.095   112523342.089    21035056.794    87518153.967    21035056.147    87518155.201  
G10  22305940.775   117218515.763    22305940.070   117218519.039    22305941.347    91339106.413                                  
G13  22278189.110   117072680.774    22278188.672   117072683.031    22278187.260    91225467.445                                  
G04  21392513.711   112418421.687    21392513.435   112418421.961    21392513.090    87598770.652                                  
G32  25097426.850   131887881.838    25097427.785   131887881.069    25097429.101   102769777.123                                  
G17  20054143.816   105385240.216    20054143.327   105385240.494    20054141.733    82118370.404    20054142.437    82118370.163  
G28  23600360.417   124020732.886    23600359.137   124020732.152    23600359.164    96639531.802                                  
G23  21922013.257   115200966.503    21922012.780   115200967.784    21922010.193    89766987.508                                  
G24  24695800.407   129777290.995    24695799.957   129777296.248    24695801.495   101125165.279                                  
G12  24868178.154   130683154.797    24868176.022   130683154.064    24868177.347   101831030.608    24868177.020   101831030.359  
G20  22158205.240   116442162.132    22158204.925   116442160.405    22158203.567    90734151.977                                  
R20  19275798.255   103076359.083    19275798.986   103076358.389    19275806.310    80170502.321    19275806.118    80170501.563  
R06  20661735.874   110254981.254    20661735.532   110254980.544    20661740.713    85753872.492    20661740.826    85753873.713  
S29  40077101.689   210606583.118  
S37  40105162.704   210754059.394  
J01  38775802.043   203768218.122    38775801.707   203768218.883    38775799.950   203768208.201    38775801.329   158780430.678    38775805.727   152164579.573  
> 2011 01 15 02 28 19.0000000  0 20                     
G11  24493669.411   128715101.175    24493666.796   128715101.410    24493667.255   100297481.770                                  
G02  24334194.054   127877068.998    24334194.477   127877070.248    24334193.296    99644471.282                                  
R05  19236101.065   102827983.586    19236100.721   102827982.892    19236107.688    79977320.761    19236107.109    79977320.998  
R21  22101096.108   118267427.205    22101096.398   118267434.497    22101102.055    91985781.108    22101102.109    91985783.346  
R19  21035617.583   112526371.933    21035617.622   112526372.242    21035621.174    87520510.755    21035622.856    87520511.989  
G10  22305416.869   117215761.278    22305416.003   117215764.554    22305416.824    91336960.067                                  
G13  22277710.953   117070165.179    22277709.897   117070167.442    22277708.686    91223507.245                                  
G04  21392231.570   112416938.865    21392231.228   112416939.137    21392231.145    87597615.209                                  
G32  25098117.629   131891513.616    25098119.164   131891512.815    25098120.771   102772607.066                                  
G17  20054237.423   105385731.872    20054236.938   105385732.148    20054235.178    82118753.511    20054235.915    82118753.271  
G28  23601015.395   124024174.087    23601014.238   124024173.355    23601013.995    96642213.268                                  
G23  21921919.641   115200474.413    21921918.987   115200475.690    21921916.751    89766604.059                                  
G24  24696324.441   129780045.186    24696323.707   129780050.432    24696325.134   101127311.388                                  
G12  24867891.312   130681654.403    24867890.416   130681653.659    24867891.306   101829861.479    24867891.384   101829861.228  
G20  22158793.118   116445251.264    22158792.560   116445249.546    22158791.637    90736559.097                                  
R20  19275677.876   103075713.977    19275678.511   103075713.283    19275685.862    80170000.574    19275685.554    80169999.816  
R06  20661256.623   110252425.483    20661256.509   110252424.773    20661262.388    85751884.672    20661261.950    85751885.892  
S29  40077148.004   210606828.028  
S37  40105209.954   210754303.338  
J01  38775833.473   203768384.393    38775833.428   203768385.148    38775831.470   203768374.460    38775832.781   158780560.239    38775837.343   152164703.736  
> 2011 01 15 02 28 20.0000000  0 20                     
G11  24494258.407   128718191.404    24494254.878   128718191.603    24494255.667   100299889.780                                  
G02  24333742.830   127874693.147    24333741.529   127874694.415    24333741.760    99642619.976                                  
R05  19236336.013   102829241.306    19236335.998   102829240.610    19236342.368    79978298.983    19236342.557    79978299.224  
R21  22100445.054   118263943.716    22100445.192   118263951.006    22100450.642    91983071.722    22100450.714    91983073.965  
R19  21036183.990   112529402.499    21036183.909   112529402.809    21036187.797    87522867.859    21036189.356    87522869.097  
G10  22304892.928   117213007.017    22304891.105   117213010.292    22304892.814    91334813.892                                  
G13  22277232.061   117067649.834    22277231.282   117067652.089    22277229.825    91221547.226                                  
G04  21391949.627   112415456.127    21391948.854   112415456.401    21391949.163    87596459.826                                  
G32  25098807.682   131895145.305    25098810.158   131895144.564    25098812.137   102775436.973                                  
G17  20054331.013   105386224.000    20054330.590   105386224.278    20054328.920    82119136.990    20054329.544    82119136.750  
G28  23601670.274   124027615.251    23601668.766   124027614.516    23601669.479    96644894.686                                  
G23  21921826.243   115199982.806    21921825.704   115199984.085    21921823.003    89766220.989                                  
G24  24696847.690   129782799.297    24696847.426   129782804.533    24696849.105   101129457.440                                  
G12  24867605.937   130680154.412    24867604.678   130680153.670    24867606.126   101828692.638    24867605.226   101828692.402  
G20  22159381.092   116448340.503    22159380.504   116448338.781    22159379.380    90738966.299                                  
R20  19275557.866   103075069.392    19275558.058   103075068.698    19275564.947    80169499.230    19275565.181    80169498.471  
R06  20660777.162   110249870.147    20660777.740   110249869.438    20660782.948    85749897.193    20660783.059    85749898.413  
S29  40077196.132   210607072.672  
S37  40105254.077   210754547.416  
J01  38775864.819   203768550.450    38775865.206   203768551.209    38775862.673   203768540.529    38775864.214   158780689.636    38775868.951   152164827.741  
> 2011 01 15 02 28 21.0000000  0 20                     
G11  24494845.688   128721281.868    24494843.185   128721282.099    24494844.393   100302297.915                                  
G02  24333290.273   127872317.444    24333290.144   127872318.697    24333289.373    99640768.783                                  
R05  19236571.434   102830499.884    19236571.449   102830499.190    19236577.226    79979277.878    19236578.359    79979278.116  
R21  22099794.750   118260460.513    22099794.205   118260467.803    22099799.385    91980362.566    22099800.015    91980364.805  
R19  21036751.755   112532433.745    21036750.625   112532434.052    21036756.743    87525225.489    21036755.907    87525226.726  
G10  22304368.972   117210253.254    22304367.536   117210256.532    22304368.507    91332668.102                                  
G13  22276753.221   117065135.001    22276752.501   117065137.259    22276751.476    91219587.623                                  
G04  21391667.442   112413973.761    21391666.803   112413974.037    21391667.001    87595304.739                                  
G32  25099499.036   131898777.122    25099500.796   131898776.355    25099503.569   102778266.973                                  
G17  20054425.102   105386716.881    20054424.380   105386717.158    20054422.734    82119521.050    20054423.037    82119520.812  
G28  23602323.989   124031056.650    23602323.563   124031055.916    23602324.187    96647576.284                                  
G23  21921732.834   115199491.938    21921731.956   115199493.212    21921729.252    89765838.496                                  
G24  24697371.646   129785553.561    24697371.452   129785558.804    24697373.601   101131603.635                                  
G12  24867321.919   130678655.101    24867319.653   130678654.381    24867320.420   101827524.350    24867321.188   101827524.116  
G20  22159969.356   116451430.114    22159968.640   116451428.401    22159967.366    90741373.788                                  
R20  19275437.182   103074425.598    19275437.772   103074424.907    19275444.110    80168998.501    19275444.568    80168997.745  
R06  20660298.126   110247315.538    20660299.035   110247314.830    20660304.401    85747910.275    20660304.488    85747911.496  
S29  40077242.040   210607317.368  
S37  40105303.222   210754791.815  
J01  38775896.975   203768716.581    38775896.388   203768717.340    38775894.262   203768706.655    38775896.094   158780819.087    38775900.615   152164951.800  
> 2011 01 15 02 28 22.0000000  0 20                     
G11  24495433.024   128724372.310    24495431.827   128724372.608    24495432.922   100304706.053                                  
G02  24332838.231   127869941.655    24332838.264   127869942.917    24332837.655    99638917.524                                  
R05  19236807.041   102831759.078    19236806.957   102831758.385    19236814.014    79980257.251    19236813.531    79980257.491  
R21  22099143.643   118256977.365    22099143.619   118256984.658    22099148.494    91977653.452    22099148.740    91977655.694  
R19  21037317.991   112535465.429    21037317.385   112535465.738    21037322.602    87527583.468    21037322.611    87527584.706  
G10  22303845.075   117207499.759    22303844.059   117207503.037    22303844.728    91330522.525                                  
G13  22276274.650   117062620.446    22276273.918   117062622.697    22276273.358    91217628.220                                  
G04  21391385.634   112412491.490    21391384.938   112412491.762    21391384.570    87594149.721                                  
G32  25100190.724   131902408.814    25100192.046   131902408.038    25100194.291   102781096.855                                  
G17  20054518.449   105387210.273    20054518.317   105387210.551    20054516.536    82119905.513    20054517.007    82119905.274  
G28  23602979.731   124034498.040    23602978.676   124034497.310    23602979.251    96650257.882                                  
G23  21921639.302   115199001.588    21921638.570   115199002.867    21921636.118    89765456.408                                  
G24  24697895.878   129788307.796    24697895.935   129788313.017    24697898.574   101133749.794                                  
G12  24867035.632   130677156.183    24867034.403   130677155.439    24867034.172   101826356.359    24867036.058   101826356.122  
G20  22160556.695   116454519.858    22160556.206   116454518.132    22160555.265    90743781.374                                  
R20  19275316.926   103073782.351    19275317.217   103073781.658    19275324.268    80168498.200    19275324.223    80168497.440  
R06  20659820.119   110244761.415    20659820.314   110244760.707    20659826.235    85745923.739    20659825.722    85745924.957  
S29  40077289.029   210607562.200  
S37  40105349.744   210755036.167  
J01  38775928.867   203768882.539    38775928.402   203768883.298    38775926.274   203768872.617    38775927.593   158780948.408    38775932.222   152165075.730  
> 2011 01 15 02 28 23.0000000  0 20                     
G11  24496021.534   128727462.978    24496020.533   128727463.250    24496020.734   100307114.341                                  
G02  24332387.004   127867565.984    24332386.287   127867567.251    24332386.213    99637066.328                                  
R05  19237042.911   102833019.104    19237042.627   102833018.411    19237049.768    79981237.271    19237049.366    79981237.509  
R21  22098492.818   118253494.484    22098492.722   118253501.778    22098498.397    91974944.542    22098498.061    91974946.789  
R19  21037885.489   112538497.769    21037884.437   112538498.078    21037888.481    87529941.954    21037889.341    87529943.193  
G10  22303321.044   117204746.740    22303319.890   117204750.020    22303321.014    91328377.311                                  
G13  22275795.935   117060106.368    22275795.336   117060108.626    22275794.955    91215669.210                                  
G04  21391103.937   112411009.518    21391102.789   112411009.789    21391102.678    87592994.938                                  
G32  25100882.525   131906040.621    25100882.959   131906039.870    25100885.711   102783926.808                                  
G17  20054612.416   105387704.372    20054612.419   105387704.648    20054610.716    82120290.524    20054610.902    82120290.286  
G28  23603634.532   124037939.598    23603633.450   124037938.857    23603633.501    96652939.615                                  
G23  21921546.633   115198511.967    21921545.383   115198513.247    21921543.200    89765074.886                                  
G24  24698421.079   129791062.159    24698419.526   129791067.382    24698422.077   101135896.069                                  
G12  24866751.009   130675657.948    24866749.645   130675657.212    24866749.663   101825188.916    24866751.618   101825188.676  
G20  22161144.732   116457609.933    22161144.360   116457608.211    22161142.891    90746189.220                                  
R20  19275196.457   103073139.869    19275196.970   103073139.175    19275204.366    80167998.490    19275204.399    80167997.729  
R06  20659341.812   110242207.990    20659341.758   110242207.281    20659346.885    85743937.743    20659347.394    85743938.959  
S29  40077334.190   210607807.086  
S37  40105396.440   210755280.259  
J01  38775960.027   203769048.543    38775959.965   203769049.297    38775957.632   203769038.617    38775959.716   158781077.759    38775963.760   152165199.693  
> 2011 01 15 02 28 24.0000000  0 20                     
G11  24496610.231   128730553.200    24496608.555   128730553.447    24496608.729   100309522.337                                  
G02  24331934.260   127865189.742    24331934.147   127865191.003    24331934.009    99635214.720                                  
R05  19237278.842   102834279.295    19237278.512   102834278.601    19237284.994    79982217.421    19237285.135    79982217.660  
R21  22097842.112   118250011.204    22097841.791   118250018.501    22097846.951    91972235.327    22097847.311    91972237.571  
R19  21038451.632   112541530.059    21038451.101   112541530.367    21038455.089    87532300.404    21038456.102    87532301.639  
G10  22302797.424   117201993.524    22302795.793   117201996.805    22302797.238    91326231.952                                  
G13  22275317.685   117057592.139    22275316.672   117057594.392    22275316.070    91213710.073                                  
G04  21390822.156   112409527.209    21390820.930   112409527.487    21390820.981    87591839.898                                  
G32  25101574.919   131909671.852    25101574.458   131909671.120    25101576.250   102786756.365                                  
G17  20054706.895   105388198.528    20054706.395   105388198.806    20054704.785    82120675.580    20054705.091    82120675.344  
G28  23604288.901   124041380.689    23604288.415   124041379.958    23604288.376    96655620.982                                  
G23  21921453.946   115198022.392    21921452.405   115198023.670    21921449.761    89764693.391                                  
G24  24698945.011   129793816.009    24698944.280   129793821.262    24698945.935   101138041.912                                  
G12  24866464.213   130674159.676    24866463.979   130674158.936    24866464.615   101824021.428    24866466.144   101824021.194  
G20  22161733.434   116460699.683    22161731.905   116460697.964    22161731.390    90748596.817                                  
R20  19275077.553   103072497.475    19275077.008   103072496.781    19275084.338    80167498.850    19275083.969    80167498.090  
R06  20658863.682   110239654.592    20658863.502   110239653.883    20658868.650    85741951.766    20658868.758    85741952.986  
S29  40077380.385   210608051.431  
S37  40105441.975   210755523.609  
J01  38775991.566   203769213.911    38775991.584   203769214.674    38775989.005   203769203.990    38775991.086   158781206.618    38775995.304   152165323.184  
> 2011 01 15 02 28 25.0000000  0 20                     
G11  24497197.926   128733643.505    24497196.391   128733643.751    24497196.850   100311930.351                                  
G02  24331482.194   127862813.487    24331481.736   127862814.741    24331481.814    99633363.097                                  
R05  19237514.296   102835540.186    19237514.380   102835539.493    19237521.167    79983198.113    19237521.056    79983198.351  
R21  22097191.170   118246528.061    22097190.966   118246535.357    22097195.031    91969526.218    22097196.359    91969528.463  
R19  21039018.291   112544562.876    21039018.267   112544563.187    21039022.629    87534659.264    21039023.072    87534660.500  
G10  22302273.530   117199240.657    22302271.830   117199243.931    22302273.374    91324086.861                                  
G13  22274839.382   117055078.258    22274838.500   117055080.517    22274838.128    91211751.195                                  
G04  21390539.671   112408045.108    21390539.050   112408045.386    21390538.744    87590685.012                                  
G32  25102268.000   131913303.064    25102265.458   131913302.288    25102266.951   102789585.861                                  
G17  20054800.793   105388693.271    20054800.437   105388693.549    20054798.869    82121061.096    20054799.504    82121060.857  
G28  23604944.448   124044821.875    23604943.366   124044821.139    23604943.081    96658302.424                                  
G23  21921360.498   115197533.408    21921359.302   115197534.682    21921357.308    89764312.374                                  
G24  24699467.804   129796569.887    24699468.029   129796575.136    24699470.343   101140187.782                                  
G12  24866180.489   130672661.890    24866179.800   130672661.171    24866179.911   101822854.311    24866181.958   101822854.088  
G20  22162321.180   116463789.644    22162320.233   116463787.926    22162319.753    90751004.576                                  
R20  19274956.842   103071855.715    19274957.079   103071855.022    19274964.394    80166999.703    19274964.127    80166998.945  
R06  20658385.172   110237101.771    20658385.004   110237101.063    20658390.052    85739966.241    20658390.229    85739967.461  
S29  40077425.974   210608295.811  
S37  40105488.542   210755766.910  
J01  38776022.870   203769379.204    38776022.960   203769379.966    38776020.058   203769369.279    38776022.228   158781335.419    38776026.695   152165446.617  
> 2011 01 15 02 28 26.0000000  0 20                     
G11  24497785.699   128736733.964    24497784.299   128736734.212    24497784.901   100314338.521                                  
G02  24331030.203   127860437.334    24331029.661   127860438.591    24331029.820    99631511.556                                  
R05  19237750.787   102836801.871    19237750.553   102836801.177    19237756.600    79984179.424    19237756.753    79984179.659  
R21  22096540.353   118243045.154    22096540.072   118243052.448    22096544.284    91966817.286    22096545.642    91966819.530  
R19  21039585.999   112547596.309    21039585.267   112547596.622    21039589.761    87537018.598    21039590.921    87537019.834  
G10  22301750.261   117196488.228    22301748.102   117196491.499    22301750.108    91321942.103                                  
G13  22274360.793   117052564.830    22274360.355   117052567.089    22274359.747    91209792.680                                  
G04  21390257.332   112406563.293    21390256.801   112406563.566    21390256.939    87589530.346                                  
G32  25102957.016   131916934.375    25102956.528   131916933.660    25102958.342   102792415.506                                  
G17  20054895.360   105389188.707    20054894.736   105389188.983    20054893.288    82121447.149    20054893.483    82121446.909  
G28  23605598.400   124048263.203    23605598.304   124048262.484    23605598.325    96660983.983                                  
G23  21921267.595   115197045.128    21921266.213   115197046.409    21921264.193    89763931.895                                  
G24  24699992.489   129799323.895    24699991.737   129799329.142    24699993.772   101142333.775                                  
G12  24865894.688   130671164.712    24865895.060   130671163.972    24865894.889   101821687.694    24865895.534   101821687.456  
G20  22162909.304   116466879.919    22162908.375   116466878.191    22162908.006    90753412.588                                  
R20  19274837.102   103071214.698    19274836.937   103071214.002    19274843.838    80166501.136    19274844.054    80166500.376  
R06  20657907.173   110234549.616    20657906.658   110234548.907    20657912.477    85737981.234    20657912.288    85737982.449  
S29  40077472.064   210608540.456  
S37  40105533.946   210756010.252  
J01  38776054.048   203769544.504    38776054.420   203769545.262    38776052.190   203769534.581    38776053.982   158781464.222    38776058.174   152165570.054  
> 2011 01 15 02 28 27.0000000  0 20                     
G11  24498373.262   128739824.513    24498372.555   128739824.763    24498372.797   100316746.735                                  
G02  24330578.044   127858061.114    24330577.439   127858062.369    24330578.104    99629659.954                                  
R05  19237986.862   102838064.223    19237986.643   102838063.528    19237993.068    79985161.253    19237993.334    79985161.489  
R21  22095888.320   118239562.367    22095889.366   118239569.659    22095894.238    91964108.449    22095894.762    91964110.693  
R19  21040153.374   112550630.242    21040152.382   112550630.556    21040158.401    87539378.327    21040157.607    87539379.563  
G10  22301225.435   117193736.122    22301224.820   117193739.396    22301225.945    91319797.612                                  
G13  22273882.456   117050051.770    22273882.234   117050054.021    22273881.695    91207834.457                                  
G04  21389974.969   112405081.674    21389975.047   112405081.949    21389974.706    87588375.844                                  
G32  25103645.928   131920565.627    25103647.361   131920564.852    25103649.471   102795245.039                                  
G17  20054989.702   105389684.718    20054989.129   105389684.995    20054987.663    82121833.650    20054988.260    82121833.410  
G28  23606253.690   124051704.603    23606252.937   124051703.874    23606253.828    96663665.603                                  
G23  21921174.372   115196557.408    21921173.691   115196558.686    21921171.239    89763551.850                                  
G24  24700516.790   129802077.905    24700515.735   129802083.141    24700518.976   101144479.745                                  
G12  24865611.265   130669668.080    24865609.844   130669667.372    24865609.478   101820521.480    24865611.354   101820521.257  
G20  22163497.095   116469970.387    22163496.592   116469968.657    22163495.518    90755820.741                                  
R20  19274716.954   103070574.298    19274717.311   103070573.607    19274724.581    80166003.047    19274724.188    80166002.288  
R06  20657428.123   110231998.008    20657428.624   110231997.300    20657434.539    85735996.650    20657434.068    85735997.866  
S29  40077518.071   210608784.980  
S37  40105580.950   210756253.952  
J01  38776085.880   203769709.701    38776085.320   203769710.459    38776083.329   203769699.775    38776085.629   158781592.947    38776089.535   152165693.416  
> 2011 01 15 02 28 28.0000000  0 20                     
G11  24498960.316   128742915.296    24498960.118   128742915.552    24498960.597   100319155.141                                  
G02  24330125.687   127855685.047    24330125.001   127855686.319    24330125.322    99627808.477                                  
R05  19238223.245   102839327.418    19238222.918   102839326.721    19238229.355    79986143.738    19238229.115    79986143.973  
R21  22095238.804   118236079.852    22095238.334   118236087.140    22095243.373    91961399.824    22095243.982    91961402.070  
R19  21040719.859   112553664.860    21040719.706   112553665.172    21040725.909    87541738.583    21040724.790    87541739.819  
G10  22300701.886   117190984.511    22300701.170   117190987.783    22300702.552    91317653.494                                  
G13  22273404.134   117047539.195    22273404.029   117047541.450    22273403.217    91205876.610                                  
G04  21389693.222   112403600.400    21389693.063   112403600.673    21389692.895    87587221.603                                  
G32  25104338.823   131924196.986    25104338.373   131924196.252    25104340.433   102798074.659                                  
G17  20055084.193   105390181.455    20055083.695   105390181.735    20055082.047    82122220.720    20055082.568    82122220.480  
G28  23606908.517   124055146.210    23606907.966   124055145.471    23606907.735    96666347.353                                  
G23  21921081.694   115196070.431    21921080.908   115196071.715    21921078.513    89763172.394                                  
G24  24701040.210   129804832.076    24701039.718   129804837.309    24701042.599   101146625.846                                  
G12  24865325.868   130668172.064    24865325.742   130668171.347    24865325.916   101819355.760    24865326.726   101819355.525  
G20  22164085.093   116473061.204    22164084.458   116473059.483    22164083.600    90758229.172                                  
R20  19274597.538   103069934.686    19274597.733   103069933.995    19274605.422    80165505.571    19274604.943    80165504.811  
R06  20656950.458   110229447.110    20656950.410   110229446.401    20656956.169    85734012.622    20656955.734    85734013.837  
S29  40077565.444   210609029.683  
S37  40105627.547   210756498.158  
J01  38776117.191   203769874.954    38776117.107   203769875.711    38776116.015   203769865.022    38776116.618   158781721.717    38776121.022   152165816.819  
> 2011 01 15 02 28 29.0000000  0 20                     
G11  24499548.886   128746006.126    24499547.984   128746006.402    24499547.849   100321563.591                                  
G02  24329673.115   127853308.915    24329673.403   127853310.173    24329673.600    99625956.950                                  
R05  19238460.096   102840591.265    19238459.374   102840590.568    19238465.115    79987126.727    19238465.822    79987126.964  
R21  22094587.613   118232597.403    22094587.826   118232604.691    22094592.284    91958691.247    22094593.486    91958693.495  
R19  21041287.519   112556699.948    21041287.120   112556700.262    21041292.243    87544099.207    21041292.450    87544100.443  
G10  22300178.515   117188233.191    22300177.384   117188236.461    22300178.611    91315509.611                                  
G13  22272926.433   117045026.933    22272925.438   117045029.193    22272924.814    91203919.005                                  
G04  21389411.456   112402119.240    21389411.066   112402119.510    21389410.922    87586067.448                                  
G32  25105029.431   131927828.261    25105029.134   131927827.525    25105031.122   102800904.210                                  
G17  20055178.472   105390678.736    20055178.307   105390679.014    20055176.940    82122608.212    20055177.087    82122607.972  
G28  23607563.606   124058587.843    23607563.288   124058587.108    23607562.817    96669029.147                                  
G23  21920989.232   115195584.008    21920988.482   115195585.286    21920986.045    89762793.362                                  
G24  24701564.049   129807586.203    24701564.553   129807591.434    24701566.217   101148771.925                                  
G12  24865041.302   130666676.516    24865040.840   130666675.775    24865040.376   101818190.389    24865042.774   101818190.161  
G20  22164672.965   116476152.173    22164672.980   116476150.448    22164672.051    90760637.713                                  
R20  19274478.772   103069295.652    19274478.493   103069294.961    19274485.331    80165008.545    19274484.993    80165007.784  
R06  20656473.203   110226896.713    20656472.454   110226896.003    20656478.309    85732028.975    20656478.147    85732030.196  
S29  40077612.679   210609274.307  
S37  40105673.910   210756742.229  
J01  38776149.035   203770040.059    38776148.450   203770040.817    38776146.693   203770030.129    38776148.270   158781850.371    38776152.461   152165940.112  
> 2011 01 15 02 28 30.0000000  0 20                     
G11  24500137.202   128749097.089    24500135.829   128749097.307    24500136.369   100323972.091                                  
G02  24329220.596   127850932.842    24329221.277   127850934.103    24329220.641    99624105.461                                  
R05  19238695.997   102841855.914    19238695.760   102841855.219    19238702.595    79988110.346    19238702.290    79988110.580  
R21  22093938.032   118229115.148    22093936.782   118229122.440    22093941.237    91955982.827    22093942.958    91955985.079  
R19  21041855.110   112559735.634    21041854.372   112559735.946    21041860.089    87546460.293    21041859.736    87546461.530  
G10  22299654.408   117185482.284    22299654.130   117185485.552    22299655.179    91313366.048                                  
G13  22272448.123   117042515.095    22272447.988   117042517.354    22272447.302    91201961.728                                  
G04  21389129.923   112400638.360    21389129.213   112400638.632    21389129.438    87584913.521                                  
G32  25105717.853   131931459.617    25105720.030   131931458.834    25105721.828   102803733.833                                  
G17  20055273.242   105391176.690    20055273.062   105391176.968    20055271.572    82122996.228    20055271.986    82122995.988  
G28  23608218.266   124062029.605    23608217.861   124062028.865    23608218.032    96671711.022                                  
G23  21920896.668   115195098.242    21920896.080   115195099.520    21920893.346    89762414.839                                  
G24  24702087.807   129810340.453    24702088.815   129810345.686    24702090.374   101150918.102                                  
G12  24864756.631   130665181.553    24864755.765   130665180.823    24864756.592   101817025.492    24864758.052   101817025.259  
G20  22165261.167   116479243.445    22165261.362   116479241.724    22165260.543    90763046.503                                  
R20  19274359.188   103068657.328    19274359.002   103068656.638    19274366.889    80164512.070    19274365.621    80164511.311  
R06  20655995.211   110224346.954    20655994.854   110224346.243    20656000.056    85730045.831    20656000.388    85730047.050  
S29  40077659.291   210609519.140  
S37  40105721.688   210756986.368  
J01  38776180.363   203770205.156    38776180.006   203770205.917    38776177.899   203770195.238    38776179.910   158781979.018    38776183.879   152166063.400  
> 2011 01 15 02 28 31.0000000  0 20                     
G11  24500725.326   128752188.251    24500724.486   128752188.531    24500724.510   100326380.816                                  
G02  24328768.335   127848556.875    24328768.536   127848558.130    24328768.212    99622254.081                                  
R05  19238932.602   102843121.429    19238932.692   102843120.732    19238939.249    79989094.633    19238939.117    79989094.866  
R21  22093286.001   118225633.163    22093286.283   118225640.454    22093291.188    91953274.619    22093292.330    91953276.867  
R19  21042422.527   112562771.963    21042422.149   112562772.272    21042426.289    87548821.881    21042427.534    87548823.118  
G10  22299131.873   117182731.855    22299130.455   117182735.131    22299132.281    91311222.859                                  
G13  22271970.581   117040003.778    22271970.053   117040006.039    22271969.483    91200004.858                                  
G04  21388847.762   112399157.807    21388847.573   112399158.083    21388847.324    87583759.844                                  
G32  25106407.921   131935091.056    25106410.737   131935090.299    25106412.721   102806563.516                                  
G17  20055368.396   105391675.356    20055368.037   105391675.634    20055366.448    82123384.799    20055366.816    82123384.559  
G28  23608873.894   124065471.573    23608872.817   124065470.831    23608873.405    96674393.083                                  
G23  21920804.575   115194613.200    21920803.573   115194614.478    21920801.250    89762036.888                                  
G24  24702613.646   129813094.842    24702612.996   129813100.096    24702614.978   101153064.365                                  
G12  24864472.692   130663687.235    24864472.455   130663686.500    24864472.500   101815861.109    24864473.249   101815860.854  
G20  22165850.163   116482335.053    22165849.051   116482333.325    22165848.655    90765455.535                                  
R20  19274239.058   103068019.773    19274239.502   103068019.082    19274247.419    80164016.192    19274246.463    80164015.433  
R06  20655517.507   110221797.895    20655517.186   110221797.182    20655523.152    85728063.230    20655522.534    85728064.450  
S29  40077707.626   210609763.725  
S37  40105764.993   210757230.678  
J01  38776211.535   203770370.302    38776211.095   203770371.062    38776209.191   203770360.381    38776211.107   158782107.705    38776215.322   152166186.724  
> 2011 01 15 02 28 32.0000000  0 20                     
G11  24501314.232   128755279.573    24501312.508   128755279.827    24501312.820   100328789.621                                  
G02  24328316.575   127846180.958    24328316.062   127846182.216    24328316.548    99620402.705                                  
R05  19239170.290   102844387.693    19239169.579   102844386.996    19239175.584    79990079.508    19239176.097    79990079.742  
R21  22092636.252   118222151.341    22092635.749   118222158.638    22092641.759    91950566.538    22092641.547    91950568.790  
R19  21042991.494   112565808.837    21042989.734   112565809.150    21042995.655    87551183.895    21042995.475    87551185.135  
G10  22298608.265   117179981.808    22298607.096   117179985.080    22298609.188    91309079.963                                  
G13  22271492.843   117037492.851    22271491.806   117037495.118    22271491.902    91198048.305                                  
G04  21388566.263   112397677.505    21388565.873   112397677.778    21388565.567    87582606.362                                  
G32  25107102.568   131938722.522    25107101.887   131938721.749    25107104.318   102809393.254                                  
G17  20055463.020   105392174.659    20055462.834   105392174.936    20055461.356    82123773.865    20055461.668    82123773.625  
G28  23609528.257   124068913.642    23609527.678   124068912.910    23609528.515    96677075.208                                  
G23  21920712.467   115194128.801    21920711.636   115194130.085    21920708.965    89761659.437                                  
G24  24703137.090   129815849.308    24703136.598   129815854.545    24703138.817   101155210.711                                  
G12  24864187.340   130662193.440    24864188.381   130662192.695    24864188.270   101814697.108    24864189.145   101814696.859  
G20  22166438.164   116485426.910    22166437.700   116485425.192    22166437.040    90767864.781                                  
R20  19274120.391   103067382.894    19274120.493   103067382.203    19274128.087    80163520.842    19274127.712    80163520.084  
R06  20655040.300   110219249.437    20655039.539   110219248.725    20655045.052    85726081.096    20655044.974    85726082.318  
S29  40077753.126   210610008.590  
S37  40105811.709   210757474.911  
J01  38776243.127   203770535.399    38776242.654   203770536.162    38776241.146   203770525.472    38776242.201   158782236.348    38776246.740   152166310.009  
> 2011 01 15 02 28 33.0000000  0 20                     
G11  24501902.845   128758370.978    24501900.716   128758371.243    24501900.578   100331198.487                                  
G02  24327864.929   127843805.027    24327864.158   127843806.288    24327863.645    99618551.336                                  
R05  19239406.775   102845654.676    19239406.541   102845653.981    19239412.660    79991064.938    19239413.163    79991065.170  
R21  22091985.244   118218669.684    22091984.995   118218676.973    22091991.566    91947858.579    22091991.138    91947860.826  
R19  21043558.084   112568846.248    21043557.499   112568846.559    21043562.701    87553546.324    21043562.881    87553547.563  
G10  22298085.508   117177232.141    22298084.000   117177235.408    22298086.005    91306937.366                                  
G13  22271014.782   117034982.292    22271013.952   117034984.555    22271013.556    91196092.020                                  
G04  21388284.611   112396197.415    21388284.518   112396197.688    21388284.119    87581453.046                                  
G32  25107791.623   131942353.975    25107792.786   131942353.202    25107795.628   102812222.947                                  
G17  20055558.375   105392674.575    20055558.033   105392674.854    20055556.576    82124163.410    20055557.302    82124163.170  
G28  23610183.243   124072355.809    23610182.994   124072355.073    23610183.192    96679757.407                                  
G23  21920620.247   115193645.009    21920619.444   115193646.291    21920616.836    89761282.457                                  
G24  24703660.558   129818603.818    24703660.812   129818609.057    24703662.734   101157357.074                                  
G12  24863903.922   130660700.227    24863904.060   130660699.490    24863903.830   101813533.570    24863904.846   101813533.313  
G20  22167027.361   116488519.010    22167026.363   116488517.285    22167025.227    90770274.200                                  
R20  19274001.976   103066746.669    19274001.556   103066745.978    19274009.372    80163026.000    19274008.476    80163025.243  
R06  20654562.458   110216701.585    20654561.924   110216700.872    20654566.742    85724099.432    20654567.363    85724100.653  
S29  40077799.399   210610253.335  
S37  40105856.999   210757719.012  
J01  38776274.048   203770700.434    38776273.796   203770701.193    38776271.677   203770690.508    38776273.796   158782364.948    38776278.134   152166433.250  
> 2011 01 15 02 28 34.0000000  0 20                     
G11  24502492.066   128761462.328    24502489.398   128761462.560    24502489.158   100333607.356                                  
G02  24327411.816   127841428.943    24327412.095   127841430.209    24327411.981    99616699.846                                  
R05  19239643.956   102846922.202    19239643.665   102846921.505    19239650.161    79992050.791    19239650.155    79992051.022  
R21  22091334.023   118215188.005    22091334.442   118215195.291    22091340.528    91945150.609    22091340.381    91945152.853  
R19  21044125.978   112571884.032    21044125.477   112571884.344    21044130.933    87555909.051    21044130.637    87555910.285  
G10  22297562.187   117174482.664    22297560.553   117174485.933    22297562.328    91304794.915                                  
G13  22270537.207   117032471.976    22270536.481   117032474.239    22270536.332    91194135.938                                  
G04  21388002.866   112394717.349    21388002.749   112394717.624    21388002.761    87580299.749                                  
G32  25108481.841   131945985.281    25108483.577   131945984.509    25108486.002   102815052.535                                  
G17  20055653.487   105393174.930    20055653.184   105393175.207    20055651.769    82124553.298    20055652.576    82124553.058  
G28  23610837.064   124075797.891    23610837.765   124075797.149    23610838.494    96682439.549                                  
G23  21920527.755   115193161.694    21920527.501   115193162.973    21920525.030    89760905.850                                  
G24  24704184.358   129821358.211    24704184.766   129821363.429    24704186.936   101159503.375                                  
G12  24863619.794   130659207.343    24863619.353   130659206.612    24863619.210   101812370.283    24863621.887   101812370.028  
G20  22167615.821   116491611.178    22167614.646   116491609.457    22167613.944    90772683.690                                  
R20  19273883.306   103066110.938    19273882.964   103066110.244    19273890.243    80162531.543    19273889.551    80162530.785  
R06  20654085.218   110214154.144    20654084.559   110214153.434    20654089.577    85722118.091    20654089.817    85722119.314  
S29  40077844.919   210610497.859  
S37  40105904.141   210757962.819  
J01  38776305.670   203770865.232    38776305.226   203770865.994    38776303.704   203770855.310    38776305.158   158782493.362    38776309.448   152166556.313  
> 2011 01 15 02 28 35.0000000  0 20                     
G11  24503079.938   128764553.729    24503077.656   128764553.956    24503077.171   100336016.240                                  
G02  24326959.235   127839052.791    24326959.684   127839054.052    24326959.921    99614848.301                                  
R05  19239881.232   102848190.359    19239880.885   102848189.661    19239887.333    79993037.135    19239887.456    79993037.370  
R21  22090683.644   118211706.417    22090683.659   118211713.704    22090689.853    91942442.705    22090689.757    91942444.952  
R19  21044693.935   112574922.282    21044693.599   112574922.594    21044698.147    87558272.129    21044698.983    87558273.368  
G10  22297039.010   117171733.470    22297037.388   117171736.737    22297039.331    91302652.693                                  
G13  22270059.656   117029961.968    22270059.011   117029964.241    22270059.044    91192180.082                                  
G04  21387721.148   112393237.457    21387721.139   112393237.732    21387720.845    87579146.593                                  
G32  25109173.831   131949616.468    25109174.958   131949615.688    25109177.035   102817881.998                                  
G17  20055748.512   105393675.816    20055748.674   105393676.091    20055746.995    82124943.596    20055747.505    82124943.356  
G28  23611493.099   124079239.992    23611492.506   124079239.260    23611493.300    96685121.702                                  
G23  21920436.211   115192678.894    21920435.923   115192680.172    21920432.733    89760529.640                                  
G24  24704708.986   129824112.561    24704708.998   129824117.798    24704710.476   101161649.614                                  
G12  24863336.370   130657714.968    24863335.909   130657714.240    24863335.915   101811207.379    24863336.763   101811207.140  
G20  22168203.885   116494703.483    22168203.138   116494701.773    22168202.350    90775093.280                                  
R20  19273764.112   103065475.784    19273763.812   103065475.090    19273771.112    80162037.533    19273770.833    80162036.774  
R06  20653607.667   110211607.228    20653607.220   110211606.519    20653612.551    85720137.158    20653612.215    85720138.382  
S29  40077890.431   210610742.339  
S37  40105951.874   210758206.651  
J01  38776336.747   203771029.891    38776336.570   203771030.651    38776334.750   203771019.957    38776337.046   158782621.669    38776340.821   152166679.273  
> 2011 01 15 02 28 36.0000000  0 20                     
G11  24503668.337   128767645.252    24503665.462   128767645.514    24503665.112   100338425.210                                  
G02  24326508.536   127836676.692    24326508.413   127836677.953    24326507.528    99612996.801                                  
R05  19240118.698   102849459.287    19240118.188   102849458.590    19240125.129    79994024.079    19240125.084    79994024.312  
R21  22090033.403   118208225.030    22090032.813   118208232.318    22090038.488    91939734.969    22090039.303    91939737.209  
R19  21045261.574   112577961.133    21045261.466   112577961.446    21045266.574    87560635.677    21045266.763    87560636.921  
G10  22296515.731   117168984.696    22296514.784   117168987.972    22296515.845    91300510.789                                  
G13  22269582.500   117027452.388    22269581.304   117027454.660    22269581.043    91190224.563                                  
G04  21387440.317   112391757.813    21387439.625   112391758.091    21387439.181    87577993.622                                  
G32  25109864.552   131953247.732    25109865.728   131953246.981    25109867.853   102820711.600                                  
G17  20055844.404   105394177.375    20055844.095   105394177.653    20055842.455    82125334.423    20055843.241    82125334.184  
G28  23612148.443   124082682.243    23612147.411   124082681.512    23612148.239    96687803.965                                  
G23  21920344.813   115192196.776    21920344.118   115192198.059    21920340.904    89760153.966                                  
G24  24705233.536   129826867.008    24705233.626   129826872.251    24705235.191   101163795.937                                  
G12  24863051.738   130656223.120    24863052.362   130656222.363    24863051.526   101810044.897    24863053.594   101810044.654  
G20  22168791.949   116497796.090    22168790.989   116497794.369    22168790.624    90777503.099                                  
R20  19273644.983   103064841.338    19273645.181   103064840.645    19273652.253    80161544.077    19273651.965    80161543.317  
R06  20653130.023   110209060.939    20653130.128   110209060.235    20653136.324    85718156.713    20653135.587    85718157.935  
S29  40077936.542   210610987.036  
S37  40105998.504   210758450.526  
J01  38776368.507   203771194.529    38776367.805   203771195.288    38776366.645   203771184.602    38776367.907   158782749.959    38776372.119   152166802.219  
> 2011 01 15 02 28 37.0000000  0 20                     
G11  24504255.841   128770736.856    24504253.958   128770737.116    24504253.658   100340834.236                                  
G02  24326056.254   127834300.578    24326055.609   127834301.836    24326054.191    99611145.297                                  
R05  19240356.143   102850728.920    19240355.705   102850728.222    19240362.162    79995011.572    19240362.243    79995011.805  
R21  22089382.431   118204743.799    22089382.311   118204751.087    22089388.223    91937027.344    22089388.690    91937029.586  
R19  21045830.379   112581000.520    21045829.716   112581000.830    21045834.558    87562999.643    21045834.969    87563000.884  
G10  22295993.499   117166236.267    22295991.535   117166239.539    22295992.078    91298369.154                                  
G13  22269104.924   117024943.166    22269103.776   117024945.434    22269103.884    91188269.338                                  
G04  21387158.875   112390278.348    21387158.024   112390278.621    21387157.634    87576840.795                                  
G32  25110556.770   131956878.958    25110556.518   131956878.168    25110558.512   102823541.080                                  
G17  20055939.729   105394679.521    20055939.681   105394679.796    20055937.999    82125725.707    20055938.557    82125725.464  
G28  23612804.209   124086124.552    23612801.730   124086123.809    23612802.986    96690486.290                                  
G23  21920252.618   115191715.262    21920252.177   115191716.540    21920249.485    89759778.761                                  
G24  24705758.020   129829621.490    24705757.801   129829626.722    24705759.504   101165942.256                                  
G12  24862769.055   130654731.849    24862768.102   130654731.102    24862767.772   101808882.870    24862769.472   101808882.631  
G20  22169380.519   116500888.907    22169379.800   116500887.185    22169379.941    90779913.094                                  
R20  19273525.654   103064207.539    19273526.631   103064206.845    19273534.833    80161051.122    19273533.838    80161050.362  
R06  20652653.005   110206515.227    20652653.068   110206514.520    20652658.572    85716176.717    20652658.461    85716177.940  
S29  40077984.937   210611231.721  
S37  40106044.372   210758694.564  
J01  38776399.391   203771359.091    38776399.301   203771359.847    38776397.847   203771349.166    38776399.256   158782878.188    38776403.427   152166925.104  
> 2011 01 15 02 28 38.0000000  0 20                     
G11  24504844.129   128773828.590    24504843.059   128773828.837    24504842.160   100343243.406                                  
G02  24325603.627   127831924.497    24325604.029   127831925.757    24325602.740    99609293.789                                  
R05  19240593.503   102851999.304    19240593.329   102851998.610    19240599.778    79995999.647    19240600.105    79995999.880  
R21  22088731.758   118201262.744    22088731.842   118201270.032    22088736.618    91934319.857    22088738.102    91934322.103  
R19  21046398.668   112584040.464    21046398.078   112584040.773    21046401.855    87565364.041    21046403.192    87565365.286  
G10  22295470.514   117163488.236    22295468.733   117163491.507    22295469.743    91296227.831                                  
G13  22268627.544   117022434.379    22268626.752   117022436.641    22268626.923    91186314.429                                  
G04  21386877.121   112388799.110    21386876.746   112388799.386    21386876.009    87575688.144                                  
G32  25111248.089   131960510.228    25111247.324   131960509.458    25111249.953   102826370.651                                  
G17  20056035.504   105395182.304    20056035.342   105395182.582    20056033.669    82126117.486    20056034.217    82126117.245  
G28  23613459.048   124089566.972    23613457.681   124089566.237    23613458.002    96693168.694                                  
G23  21920160.785   115191234.380    21920160.956   115191235.658    21920158.276    89759404.048                                  
G24  24706282.878   129832376.020    24706282.237   129832381.279    24706283.184   101168088.658                                  
G12  24862484.723   130653241.081    24862484.945   130653240.348    24862484.030   101807721.235    24862485.616   101807720.989  
G20  22169969.479   116503981.976    22169968.490   116503980.258    22169967.516    90782323.267                                  
R20  19273407.922   103063574.427    19273408.483   103063573.731    19273416.397    80160558.700    19273415.285    80160557.942  
R06  20652176.005   110203970.118    20652176.086   110203969.413    20652181.398    85714197.190    20652181.662    85714198.413  
S29  40078032.035   210611475.965  
S37  40106088.768   210758938.770  
J01  38776431.061   203771523.601    38776430.687   203771524.361    38776428.774   203771513.676    38776430.516   158783006.377    38776434.737   152167047.953  
> 2011 01 15 02 28 39.0000000  0 20                     
G11  24505432.691   128776920.547    24505431.729   128776920.786    24505431.153   100345652.725                                  
G02  24325152.032   127829548.510    24325151.225   127829549.768    24325150.080    99607442.375                                  
R05  19240831.880   102853270.514    19240831.236   102853269.818    19240837.705    79996988.365    19240837.798    79996988.601  
R21  22088082.438   118197781.929    22088081.340   118197789.220    22088087.144    91931612.560    22088087.435    91931614.806  
R19  21046967.495   112587081.021    21046966.445   112587081.332    21046971.947    87567728.917    21046971.994    87567730.162  
G10  22294947.229   117160740.652    22294945.652   117160743.924    22294946.696    91294086.860                                  
G13  22268150.538   117019926.053    22268149.159   117019928.330    22268149.261    91184359.902                                  
G04  21386595.679   112387320.217    21386594.980   112387320.494    21386595.130    87574535.757                                  
G32  25111938.577   131964141.537    25111938.124   131964140.796    25111940.765   102829200.226                                  
G17  20056131.476   105395685.777    20056131.182   105395686.050    20056129.581    82126509.800    20056130.154    82126509.561  
G28  23614114.263   124093009.568    23614112.725   124093008.831    23614113.534    96695851.210                                  
G23  21920070.134   115190754.200    21920069.550   115190755.481    21920067.175    89759029.887                                  
G24  24706806.367   129835130.687    24706806.256   129835135.918    24706808.154   101170235.159                                  
G12  24862201.338   130651750.929    24862202.034   130651750.184    24862199.953   101806560.080    24862202.136   101806559.828  
G20  22170558.134   116507075.360    22170557.519   116507073.642    22170556.623    90784733.703                                  
R20  19273289.705   103062942.055    19273290.269   103062941.362    19273298.138    80160066.859    19273297.209    80160066.097  
R06  20651699.425   110201425.682    20651699.374   110201424.978    20651705.190    85712218.186    20651704.470    85712219.408  
S29  40078078.652   210611720.253  
S37  40106134.328   210759182.978  
J01  38776462.084   203771688.131    38776461.820   203771688.894    38776460.399   203771678.206    38776462.093   158783134.583    38776466.050   152167170.817  
