     3.00           OBSERVATION DATA    M: Mixed            RINEX VERSION / TYPE
CONVBIN demo5 b34f.1                    20220527 015940 UTC PGM / RUN BY / DATE 
log: /home/igor/git/flutter_rtklib/test/data/rcvraw/javad_20COMMENT             
format: Javad GREIS                                         COMMENT             
format: Javad GREIS                                         COMMENT             
log: /home/igor/git/flutter_rtklib/test/data/rcvraw/javad_20COMMENT             
                                                            MARKER NAME         
                                                            MARKER NUMBER       
                                                            MARKER TYPE         
                                                            OBSERVER / AGENCY   
                                                            REC # / TYPE / VERS 
                                                            ANT # / TYPE        
 -2180791.1889  1968651.4328  5733703.8051                  APPROX POSITION XYZ 
        0.0000        0.0000        0.0000                  ANTENNA: DELTA H/E/N
G   15 C1C L1C D1C S1C C1W L1W S1W C2W L2W D2W S2W C2X L2X  SYS / # / OBS TYPES 
       D2X S2X                                              SYS / # / OBS TYPES 
R   15 C1C L1C D1C S1C C1P L1P S1P C2C L2C D2C S2C C2P L2P  SYS / # / OBS TYPES 
       D2P S2P                                              SYS / # / OBS TYPES 
S    4 C1C L1C D1C S1C                                      SYS / # / OBS TYPES 
  2011    01    15    02    26   43.0000000     GPS         TIME OF FIRST OBS   
  2011    01    15    02    28   52.0000000     GPS         TIME OF LAST OBS    
                                                            END OF HEADER       
> 2011 01 15 02 26 43.0000000  0 19                     
G11  24437298.394   128418870.7411      -3081.437          43.000    24437298.703   128418871.0001         27.250    24437298.268   100066652.9711      -2401.031          27.250                                                                  
G02  24377590.814   128105115.2561       2374.987          47.750    24377590.113   128105116.5311         31.500    24377589.975    99822169.5241       1850.681          31.500                                                                  
R05  19214136.957   102710572.9941      -1188.676          55.000    19214136.726   102710572.2921         54.000    19214143.645    79886001.3971       -924.528          49.250    19214143.405    79886001.6381       -924.524          48.000  
R21  22163708.614   118602470.9101       3496.175          49.750    22163707.798   118602478.2061         49.000    22163712.391    92246370.5251       2719.244          45.750    22163712.853    92246372.7701       2719.229          45.000  
R19  20981692.316   112237905.2651      -2979.461          52.750    20981691.860   112237905.5721         51.750    20981696.345    87296147.8701      -2317.357          47.750    20981697.016    87296149.1141      -2317.347          46.250  
G10  22356042.783   117481801.4031       2787.873          47.750    22356042.285   117481804.6861         37.250    22356042.660    91544263.9911       2172.379          37.250                                                                  
G13  22323984.884   117313341.1961       2550.379          46.250    22323984.419   117313343.4501         35.500    22323984.194    91412994.9591       1987.258          35.500                                                                  
G04  21419497.347   112560220.1691       1502.069          49.500    21419496.810   112560220.4431         40.500    21419497.218    87709262.9011       1170.449          40.500                                                                  
G32  25031761.899   131542807.8511      -3633.218          39.250    25031763.734   131542807.0791         21.750    25031763.401   102500888.4111      -2831.160          21.750                                                                  
G17  20045776.063   105341268.3341       -434.645          52.500    20045775.694   105341268.6091         48.000    20045774.351    82084106.6331       -338.694          48.000    20045774.660    82084106.3911       -338.686          53.000  
G28  23538224.138   123694201.6541      -3433.160          43.500    23538220.993   123694200.9001         31.750    23538223.325    96385092.1931      -2675.209          31.750                                                                  
G23  21931432.886   115250466.8571        549.358          49.500    21931432.259   115250468.1381         39.250    21931429.693    89805559.1471        428.067          39.250                                                                  
G24  24646037.860   129515796.3701      -2751.198          40.000    24646037.012   129515801.6211         21.750    24646039.320   100921403.3731      -2143.764          21.750                                                                  
G12  24895753.513   130828065.9591       1549.712          42.750    24895753.654   130828065.2101         28.000    24895753.382   101943948.3101       1207.557          28.000    24895754.866   101943948.0791       1207.527          41.500  
G20  22102556.007   116149723.6701      -3067.660          49.250    22102555.500   116149721.9321         38.000    22102554.268    90506277.8971      -2390.419          38.000                                                                  
R20  19287810.423   103140592.4611        706.447          52.000    19287811.037   103140591.7621         51.000    19287817.714    80220461.6261        549.458          48.750    19287818.382    80220460.8691        549.461          48.500  
R06  20707726.813   110500399.0611       2610.317          53.250    20707727.260   110500398.3511         52.250    20707732.554    85944752.9081       2030.250          48.750    20707732.419    85944754.1281       2030.253          46.500  
S29  40072683.459   210583368.5981       -244.636          42.000  
S37  40100759.514   210730910.9011       -244.017          41.500  
> 2011 01 15 02 26 44.0000000  0 19                     
G11  24437884.573   128421952.017       -3081.445          42.750    24437884.794   128421952.289          27.250    24437884.213   100069053.971       -2401.042          27.250                                                                  
G02  24377138.610   128102740.060        2375.164          47.750    24377138.793   128102741.325          31.250    24377137.534    99820318.710        1850.851          31.250                                                                  
R05  19214359.580   102711761.836       -1189.278          55.000    19214359.268   102711761.132          54.000    19214365.501    79886926.052        -924.991          49.500    19214365.665    79886926.293        -924.997          48.000  
R21  22163053.717   118598974.552        3496.241          49.500    22163054.200   118598981.846          49.000    22163059.458    92243651.131        2719.324          45.750    22163059.680    92243653.378        2719.322          44.750  
R19  20982249.402   112240884.822       -2979.901          52.750    20982248.671   112240885.132          51.750    20982254.232    87298465.305       -2317.718          48.000    20982254.199    87298466.549       -2317.712          46.500  
G10  22355512.483   117479013.531        2787.618          48.000    22355511.457   117479016.811          36.750    22355512.135    91542091.616        2172.199          36.750                                                                  
G13  22323499.157   117310790.846        2550.117          46.250    22323499.097   117310793.110          35.750    22323498.671    91411007.673        1987.086          35.750                                                                  
G04  21419211.581   112558718.038        1501.975          49.500    21419211.201   112558718.311          40.250    21419211.162    87708092.404        1170.403          40.250                                                                  
G32  25032453.877   131546440.697       -3633.023          39.750    25032455.175   131546439.950          21.750    25032454.668   102503719.222       -2830.953          21.750                                                                  
G17  20045858.773   105341703.096        -435.096          52.500    20045858.401   105341703.366          47.750    20045857.157    82084445.405        -339.057          47.750    20045857.259    82084445.165        -339.049          53.000  
G28  23538876.096   123697634.752       -3433.183          43.750    23538874.195   123697634.017          32.000    23538876.294    96387767.335       -2675.187          32.000                                                                  
G23  21931328.402   115249917.566         548.950          49.750    21931327.419   115249918.849          39.500    21931325.353    89805131.131         427.727          39.500                                                                  
G24  24646560.260   129518547.422       -2751.109          39.250    24646560.941   129518552.675          22.000    24646563.294   100923547.082       -2143.734          22.000                                                                  
G12  24895459.201   130826516.264        1549.403          43.000    24895459.033   130826515.485          28.000    24895457.331   101942740.760        1207.263          28.000    24895459.873   101942740.520        1207.313          41.000  
G20  22103140.081   116152791.293       -3067.786          49.000    22103138.695   116152789.555          37.500    22103138.812    90508668.249       -2390.477          37.500                                                                  
R20  19287679.159   103139886.160         705.926          52.000    19287678.955   103139885.460          50.750    19287685.850    80219912.280         549.054          48.750    19287686.036    80219911.521         549.077          48.250  
R06  20707237.944   110497788.851        2609.854          53.500    20707238.001   110497788.141          52.250    20707243.224    85942722.744        2029.884          48.750    20707242.762    85942723.965        2029.901          46.500  
S29  40072728.646   210583612.935        -244.396          41.750  
S37  40100806.000   210731154.561        -243.758          41.500  
> 2011 01 15 02 26 45.0000000  0 19                     
G11  24438470.316   128425033.637       -3081.775          42.500    24438471.305   128425033.902          27.250    24438470.352   100071455.228       -2401.410          27.250                                                                  
G02  24376686.895   128100365.127        2374.851          47.500    24376686.820   128100366.400          30.750    24376685.138    99818468.132        1850.496          30.750                                                                  
R05  19214582.469   102712951.666       -1190.251          54.750    19214581.789   102712950.964          54.000    19214588.036    79887851.476        -925.758          49.750    19214588.099    79887851.715        -925.741          48.000  
R21  22162401.246   118595478.589        3495.868          49.500    22162400.679   118595485.884          49.000    22162406.522    92240932.049        2719.015          46.000    22162406.330    92240934.298        2719.005          45.000  
R19  20982806.234   112243865.173       -2980.699          52.750    20982805.886   112243865.482          51.750    20982811.309    87300783.356       -2318.326          48.000    20982811.264    87300784.598       -2318.314          46.250  
G10  22354982.093   117476226.256        2787.060          47.750    22354981.391   117476229.532          36.750    22354981.559    91539919.722        2171.745          36.750                                                                  
G13  22323014.782   117308241.114        2549.598          46.500    22323014.108   117308243.384          35.750    22323013.565    91409020.870        1986.700          35.750                                                                  
G04  21418925.900   112557216.363        1501.490          49.500    21418925.319   112557216.635          40.500    21418925.037    87706922.274        1169.995          40.500                                                                  
G32  25033143.202   131550073.779       -3633.002          39.000    25033145.942   131550073.018          22.250    25033146.044   102506550.142       -2830.741          22.250                                                                  
G17  20045941.800   105342138.722        -435.972          52.750    20045941.255   105342138.991          47.750    20045940.028    82084784.851        -339.714          47.750    20045940.334    82084784.611        -339.706          53.000  
G28  23539528.885   123701068.214       -3433.601          43.500    23539527.551   123701067.476          31.500    23539529.695    96390442.758       -2675.521          31.500                                                                  
G23  21931223.694   115249369.146         548.076          49.750    21931223.199   115249370.427          39.250    21931220.660    89804703.789         427.052          39.250                                                                  
G24  24647084.217   129521298.772       -2751.387          39.500    24647084.732   129521304.036          21.750    24647087.227   100925690.956       -2143.856          21.750                                                                  
G12  24895164.625   130824967.344        1548.665          43.250    24895163.825   130824966.579          28.250    24895162.086   101941533.798        1206.749          28.250    24895164.502   101941533.567        1206.759          41.000  
G20  22103724.406   116155859.412       -3068.371          49.000    22103722.631   116155857.673          37.500    22103722.394    90511058.995       -2390.985          37.500                                                                  
R20  19287546.983   103139180.749         705.090          52.000    19287547.184   103139180.051          51.000    19287554.274    80219363.626         548.412          48.750    19287554.193    80219362.870         548.409          48.500  
R06  20706748.150   110495179.470        2609.048          53.500    20706749.085   110495178.760          52.500    20706753.837    85940693.225        2029.257          48.500    20706753.969    85940694.448        2029.259          46.250  
S29  40072776.601   210583857.421        -243.810          42.000  
S37  40100851.598   210731398.157        -243.277          41.750  
> 2011 01 15 02 26 46.0000000  0 19                     
G11  24439057.151   128428115.255       -3081.481          42.750    24439057.400   128428115.522          27.000    24439056.191   100073856.487       -2401.188          27.000                                                                  
G02  24376234.541   128097990.075        2375.293          47.750    24376235.066   128097991.357          31.500    24376232.853    99816617.446        1850.834          31.500                                                                  
R05  19214805.101   102714142.127       -1190.562          54.750    19214804.523   102714141.424          54.000    19214811.106    79888777.391        -926.001          49.500    19214810.713    79888777.632        -925.982          47.750  
R21  22161747.476   118591982.657        3496.121          49.750    22161747.252   118591989.952          49.250    22161751.608    92238212.993        2719.196          46.250    22161753.217    92238215.242        2719.201          44.750  
R19  20983363.485   112246845.970       -2980.812          52.750    20983363.155   112246846.279          51.750    20983368.950    87303101.753       -2318.400          48.000    20983368.305    87303102.996       -2318.410          46.500  
G10  22354451.817   117473439.237        2787.105          48.000    22354450.468   117473442.518          37.000    22354451.562    91537748.020        2171.739          37.000                                                                  
G13  22322529.349   117305691.657        2549.591          46.000    22322528.258   117305693.925          36.000    22322528.363    91407034.279        1986.697          36.000                                                                  
G04  21418639.415   112555714.780        1501.734          49.750    21418639.769   112555715.062          40.250    21418639.529    87705752.210        1170.185          40.250                                                                  
G32  25033835.248   131553706.793       -3632.604          39.250    25033837.944   131553706.051          22.250    25033836.972   102509381.086       -2830.437          22.250                                                                  
G17  20046024.690   105342574.843        -436.177          52.500    20046024.156   105342575.114          47.750    20046022.945    82085124.685        -339.880          47.750    20046023.032    82085124.447        -339.876          53.000  
G28  23540182.619   123704501.659       -3433.315          43.500    23540180.976   123704500.932          31.000    23540182.412    96393118.159       -2675.278          31.000                                                                  
G23  21931119.621   115248821.226         547.835          50.250    21931119.177   115248822.507          39.250    21931116.317    89804276.838         426.886          39.250                                                                  
G24  24647609.312   129524050.073       -2751.249          39.750    24647607.396   129524055.331          21.750    24647610.874   100927834.849       -2143.728          21.750                                                                  
G12  24894869.701   130823418.861        1548.241          43.250    24894869.198   130823418.105          28.250    24894867.342   101940327.179        1206.469          28.250    24894869.417   101940326.958        1206.427          41.750  
G20  22104308.072   116158927.636       -3068.079          49.250    22104307.095   116158925.902          37.500    22104305.886    90513449.820       -2390.738          37.500                                                                  
R20  19287414.868   103138475.885         704.777          52.000    19287415.260   103138475.189          50.750    19287422.743    80218815.399         548.162          48.750    19287422.000    80218814.645         548.158          48.500  
R06  20706259.788   110492570.568        2608.865          53.500    20706260.189   110492569.862          52.250    20706265.415    85938664.083        2029.117          48.750    20706265.310    85938665.307        2029.105          46.500  
S29  40072823.411   210584101.676        -244.473          42.000  
S37  40100899.109   210731641.706        -243.741          41.750  
> 2011 01 15 02 26 47.0000000  0 19                     
G11  24439643.200   128431196.524       -3081.479          42.250    24439643.503   128431196.770          27.000    24439642.612   100076257.468       -2401.004          27.000                                                                  
G02  24375782.793   128095614.567        2375.503          47.750    24375783.596   128095615.843          31.500    24375781.411    99814766.404        1850.992          31.500                                                                  
R05  19215028.132   102715332.852       -1191.091          54.750    19215027.247   102715332.150          54.000    19215033.609    79889703.509        -926.398          49.250    19215033.636    79889703.751        -926.412          47.750  
R21  22161094.460   118588486.370        3496.268          49.750    22161093.725   118588493.665          48.750    22161099.136    92235493.654        2719.323          46.250    22161099.547    92235495.905        2719.310          44.750  
R19  20983920.805   112249826.844       -2981.164          52.750    20983920.391   112249827.155          51.750    20983924.855    87305420.212       -2318.683          48.000    20983925.716    87305421.454       -2318.680          46.250  
G10  22353921.385   117470652.104        2787.002          48.250    22353920.093   117470655.381          36.750    22353920.633    91535576.224        2171.727          36.750                                                                  
G13  22322044.168   117303142.106        2549.394          46.250    22322043.374   117303144.369          35.750    22322043.092    91405047.618        1986.549          35.750                                                                  
G04  21418353.734   112554212.965        1501.738          49.750    21418353.560   112554213.240          40.500    21418353.923    87704581.967        1170.191          40.500                                                                  
G32  25034525.338   131557339.353       -3632.618          39.250    25034528.677   131557338.604          21.500    25034527.898   102512211.671       -2830.631          21.500                                                                  
G17  20046107.897   105343011.105        -436.605          52.750    20046107.223   105343011.378          47.750    20046106.051    82085464.632        -340.215          47.750    20046106.158    82085464.393        -340.217          52.750  
G28  23540836.274   123707934.743       -3433.192          43.250    23540834.095   123707934.004          31.750    23540836.319    96395793.278       -2675.135          31.750                                                                  
G23  21931015.215   115248273.440         547.460          50.250    21931014.654   115248274.720          38.250    21931012.382    89803849.991         426.602          38.250                                                                  
G24  24648132.219   129526800.898       -2750.852          40.000    24648130.609   129526806.148          22.250    24648134.360   100929978.357       -2143.803          22.250                                                                  
G12  24894574.106   130821870.389        1548.280          43.000    24894574.523   130821869.621          28.250    24894573.168   101939120.602        1206.441          28.250    24894574.580   101939120.350        1206.464          41.250  
G20  22104891.792   116161995.649       -3068.141          49.000    22104890.785   116161993.920          37.250    22104889.456    90515840.481       -2390.808          37.250                                                                  
R20  19287283.064   103137771.177         704.418          52.000    19287283.630   103137770.481          50.750    19287291.158    80218267.296         547.864          48.750    19287290.217    80218266.536         547.875          48.250  
R06  20705770.607   110489961.776        2608.519          53.000    20705771.195   110489961.070          52.500    20705776.285    85936635.024        2028.845          48.750    20705776.234    85936636.247        2028.843          46.250  
S29  40072868.976   210584345.474        -243.760          42.000  
S37  40100945.943   210731885.085        -243.427          41.250  
> 2011 01 15 02 26 48.0000000  0 19                     
G11  24440230.227   128434277.833       -3081.285          42.250    24440230.167   128434278.091          26.500    24440229.420   100078658.481       -2400.842          26.500                                                                  
G02  24375330.943   128093239.042        2375.472          47.750    24375330.964   128093240.301          31.250    24375329.138    99812915.340        1851.005          31.250                                                                  
R05  19215250.413   102716524.290       -1191.842          54.750    19215250.068   102716523.588          54.000    19215256.709    79890630.183        -926.990          49.500    19215256.349    79890630.422        -926.977          47.750  
R21  22160440.774   118584990.201        3496.075          49.750    22160440.531   118584997.499          49.000    22160445.562    92232774.417        2719.171          46.250    22160446.464    92232776.667        2719.170          44.750  
R19  20984478.395   112252808.230       -2981.691          52.750    20984477.549   112252808.541          51.500    20984483.180    87307739.066       -2319.102          47.750    20984482.961    87307740.309       -2319.101          46.250  
G10  22353391.079   117467865.315        2786.610          48.250    22353389.946   117467868.592          37.000    22353390.417    91533404.697        2171.448          37.000                                                                  
G13  22321559.263   117300592.907        2548.923          46.000    22321558.337   117300595.168          35.750    22321557.656    91403061.234        1986.154          35.750                                                                  
G04  21418068.152   112552711.349        1501.412          49.750    21418068.059   112552711.624          40.750    21418068.002    87703411.878        1169.948          40.750                                                                  
G32  25035216.581   131560971.861       -3632.511          39.500    25035219.975   131560971.091          21.500    25035219.300   102515042.136       -2830.398          21.500                                                                  
G17  20046190.898   105343447.948        -437.140          52.750    20046190.283   105343448.220          47.750    20046189.147    82085805.028        -340.616          47.750    20046189.357    82085804.788        -340.620          53.000  
G28  23541489.048   123711367.904       -3433.329          43.500    23541487.564   123711367.156          31.750    23541489.783    96398468.484       -2675.335          31.750                                                                  
G23  21930911.331   115247726.248         546.877          50.000    21930910.977   115247727.530          38.500    21930908.030    89803423.605         426.144          38.500                                                                  
G24  24648656.586   129529551.792       -2751.038          40.000    24648654.017   129529557.047          22.250    24648658.700   100932121.886       -2143.748          22.250                                                                  
G12  24894279.542   130820322.470        1547.579          43.000    24894279.731   130820321.693          28.250    24894278.538   101937914.406        1205.891          28.250    24894278.900   101937914.178        1205.938          41.000  
G20  22105475.416   116165063.882       -3068.447          48.750    22105474.456   116165062.147          37.250    22105473.542    90518231.306       -2390.988          37.250                                                                  
R20  19287151.458   103137067.110         703.723          52.000    19287151.740   103137066.411          50.750    19287159.270    80217719.686         547.345          48.750    19287158.653    80217718.927         547.351          48.250  
R06  20705282.224   110487353.557        2607.903          53.250    20705282.314   110487352.852          52.250    20705286.988    85934606.409        2028.371          48.500    20705287.594    85934607.631        2028.387          46.250  
S29  40072915.429   210584589.065        -243.537          42.250  
S37  40100992.390   210732128.081        -242.828          41.500  
> 2011 01 15 02 26 49.0000000  0 19                     
G11  24440816.651   128437359.494       -3081.999          42.500    24440816.261   128437359.742          27.250    24440815.619   100081059.789       -2401.492          27.250                                                                  
G02  24374879.134   128090863.719        2375.021          48.000    24374878.921   128090864.992          31.250    24374876.427    99811064.430        1850.665          31.250                                                                  
R05  19215473.704   102717716.653       -1193.053          54.500    19215473.198   102717715.951          53.750    19215479.406    79891557.575        -927.924          49.250    19215479.634    79891557.816        -927.928          48.000  
R21  22159787.125   118581494.375        3495.410          49.750    22159787.230   118581501.676          49.000    22159791.921    92230055.444        2718.644          46.500    22159793.312    92230057.692        2718.654          44.750  
R19  20985035.751   112255790.356       -2982.700          52.750    20985035.145   112255790.666          51.500    20985040.092    87310058.499       -2319.876          47.750    20985040.593    87310059.737       -2319.866          46.500  
G10  22352860.770   117465079.087        2785.732          48.250    22352859.730   117465082.366          37.000    22352860.165    91531233.618        2170.679          37.000                                                                  
G13  22321073.803   117298044.265        2548.157          46.500    22321073.446   117298046.535          36.000    22321072.928    91401075.281        1985.566          36.000                                                                  
G04  21417782.630   112551210.141        1500.836          49.500    21417782.159   112551210.414          40.250    21417782.477    87702242.105        1169.478          40.250                                                                  
G32  25035908.091   131564604.568       -3632.767          39.750    25035910.975   131564603.787          21.500    25035910.990   102517872.852       -2830.617          21.500                                                                  
G17  20046274.015   105343885.613        -438.269          52.750    20046273.596   105343885.885          47.750    20046272.402    82086146.067        -341.510          47.750    20046272.456    82086145.827        -341.511          52.750  
G28  23542142.857   123714801.360       -3433.870          43.000    23542141.265   123714800.622          31.500    23542143.180    96401143.898       -2675.749          31.500                                                                  
G23  21930807.339   115247179.876         545.743          49.750    21930806.730   115247181.159          39.000    21930804.227    89802997.863         425.241          39.000                                                                  
G24  24649180.279   129532302.906       -2751.479          40.500    24649178.486   129532308.136          22.250    24649181.157   100934265.630       -2144.128          22.250                                                                  
G12  24893985.317   130818775.225        1546.743          43.250    24893985.278   130818774.463          28.500    24893983.908   101936708.763        1205.308          28.500    24893985.188   101936708.534        1205.319          41.750  
G20  22106059.849   116168132.544       -3069.065          49.000    22106058.452   116168130.805          37.250    22106057.658    90520622.467       -2391.475          37.250                                                                  
R20  19287019.690   103136363.895         702.561          52.000    19287020.329   103136363.198          50.750    19287027.764    80217172.743         546.444          49.000    19287027.308    80217171.985         546.439          48.250  
R06  20704793.895   110484746.139        2606.801          53.250    20704793.838   110484745.431          52.250    20704799.124    85932578.414        2027.511          48.750    20704798.644    85932579.639        2027.520          46.500  
S29  40072960.335   210584832.965        -243.683          42.250  
S37  40101038.648   210732371.181        -243.652          41.500  
> 2011 01 15 02 26 50.0000000  0 19                     
G11  24441402.247   128440441.424       -3081.820          42.000    24441402.904   128440441.683          27.250    24441401.063   100083461.305       -2401.553          27.250                                                                  
G02  24374427.275   128088488.589        2375.301          48.000    24374426.487   128088489.860          32.000    24374424.613    99809213.687        1850.838          32.000                                                                  
R05  19215696.669   102718909.920       -1193.482          54.750    19215696.351   102718909.219          53.750    19215702.488    79892485.673        -928.269          49.500    19215703.133    79892485.914        -928.272          47.750  
R21  22159135.019   118577998.863        3495.604          49.750    22159134.120   118578006.165          48.750    22159140.098    92227336.714        2718.797          46.750    22159139.981    92227338.962        2718.802          44.750  
R19  20985593.191   112258773.212       -2982.996          52.750    20985593.011   112258773.523          51.500    20985597.922    87312378.500       -2320.124          48.000    20985598.420    87312379.738       -2320.113          46.500  
G10  22352331.034   117462293.405        2785.613          48.000    22352329.946   117462296.680          36.750    22352329.913    91529062.955        2170.617          36.750                                                                  
G13  22320589.054   117295496.176        2548.177          45.750    22320588.733   117295498.438          35.250    22320588.364    91399089.759        1985.600          35.250                                                                  
G04  21417496.966   112549709.328        1500.885          49.250    21417496.478   112549709.606          40.500    21417496.619    87701072.643        1169.528          40.500                                                                  
G32  25036600.390   131568237.523       -3632.958          39.250    25036601.772   131568236.764          21.500    25036602.525   102520703.719       -2830.706          21.500                                                                  
G17  20046357.588   105344324.064        -438.604          52.750    20046357.163   105344324.337          47.750    20046355.616    82086487.714        -341.767          47.750    20046355.967    82086487.475        -341.771          52.750  
G28  23542795.454   123718235.099       -3433.661          43.500    23542794.761   123718234.364          32.000    23542797.037    96403819.535       -2675.618          32.000                                                                  
G23  21930703.431   115246634.294         545.389          49.750    21930703.143   115246635.575          39.000    21930700.328    89802572.737         424.963          39.000                                                                  
G24  24649701.393   129535054.258       -2751.262          40.250    24649702.373   129535059.502          22.500    24649705.011   100936409.482       -2143.689          22.500                                                                  
G12  24893691.007   130817228.721        1546.257          42.500    24893690.851   130817227.962          28.750    24893689.751   101935503.700        1204.880          28.750    24893691.889   101935503.471        1204.889          42.000  
G20  22106643.281   116171201.637       -3068.970          48.750    22106642.640   116171199.900          37.250    22106641.435    90523013.963       -2391.345          37.250                                                                  
R20  19286889.116   103135661.523         702.209          52.250    19286889.047   103135660.828          51.000    19286895.906    80216626.454         546.168          49.000    19286896.056    80216625.695         546.162          48.250  
R06  20704304.688   110482139.484        2606.477          53.250    20704305.237   110482138.777          52.250    20704310.456    85930551.019        2027.262          48.750    20704310.363    85930552.243        2027.274          46.750  
S29  40073007.198   210585076.921        -243.967          42.000  
S37  40101082.468   210732614.669        -243.497          41.250  
> 2011 01 15 02 26 51.0000000  0 19                     
G11  24441989.514   128443523.286       -3081.872          42.250    24441988.953   128443523.534          27.250    24441987.484   100085862.734       -2401.488          27.250                                                                  
G02  24373975.185   128086113.305        2375.192          48.250    24373974.867   128086114.567          31.750    24373973.230    99807362.803        1850.769          31.750                                                                  
R05  19215919.808   102720103.748       -1194.323          54.750    19215919.766   102720103.047          53.750    19215926.541    79893414.208        -928.933          49.250    19215926.199    79893414.445        -928.923          47.750  
R21  22158480.512   118574503.336        3495.315          49.500    22158480.776   118574510.636          49.000    22158486.514    92224617.970        2718.593          46.750    22158486.934    92224620.221        2718.561          44.750  
R19  20986150.529   112261756.439       -2983.612          52.750    20986150.607   112261756.750          51.500    20986155.779    87314698.783       -2320.589          48.000    20986156.162    87314700.023       -2320.589          46.500  
G10  22351800.180   117459507.901        2785.227          47.750    22351799.310   117459511.180          37.000    22351800.438    91526892.434        2170.299          37.000                                                                  
G13  22320104.598   117292948.319        2547.561          46.250    22320103.582   117292950.583          35.750    22320103.375    91397104.421        1985.090          35.750                                                                  
G04  21417211.702   112548208.567        1500.579          49.500    21417210.656   112548208.841          40.000    21417210.907    87699903.222        1169.261          40.000                                                                  
G32  25037292.164   131571870.211       -3632.630          39.500    25037293.501   131571869.418          21.500    25037293.969   102523534.401       -2830.670          21.500                                                                  
G17  20046441.344   105344762.964        -439.323          52.750    20046440.577   105344763.238          48.000    20046439.300    82086829.716        -342.340          48.000    20046439.660    82086829.476        -342.341          52.750  
G28  23543450.003   123721668.779       -3433.867          43.250    23543448.471   123721668.048          31.500    23543449.469    96406495.120       -2675.730          31.500                                                                  
G23  21930599.466   115246089.152         544.714          50.000    21930599.097   115246090.429          39.000    21930596.276    89802147.948         424.494          39.000                                                                  
G24  24650227.370   129537805.477       -2751.342          40.500    24650225.796   129537810.710          22.500    24650228.965   100938553.316       -2143.907          22.500                                                                  
G12  24893396.009   130815682.540        1545.853          43.250    24893396.680   130815681.766          28.500    24893396.629   101934298.897        1204.508          28.500    24893396.695   101934298.662        1204.536          41.750  
G20  22107227.745   116174270.828       -3069.455          48.750    22107226.534   116174269.092          37.500    22107225.892    90525405.548       -2391.751          37.500                                                                  
R20  19286757.495   103134959.638         701.432          52.250    19286757.731   103134958.944          51.000    19286764.843    80216080.543         545.556          48.750    19286764.558    80216079.787         545.563          48.250  
R06  20703816.629   110479533.239        2605.868          53.250    20703816.905   110479532.533          52.500    20703822.628    85928523.937        2026.782          48.750    20703821.672    85928525.166        2026.786          46.250  
S29  40073054.035   210585320.878        -244.096          42.250  
S37  40101128.244   210732857.880        -243.490          41.500  
> 2011 01 15 02 26 52.0000000  0 19                     
G11  24442576.525   128446605.416       -3082.423          42.000    24442575.356   128446605.674          27.000    24442574.532   100088264.398       -2401.979          27.000                                                                  
G02  24373523.251   128083738.146        2374.936          48.250    24373523.281   128083739.407          31.250    24373521.053    99805512.023        1850.650          31.250                                                                  
R05  19216143.540   102721298.430       -1195.253          54.750    19216143.198   102721297.731          53.750    19216149.302    79894343.404        -929.646          49.500    19216149.667    79894343.644        -929.642          48.000  
R21  22157828.113   118571008.078        3494.960          49.500    22157827.828   118571015.376          48.750    22157832.409    92221899.441        2718.314          46.750    22157833.545    92221901.688        2718.294          45.000  
R19  20986709.300   112264740.347       -2984.388          52.500    20986708.284   112264740.656          51.500    20986713.680    87317019.599       -2321.181          48.000    20986713.692    87317020.840       -2321.187          46.750  
G10  22351270.614   117456722.878        2784.695          47.750    22351269.676   117456726.158          36.750    22351270.398    91524722.291        2169.865          36.750                                                                  
G13  22319620.316   117290400.948        2546.919          46.500    22319618.700   117290403.206          35.250    22319618.922    91395119.452        1984.659          35.250                                                                  
G04  21416925.700   112546708.154        1500.200          49.250    21416925.538   112546708.427          40.000    21416925.511    87698734.063        1168.990          40.000                                                                  
G32  25037985.216   131575503.080       -3632.855          39.000    25037984.739   131575502.335          21.500    25037985.248   102526365.191       -2830.716          21.500                                                                  
G17  20046524.963   105345202.581        -440.106          52.750    20046524.198   105345202.855          47.750    20046522.873    82087172.274        -342.948          47.750    20046523.245    82087172.033        -342.942          52.750  
G28  23544103.253   123725102.685       -3434.187          43.250    23544101.440   123725101.940          32.000    23544102.348    96409170.893       -2675.992          32.000                                                                  
G23  21930495.768   115245544.740         543.875          50.250    21930495.327   115245546.021          39.000    21930492.965    89801723.735         423.784          39.000                                                                  
G24  24650749.344   129540556.883       -2751.711          40.250    24650749.003   129540562.123          22.500    24650752.594   100940697.259       -2144.062          22.500                                                                  
G12  24893101.540   130814137.051        1544.971          43.250    24893102.913   130814136.303          28.250    24893103.654   101933094.617        1203.793          28.250    24893102.479   101933094.377        1203.877          42.000  
G20  22107811.890   116177340.347       -3069.766          48.500    22107811.003   116177338.609          37.250    22107809.981    90527797.385       -2392.054          37.250                                                                  
R20  19286626.275   103134258.526         700.600          52.250    19286626.605   103134257.829          50.750    19286633.926    80215535.233         544.925          48.750    19286633.644    80215534.474         544.923          48.250  
R06  20703328.336   110476927.706        2605.041          53.000    20703328.426   110476926.999          52.500    20703333.495    85926497.412        2026.143          48.750    20703333.223    85926498.640        2026.154          46.750  
S29  40073101.075   210585565.071        -244.358          42.000  
S37  40101175.224   210733101.624        -244.237          41.250  
> 2011 01 15 02 26 53.0000000  0 19                     
G11  24443162.215   128449687.447       -3081.669          42.000    24443161.540   128449687.695          26.750    24443161.708   100090665.987       -2401.378          26.750                                                                  
G02  24373070.648   128081362.822        2375.643          48.000    24373070.726   128081364.093          32.000    24373069.614    99803661.136        1851.100          32.000                                                                  
R05  19216367.185   102722493.701       -1195.302          54.750    19216366.837   102722493.000          53.750    19216372.737    79895273.057        -929.673          49.500    19216373.438    79895273.298        -929.679          47.750  
R21  22157175.363   118567512.805        3495.490          49.250    22157174.526   118567520.108          49.000    22157179.482    92219180.899        2718.695          46.500    22157180.504    92219183.145        2718.705          45.000  
R19  20987266.753   112267724.642       -2984.241          52.500    20987266.153   112267724.950          51.750    20987271.174    87319340.716       -2321.072          48.250    20987271.462    87319341.956       -2321.076          46.500  
G10  22350740.692   117453938.067        2784.957          48.000    22350740.314   117453941.349          36.750    22350740.596    91522552.304        2170.077          36.750                                                                  
G13  22319135.039   117287853.775        2547.298          46.500    22319134.290   117287856.034          35.500    22319134.095    91393134.641        1984.911          35.500                                                                  
G04  21416640.555   112545207.784        1500.618          49.250    21416640.085   112545208.055          40.500    21416639.740    87697564.948        1169.305          40.500                                                                  
G32  25038676.585   131579135.812       -3632.396          39.250    25038676.261   131579135.023          21.500    25038676.522   102529195.907       -2830.440          21.500                                                                  
G17  20046608.557   105345642.644        -440.007          53.000    20046607.897   105345642.919          47.750    20046606.716    82087515.179        -342.861          47.750    20046606.938    82087514.940        -342.865          52.750  
G28  23544756.195   123728536.530       -3433.690          43.500    23544755.452   123728535.792          31.750    23544756.234    96411846.618       -2675.593          31.750                                                                  
G23  21930392.354   115245000.780         543.962          50.250    21930391.920   115245002.064          38.750    21930389.197    89801299.869         423.854          38.750                                                                  
G24  24651273.157   129543308.141       -2750.985          40.750    24651273.025   129543313.391          22.250    24651275.561   100942841.107       -2143.689          22.250                                                                  
G12  24892809.138   130812591.926        1545.075          43.500    24892808.568   130812591.159          28.500    24892808.053   101931890.603        1204.088          28.500    24892808.964   101931890.382        1203.981          41.750  
G20  22108395.706   116180409.974       -3069.469          48.750    22108394.045   116180408.238          37.250    22108394.018    90530189.302       -2391.806          37.250                                                                  
R20  19286495.884   103133557.908         700.654          52.250    19286495.602   103133557.213          50.750    19286502.353    80214990.307         544.962          49.000    19286502.545    80214989.551         544.944          48.250  
R06  20702840.142   110474322.590        2605.169          53.000    20702840.211   110474321.885          52.250    20702845.424    85924471.212        2026.240          48.500    20702845.394    85924472.441        2026.235          46.750  
S29  40073147.924   210585809.139        -243.363          42.250  
S37  40101222.747   210733345.128        -243.127          41.000  
> 2011 01 15 02 26 54.0000000  0 19                     
G11  24443749.394   128452769.520       -3082.039          42.250    24443748.180   128452769.793          26.750    24443747.898   100093067.601       -2401.582          26.750                                                                  
G02  24372618.369   128078987.426        2375.424          47.750    24372618.291   128078988.687          31.250    24372617.332    99801810.162        1851.000          31.250                                                                  
R05  19216590.482   102723689.631       -1196.248          54.500    19216590.416   102723688.933          53.750    19216596.259    79896203.226        -930.413          49.500    19216596.835    79896203.466        -930.411          47.750  
R21  22156521.716   118564017.588        3495.214          49.500    22156521.434   118564024.890          49.000    22156527.661    92216462.395        2718.494          46.500    22156527.211    92216464.642        2718.490          45.000  
R19  20987824.552   112270709.394       -2984.979          52.500    20987824.154   112270709.703          51.500    20987828.785    87321662.189       -2321.643          48.000    20987829.244    87321663.431       -2321.664          46.750  
G10  22350210.593   117451153.522        2784.414          48.000    22350209.997   117451156.803          36.750    22350210.572    91520382.537        2169.645          36.750                                                                  
G13  22318650.269   117285306.907        2546.680          46.750    22318649.406   117285309.173          36.000    22318649.412    91391150.077        1984.395          36.000                                                                  
G04  21416354.793   112543707.498        1500.281          49.250    21416354.619   112543707.773          40.250    21416354.379    87696395.896        1169.035          40.250                                                                  
G32  25039365.763   131582768.455       -3632.710          39.000    25039367.019   131582767.698          21.000    25039368.227   102532026.528       -2830.609          21.000                                                                  
G17  20046692.343   105346083.240        -440.852          52.750    20046691.839   105346083.514          47.750    20046690.493    82087858.500        -343.520          47.750    20046690.928    82087858.260        -343.523          52.750  
G28  23545409.755   123731970.383       -3433.866          43.500    23545408.907   123731969.649          32.000    23545410.091    96414522.334       -2675.661          32.000                                                                  
G23  21930289.460   115244457.338         543.213          50.500    21930288.677   115244458.623          39.000    21930285.859    89800876.413         423.261          39.000                                                                  
G24  24651797.344   129546059.386       -2751.332          40.500    24651796.465   129546064.639          23.250    24651799.146   100944984.924       -2143.841          23.250                                                                  
G12  24892514.820   130811047.217        1544.473          43.250    24892515.182   130811046.465          28.250    24892513.887   101930686.943        1203.419          28.250    24892515.089   101930686.717        1203.457          41.750  
G20  22108979.894   116183479.741       -3069.883          48.750    22108978.787   116183478.012          37.500    22108978.287    90532581.318       -2392.072          37.500                                                                  
R20  19286364.089   103132857.862         699.778          52.000    19286364.572   103132857.165          51.000    19286372.189    80214445.827         544.276          49.000    19286371.503    80214445.070         544.265          48.250  
R06  20702352.062   110471717.976        2604.373          53.000    20702352.200   110471717.273          52.250    20702357.527    85922445.402        2025.631          48.750    20702357.092    85922446.632        2025.637          46.500  
S29  40073195.339   210586052.818        -244.030          42.500  
S37  40101267.560   210733588.733        -243.334          41.250  
> 2011 01 15 02 26 55.0000000  0 19                     
G11  24444336.223   128455851.516       -3082.185          42.000    24444334.781   128455851.756          26.750    24444334.125   100095469.156       -2401.714          26.750                                                                  
G02  24372166.246   128076611.843        2375.464          47.750    24372166.028   128076613.114          31.500    24372165.728    99799959.066        1850.973          31.500                                                                  
R05  19216814.697   102724886.119       -1196.974          54.500    19216814.379   102724885.418          53.500    19216820.405    79897133.825        -930.966          49.500    19216821.023    79897134.069        -930.982          47.750  
R21  22155868.375   118560522.340        3495.050          49.250    22155868.223   118560529.640          49.000    22155874.161    92213743.870        2718.362          46.750    22155873.745    92213746.117        2718.367          45.000  
R19  20988382.130   112273694.502       -2985.518          52.500    20988382.355   112273694.811          51.750    20988387.233    87323983.938       -2322.064          48.000    20988387.467    87323985.179       -2322.078          46.500  
G10  22349681.001   117448369.160        2784.049          48.000    22349679.961   117448372.441          37.000    22349680.812    91518212.896        2169.406          37.000                                                                  
G13  22318165.316   117282760.207        2546.369          46.500    22318165.043   117282762.482          35.500    22318164.389    91389165.630        1984.217          35.500                                                                  
G04  21416069.550   112542207.274        1500.004          49.250    21416068.791   112542207.552          40.000    21416068.782    87695226.883        1168.878          40.000                                                                  
G32  25040056.766   131586400.890       -3632.726          39.000    25040057.939   131586400.158          21.000    25040058.841   102534857.007       -2830.726          21.000                                                                  
G17  20046776.135   105346524.248        -441.397          52.750    20046775.754   105346524.523          47.750    20046774.381    82088202.142        -343.943          47.750    20046774.369    82088201.903        -343.942          52.750  
G28  23546063.024   123735404.145       -3433.898          43.750    23546062.868   123735403.418          32.000    23546063.183    96417197.996       -2675.834          32.000                                                                  
G23  21930186.076   115243914.332         542.582          50.000    21930185.273   115243915.616          39.250    21930182.569    89800453.288         422.798          39.250                                                                  
G24  24652319.501   129548810.466       -2751.275          40.500    24652320.248   129548815.678          23.250    24652323.054   100947128.639       -2143.874          23.250                                                                  
G12  24892221.071   130809502.861        1544.051          42.750    24892220.522   130809502.075          28.500    24892219.941   101929483.544        1203.207          28.500    24892220.312   101929483.313        1203.206          42.000  
G20  22109564.282   116186549.551       -3069.985          48.750    22109563.434   116186547.824          37.750    22109562.618    90534973.387       -2392.223          37.750                                                                  
R20  19286234.827   103132158.281         699.150          52.000    19286233.841   103132157.584          51.000    19286241.363    80213901.712         543.779          49.000    19286240.658    80213900.953         543.785          48.250  
R06  20701863.673   110469113.751        2603.806          53.000    20701864.171   110469113.043          52.250    20701868.167    85920419.895        2025.176          48.500    20701868.961    85920421.123        2025.184          46.500  
S29  40073240.812   210586296.865        -244.242          42.500  
S37  40101314.855   210733831.787        -243.124          41.750  
> 2011 01 15 02 26 56.0000000  0 19                     
G11  24444922.413   128458934.045       -3082.956          42.500    24444920.998   128458934.299          27.000    24444920.767   100097871.111       -2402.272          27.000                                                                  
G02  24371714.780   128074236.690        2374.992          47.750    24371713.974   128074237.955          31.750    24371713.425    99798108.294        1850.703          31.750                                                                  
R05  19217038.501   102726083.758       -1198.193          54.500    19217038.432   102726083.060          53.750    19217044.332    79898065.324        -931.921          49.500    19217044.884    79898065.567        -931.944          48.000  
R21  22155214.543   118557027.666        3494.443          49.500    22155215.059   118557034.965          49.250    22155221.214    92211025.791        2717.901          46.750    22155221.130    92211028.036        2717.898          45.250  
R19  20988941.105   112276680.588       -2986.557          52.500    20988940.416   112276680.894          51.750    20988945.198    87326306.449       -2322.885          48.000    20988945.620    87326307.688       -2322.876          46.500  
G10  22349151.330   117445585.579        2783.211          47.750    22349150.311   117445588.865          37.000    22349151.076    91516043.873        2168.735          37.000                                                                  
G13  22317681.181   117280214.314        2545.427          46.750    22317680.419   117280216.581          35.750    22317679.391    91387181.817        1983.404          35.750                                                                  
G04  21415784.492   112540707.701        1499.248          49.250    21415783.470   112540707.983          40.500    21415783.524    87694058.397        1168.219          40.500                                                                  
G32  25040748.157   131590033.777       -3633.251          38.750    25040749.314   131590032.986          21.250    25040750.663   102537687.812       -2831.062          21.250                                                                  
G17  20046860.172   105346966.299        -442.572          52.500    20046859.720   105346966.573          47.750    20046858.515    82088546.598        -344.859          47.750    20046858.976    82088546.358        -344.866          52.750  
G28  23546717.621   123738838.458       -3434.687          43.000    23546715.720   123738837.715          31.750    23546717.162    96419874.081       -2676.394          31.750                                                                  
G23  21930082.552   115243372.359         541.487          50.000    21930082.537   115243373.637          38.750    21930079.260    89800030.969         421.948          38.750                                                                  
G24  24652844.948   129551562.036       -2751.952          40.500    24652843.578   129551567.275          23.500    24652845.976   100949272.690       -2144.390          23.500                                                                  
G12  24891927.046   130807959.443        1543.000          42.750    24891927.226   130807958.691          28.000    24891926.492   101928280.901        1202.219          28.000    24891927.286   101928280.665        1202.287          41.750  
G20  22110148.653   116189620.043       -3070.751          48.750    22110147.816   116189618.309          37.500    22110146.887    90537365.974       -2392.799          37.500                                                                  
R20  19286102.904   103131459.786         697.931          52.000    19286103.123   103131459.094          51.000    19286110.345    80213358.437         542.836          49.000    19286110.078    80213357.678         542.842          48.250  
R06  20701376.321   110466510.528        2602.746          53.000    20701376.228   110466509.821          52.500    20701381.535    85918395.169        2024.339          48.750    20701381.145    85918396.394        2024.349          46.750  
S29  40073286.959   210586541.099        -244.072          43.000  
S37  40101361.356   210734075.153        -243.630          41.500  
> 2011 01 15 02 26 57.0000000  0 19                     
G11  24445509.539   128462016.798       -3082.655          42.250    24445508.556   128462017.045          27.500    24445507.641   100100273.268       -2402.117          27.500                                                                  
G02  24371262.744   128071861.687        2375.246          47.750    24371262.381   128071862.958          31.500    24371261.839    99796257.663        1850.722          31.500                                                                  
R05  19217262.902   102727282.263       -1198.610          54.500    19217262.476   102727281.562          53.500    19217268.949    79898997.495        -932.246          49.250    19217269.233    79898997.734        -932.254          48.000  
R21  22154562.450   118553533.286        3494.561          49.500    22154561.985   118553540.584          49.250    22154567.594    92208307.941        2718.011          46.500    22154568.478    92208310.188        2717.996          45.250  
R19  20989500.080   112279667.368       -2986.817          52.500    20989498.641   112279667.676          51.750    20989503.390    87328629.496       -2323.061          48.000    20989504.212    87328630.736       -2323.060          46.500  
G10  22348621.222   117442802.506        2783.123          47.750    22348620.830   117442805.782          36.750    22348621.582    91513875.239        2168.703          36.750                                                                  
G13  22317197.442   117277668.930        2545.421          47.250    22317196.647   117277671.198          35.750    22317195.610    91385198.403        1983.453          35.750                                                                  
G04  21415498.787   112539208.471        1499.345          49.500    21415497.872   112539208.749          40.500    21415498.421    87692890.162        1168.334          40.500                                                                  
G32  25041438.066   131593666.762       -3632.696          39.000    25041440.237   131593665.999          21.250    25041442.311   102540518.691       -2830.706          21.250                                                                  
G17  20046944.453   105347409.100        -442.880          52.500    20046944.198   105347409.373          47.750    20046942.882    82088891.636        -345.097          47.750    20046943.083    82088891.394        -345.096          52.750  
G28  23547370.886   123742272.979       -3434.298          43.250    23547368.923   123742272.244          31.500    23547370.278    96422550.331       -2676.141          31.500                                                                  
G23  21929979.360   115242831.134         541.150          50.000    21929979.111   115242832.417          38.750    21929976.341    89799609.236         421.685          38.750                                                                  
G24  24653367.582   129554313.770       -2751.659          40.750    24653367.423   129554318.991          23.500    24653369.312   100951416.894       -2144.187          23.500                                                                  
G12  24891633.589   130806416.707        1542.894          43.500    24891633.349   130806415.942          28.000    24891633.283   101927078.762        1202.246          28.000    24891634.086   101927078.528        1202.302          42.250  
G20  22110732.897   116192690.928       -3070.804          48.500    22110731.938   116192689.197          37.750    22110731.254    90539758.871       -2392.858          37.750                                                                  
R20  19285972.083   103130762.072         697.633          52.000    19285972.683   103130761.375          51.000    19285979.815    80212815.766         542.617          49.000    19285979.707    80212815.010         542.610          48.250  
R06  20700888.544   110463908.026        2602.438          53.000    20700888.559   110463907.318          52.500    20700893.997    85916371.000        2024.122          48.500    20700893.512    85916372.225        2024.134          46.500  
S29  40073332.668   210586785.383        -244.342          42.750  
S37  40101408.376   210734318.862        -243.458          41.250  
> 2011 01 15 02 26 58.0000000  0 19                     
G11  24446095.762   128465099.353       -3082.649          42.500    24446094.344   128465099.613          26.750    24446093.813   100102675.240       -2402.016          26.750                                                                  
G02  24370810.969   128069486.367        2375.319          47.500    24370809.853   128069487.637          31.500    24370809.862    99794406.752        1850.928          31.500                                                                  
R05  19217486.883   102728481.173       -1199.336          54.500    19217486.712   102728480.473          53.500    19217492.498    79899929.980        -932.826          49.250    19217493.394    79899930.220        -932.808          47.500  
R21  22153909.127   118550038.721        3494.449          49.500    22153908.911   118550046.018          49.250    22153914.673    92205589.945        2717.918          46.750    22153915.102    92205592.189        2717.932          45.000  
R19  20990057.590   112282654.377       -2987.359          52.500    20990057.341   112282654.683          51.750    20990062.332    87330952.726       -2323.513          47.750    20990062.686    87330953.961       -2323.495          46.500  
G10  22348091.615   117440019.477        2782.790          47.750    22348090.857   117440022.757          37.250    22348092.083    91511706.650        2168.422          37.250                                                                  
G13  22316712.410   117275123.607        2545.061          47.250    22316712.015   117275125.869          36.000    22316711.889    91383215.043        1983.144          36.000                                                                  
G04  21415213.468   112537709.145        1499.192          49.500    21415213.303   112537709.419          40.250    21415212.764    87691721.861        1168.176          40.250                                                                  
G32  25042130.086   131597299.465       -3632.722          39.250    25042131.408   131597298.681          21.250    25042134.136   102543349.387       -2830.567          21.250                                                                  
G17  20047028.995   105347852.193        -443.436          52.750    20047028.407   105347852.468          47.750    20047027.043    82089236.905        -345.540          47.750    20047027.010    82089236.664        -345.543          52.750  
G28  23548024.230   123745707.316       -3434.402          43.250    23548022.512   123745706.580          31.500    23548023.852    96425226.412       -2676.045          31.500                                                                  
G23  21929876.672   115242290.208         540.602          50.250    21929875.878   115242291.488          39.000    21929873.300    89799187.734         421.275          39.000                                                                  
G24  24653891.088   129557065.226       -2751.549          41.000    24653891.337   129557070.458          23.500    24653892.839   100953560.900       -2144.124          23.500                                                                  
G12  24891339.552   130804874.203        1542.203          43.250    24891340.542   130804873.455          28.250    24891339.109   101925876.820        1201.717          28.250    24891341.294   101925876.588        1201.712          42.500  
G20  22111317.399   116195761.723       -3071.006          48.500    22111316.257   116195759.988          37.500    22111315.856    90542151.694       -2392.965          37.500                                                                  
R20  19285841.767   103130064.691         696.996          52.000    19285842.180   103130063.994          51.000    19285849.825    80212273.362         542.118          48.750    19285849.156    80212272.604         542.103          48.250  
R06  20700401.447   110461305.789        2601.893          53.000    20700400.767   110461305.082          52.500    20700406.484    85914347.042        2023.693          48.250    20700406.079    85914348.266        2023.682          46.500  
S29  40073380.959   210587029.434        -244.027          42.500  
S37  40101453.470   210734562.257        -243.505          41.500  
> 2011 01 15 02 26 59.0000000  0 19                     
G11  24446681.892   128468182.151       -3082.786          41.750    24446681.892   128468182.399          27.500    24446680.540   100105077.436       -2402.194          27.500                                                                  
G02  24370359.445   128067111.197        2375.199          47.500    24370358.234   128067112.467          31.000    24370357.646    99792555.972        1850.760          31.000                                                                  
R05  19217711.679   102729680.958       -1200.123          54.500    19217711.253   102729680.259          53.250    19217716.832    79900863.147        -933.428          49.250    19217717.876    79900863.386        -933.414          48.000  
R21  22153256.449   118546544.441        3494.220          49.500    22153256.017   118546551.739          49.250    22153262.567    92202872.174        2717.735          47.250    22153262.504    92202874.419        2717.749          45.500  
R19  20990616.559   112285642.063       -2987.924          52.500    20990615.968   112285642.370          51.750    20990620.867    87333276.481       -2323.942          48.000    20990620.864    87333277.717       -2323.922          46.500  
G10  22347562.517   117437236.948        2782.386          48.000    22347561.852   117437240.226          37.250    22347562.556    91509538.445        2168.089          37.250                                                                  
G13  22316227.688   117272578.786        2544.635          46.750    22316227.628   117272581.047          35.750    22316227.586    91381232.063        1982.831          35.750                                                                  
G04  21414928.665   112536210.151        1498.902          49.750    21414927.439   112536210.424          40.250    21414927.508    87690553.810        1167.976          40.250                                                                  
G32  25042821.923   131600932.305       -3632.785          39.250    25042822.583   131600931.540          21.250    25042825.512   102546180.150       -2830.630          21.250                                                                  
G17  20047113.392   105348296.038        -444.126          52.750    20047112.922   105348296.311          47.750    20047111.644    82089582.757        -346.070          47.750    20047111.575    82089582.516        -346.069          52.750  
G28  23548678.305   123749141.897       -3434.690          42.750    23548676.003   123749141.172          31.750    23548677.442    96427902.728       -2676.370          31.750                                                                  
G23  21929774.023   115241750.042         539.884          50.250    21929773.367   115241751.323          39.000    21929770.699    89798766.832         420.682          39.000                                                                  
G24  24654413.768   129559816.845       -2751.430          40.500    24654414.883   129559822.046          23.500    24654416.520   100955705.003       -2144.007          23.500                                                                  
G12  24891047.108   130803332.353        1541.623          42.750    24891046.685   130803331.601          28.500    24891045.594   101924675.400        1201.139          28.500    24891047.395   101924675.148        1201.281          42.750  
G20  22111902.082   116198832.896       -3071.302          48.500    22111900.787   116198831.167          37.750    22111899.761    90544544.823       -2393.216          37.750                                                                  
R20  19285712.001   103129368.094         696.319          51.750    19285711.962   103129367.397          51.000    19285719.035    80211731.564         541.576          49.000    19285718.831    80211730.805         541.579          48.250  
R06  20699913.619   110458704.266        2601.287          53.000    20699913.382   110458703.559          52.500    20699918.002    85912323.635        2023.227          48.500    20699918.721    85912324.858        2023.228          46.500  
S29  40073427.373   210587273.510        -244.110          43.250  
S37  40101499.749   210734805.691        -243.550          41.750  
> 2011 01 15 02 27 00.0000000  0 19                     
G11  24447268.691   128471265.140       -3083.126          41.750    24447268.005   128471265.391          26.750    24447266.838   100107479.739       -2402.352          26.750                                                                  
G02  24369906.813   128064736.081        2375.171          47.750    24369905.709   128064737.355          31.500    24369905.967    99790705.246        1850.734          31.500                                                                  
R05  19217936.553   102730881.551       -1200.956          54.250    19217935.849   102730880.851          53.500    19217942.097    79901796.941        -934.077          49.250    19217942.510    79901797.182        -934.078          47.750  
R21  22152603.459   118543050.371        3493.973          49.750    22152602.946   118543057.671          49.250    22152609.380    92200154.567        2717.531          46.750    22152609.113    92200156.813        2717.543          45.250  
R19  20991175.132   112288630.359       -2988.564          52.500    20991174.511   112288630.665          51.750    20991179.227    87335600.706       -2324.421          48.000    20991179.752    87335601.947       -2324.442          46.250  
G10  22347032.964   117434454.832        2781.982          48.000    22347032.337   117434458.113          37.500    22347032.601    91507370.569        2167.762          37.500                                                                  
G13  22315744.647   117270034.418        2544.066          46.500    22315743.241   117270036.685          35.750    22315743.322    91379249.442        1982.384          35.750                                                                  
G04  21414643.206   112534711.433        1498.624          49.750    21414642.310   112534711.705          40.500    21414642.385    87689385.975        1167.781          40.500                                                                  
G32  25043513.379   131604565.202       -3632.958          39.000    25043513.955   131604564.395          19.750    25043516.488   102549011.031       -2830.954          19.750                                                                  
G17  20047197.889   105348740.546        -444.802          53.000    20047197.517   105348740.819          47.750    20047196.123    82089929.128        -346.599          47.750    20047196.570    82089928.886        -346.599          52.750  
G28  23549330.456   123752576.610       -3434.701          42.750    23549329.820   123752575.880          32.000    23549331.286    96430579.115       -2676.384          32.000                                                                  
G23  21929671.500   115241210.539         539.194          50.000    21929670.598   115241211.817          38.500    21929668.472    89798346.438         420.151          38.500                                                                  
G24  24654938.362   129562568.626       -2751.816          40.250    24654938.114   129562573.877          23.500    24654940.131   100957849.248       -2144.371          23.500                                                                  
G12  24890753.386   130801791.085        1541.146          42.750    24890753.122   130801790.334          28.250    24890752.223   101923474.404        1200.842          28.250    24890754.633   101923474.159        1200.898          42.500  
G20  22112486.173   116201904.366       -3071.566          48.250    22112485.175   116201902.637          37.500    22112484.869    90546938.171       -2393.425          37.500                                                                  
R20  19285581.586   103128672.211         695.577          51.750    19285581.709   103128671.517          50.750    19285589.221    80211190.320         541.015          48.750    19285588.664    80211189.565         541.010          48.250  
R06  20699426.369   110456103.388        2600.603          53.000    20699426.082   110456102.681          52.500    20699431.715    85910300.730        2022.703          48.500    20699431.100    85910301.955        2022.696          46.500  
S29  40073474.353   210587517.767        -244.376          43.000  
S37  40101545.171   210735049.624        -243.963          41.750  
> 2011 01 15 02 27 01.0000000  0 19                     
G11  24447854.827   128474348.197       -3082.962          42.000    24447854.593   128474348.456          27.000    24447852.786   100109882.134       -2402.205          27.000                                                                  
G02  24369455.358   128062360.974        2375.305          47.750    24369453.311   128062362.239          31.000    24369453.550    99788854.516        1850.855          31.000                                                                  
R05  19218160.636   102732082.868       -1201.465          54.250    19218160.537   102732082.171          53.500    19218167.085    79902731.298        -934.474          49.250    19218167.223    79902731.541        -934.472          47.750  
R21  22151950.511   118539556.423        3494.136          49.750    22151950.127   118539563.721          49.250    22151955.748    92197437.052        2717.651          47.000    22151956.309    92197439.295        2717.650          45.250  
R19  20991734.338   112291619.173       -2988.847          52.750    20991733.049   112291619.480          52.000    20991738.055    87337925.337       -2324.664          48.000    20991738.451    87337926.577       -2324.652          46.250  
G10  22346503.962   117431673.071        2781.833          48.000    22346503.318   117431676.352          37.000    22346503.998    91505202.958        2167.672          37.000                                                                  
G13  22315260.231   117267490.362        2544.206          46.500    22315259.164   117267492.626          35.750    22315259.298    91377267.058        1982.487          35.750                                                                  
G04  21414358.661   112533212.919        1498.653          49.750    21414357.060   112533213.194          40.500    21414357.291    87688218.304        1167.771          40.500                                                                  
G32  25044204.569   131608198.062       -3632.505          39.500    25044205.127   131608197.249          19.750    25044208.226   102551841.801       -2830.577          19.750                                                                  
G17  20047282.730   105349185.647        -445.160          52.750    20047282.199   105349185.921          47.750    20047281.006    82090275.958        -346.883          47.750    20047281.327    82090275.718        -346.882          52.750  
G28  23549983.958   123756011.444       -3434.777          42.500    23549983.578   123756010.713          32.250    23549984.570    96433255.611       -2676.470          32.250                                                                  
G23  21929569.073   115240671.629         538.822          50.250    21929567.994   115240672.912          39.000    21929565.880    89797926.512         419.826          39.000                                                                  
G24  24655462.385   129565320.385       -2751.452          41.000    24655461.608   129565325.634          24.000    24655464.792   100959993.479       -2143.981          24.000                                                                  
G12  24890459.433   130800250.357        1540.664          42.750    24890459.416   130800249.606          28.000    24890459.116   101922273.834        1200.417          28.000    24890459.445   101922273.599        1200.493          42.500  
G20  22113070.613   116204976.065       -3071.569          48.250    22113069.788   116204974.335          37.750    22113069.402    90549331.697       -2393.385          37.750                                                                  
R20  19285452.234   103127976.958         695.177          52.000    19285451.521   103127976.261          51.000    19285459.402    80210649.569         540.695          49.000    19285458.761    80210648.810         540.698          48.500  
R06  20698938.541   110453503.070        2600.247          53.000    20698938.802   110453502.361          52.500    20698944.978    85908278.262        2022.427          48.500    20698943.730    85908279.490        2022.400          46.500  
S29  40073520.518   210587761.921        -244.033          43.250  
S37  40101591.018   210735293.584        -243.694          41.500  
> 2011 01 15 02 27 02.0000000  0 19                     
G11  24448441.698   128477430.924       -3082.651          42.250    24448441.422   128477431.193          26.500    24448440.094   100112284.254       -2402.058          26.500                                                                  
G02  24369002.588   128059985.450        2375.572          47.750    24369001.167   128059986.732          31.500    24369002.114    99787003.458        1851.050          31.500                                                                  
R05  19218386.293   102733284.508       -1201.942          54.250    19218385.343   102733283.813          53.500    19218391.857    79903665.910        -934.853          49.250    19218391.908    79903666.153        -934.856          47.750  
R21  22151298.186   118536062.223        3494.210          49.750    22151297.161   118536069.520          49.250    22151302.189    92194719.337        2717.724          47.000    22151303.271    92194721.583        2717.725          45.500  
R19  20992292.419   112294608.120       -2989.159          52.750    20992291.829   112294608.428          51.750    20992296.838    87340250.072       -2324.894          48.000    20992297.213    87340251.316       -2324.911          46.500  
G10  22345974.829   117428891.257        2781.748          48.000    22345974.019   117428894.536          37.250    22345974.187    91503035.308        2167.605          37.250                                                                  
G13  22314775.814   117264946.307        2543.933          46.500    22314774.732   117264948.567          35.500    22314775.128    91375284.679        1982.311          35.500                                                                  
G04  21414073.106   112531714.210        1498.693          49.750    21414071.754   112531714.485          40.250    21414072.122    87687050.480        1167.822          40.250                                                                  
G32  25044894.958   131611830.571       -3632.534          39.500    25044896.373   131611829.802          19.750    25044899.284   102554672.351       -2830.636          19.750                                                                  
G17  20047367.532   105349630.951        -445.565          53.000    20047366.915   105349631.226          47.750    20047365.611    82090622.948        -347.193          47.750    20047365.910    82090622.708        -347.199          52.750  
G28  23550638.546   123759445.914       -3434.458          42.750    23550637.665   123759445.178          32.000    23550638.408    96435931.814       -2676.244          32.000                                                                  
G23  21929466.556   115240132.927         538.436          50.250    21929465.804   115240134.210          39.250    21929463.214    89797506.746         419.545          39.250                                                                  
G24  24655985.735   129568071.818       -2751.432          40.750    24655984.470   129568077.050          24.000    24655988.215   100962137.446       -2143.974          24.000                                                                  
G12  24890166.893   130798709.728        1540.443          43.000    24890166.099   130798708.959          28.750    24890166.380   101921073.328        1200.372          28.750    24890167.993   101921073.099        1200.363          42.750  
G20  22113655.133   116208047.601       -3071.643          48.250    22113654.240   116208045.870          37.250    22113653.934    90551725.113       -2393.555          37.250                                                                  
R20  19285321.998   103127281.941         694.756          51.750    19285321.612   103127281.246          51.000    19285328.468    80210109.003         540.349          48.750    19285328.954    80210108.244         540.353          48.500  
R06  20698451.192   110450902.912        2599.957          53.000    20698451.459   110450902.208          52.500    20698457.689    85906255.921        2022.173          48.750    20698456.145    85906257.146        2022.166          46.500  
S29  40073567.801   210588006.333        -244.405          43.500  
S37  40101636.839   210735537.166        -243.207          41.750  
> 2011 01 15 02 27 03.0000000  0 19                     
G11  24449028.500   128480514.118       -3083.309          42.000    24449028.506   128480514.363          27.250    24449026.806   100114686.758       -2402.671          27.250                                                                  
G02  24368550.797   128057610.272        2374.972          47.750    24368549.535   128057611.543          31.250    24368549.274    99785152.676        1850.621          31.250                                                                  
R05  19218610.568   102734487.227       -1203.315          54.250    19218610.229   102734486.528          53.500    19218616.147    79904601.356        -935.906          49.000    19218616.983    79904601.595        -935.898          47.750  
R21  22150644.252   118532568.513        3493.439          49.500    22150644.153   118532575.807          49.500    22150650.065    92192002.009        2717.124          47.000    22150650.485    92192004.253        2717.131          45.500  
R19  20992850.384   112297597.959       -2990.333          52.500    20992850.798   112297598.264          52.000    20992855.256    87342575.500       -2325.810          47.750    20992855.936    87342576.742       -2325.794          46.000  
G10  22345445.611   117426110.155        2780.698          48.000    22345444.765   117426113.432          37.250    22345445.341    91500868.219        2166.792          37.250                                                                  
G13  22314291.913   117262402.959        2542.979          46.000    22314291.413   117262405.216          35.500    22314291.032    91373302.856        1981.502          35.500                                                                  
G04  21413788.018   112530216.057        1497.866          49.750    21413786.750   112530216.329          40.500    21413786.903    87685883.086        1167.198          40.500                                                                  
G32  25045585.809   131615463.398       -3633.129          39.500    25045588.351   131615462.605          20.250    25045590.869   102557503.110       -2831.031          20.250                                                                  
G17  20047452.436   105350077.202        -446.739          53.000    20047451.873   105350077.474          47.750    20047450.620    82090970.674        -348.087          47.750    20047450.755    82090970.434        -348.102          52.750  
G28  23551292.837   123762880.850       -3435.160          42.500    23551290.226   123762880.117          32.250    23551292.091    96438608.392       -2676.809          32.250                                                                  
G23  21929363.604   115239595.171         537.259          50.500    21929363.781   115239596.450          38.750    21929360.708    89797087.708         418.669          38.750                                                                  
G24  24656509.251   129570823.612       -2752.008          41.000    24656508.019   129570828.852          24.000    24656511.826   100964281.702       -2144.415          24.000                                                                  
G12  24889873.189   130797169.975        1539.223          42.500    24889872.194   130797169.219          28.000    24889873.117   101919873.521        1199.381          28.000    24889873.933   101919873.298        1199.383          42.500  
G20  22114239.638   116211119.711       -3072.468          48.500    22114238.631   116211117.981          38.000    22114238.205    90554118.959       -2394.139          38.000                                                                  
R20  19285191.619   103126587.922         693.506          52.000    19285191.933   103126587.225          51.000    19285200.022    80209569.209         539.390          48.750    19285199.146    80209568.451         539.395          48.250  
R06  20697964.962   110448303.689        2598.748          53.000    20697964.317   110448302.980          52.500    20697970.238    85904234.300        2021.259          48.500    20697969.213    85904235.524        2021.252          46.500  
S29  40073614.911   210588250.727        -244.553          43.500  
S37  40101684.784   210735780.476        -243.209          41.750  
> 2011 01 15 02 27 04.0000000  0 19                     
G11  24449615.200   128483597.265       -3083.194          42.000    24449614.657   128483597.518          26.250    24449613.032   100117089.183       -2402.418          26.250                                                                  
G02  24368099.322   128055234.935        2375.296          47.750    24368098.132   128055236.203          31.750    24368097.607    99783301.764        1850.865          31.750                                                                  
R05  19218835.838   102735690.483       -1203.649          54.250    19218835.457   102735689.787          53.500    19218841.252    79905537.225        -936.175          49.000    19218842.100    79905537.465        -936.166          47.750  
R21  22149992.614   118529074.772        3493.625          49.750    22149991.466   118529082.069          49.250    22149997.420    92189284.655        2717.276          47.250    22149997.696    92189286.900        2717.286          45.250  
R19  20993410.408   112300588.161       -2990.495          52.500    20993409.770   112300588.468          51.750    20993413.736    87344901.210       -2325.927          47.750    20993415.088    87344902.455       -2325.946          46.250  
G10  22344916.612   117423329.231        2780.719          48.000    22344915.290   117423332.507          37.000    22344915.644    91498701.264        2166.781          37.000                                                                  
G13  22313808.513   117259859.818        2542.914          46.000    22313807.269   117259862.079          35.750    22313807.179    91371321.175        1981.528          35.750                                                                  
G04  21413502.918   112528717.953        1497.979          49.500    21413501.770   112528718.229          40.500    21413501.731    87684715.739        1167.245          40.500                                                                  
G32  25046276.531   131619096.047       -3632.737          39.000    25046279.774   131619095.293          20.000    25046282.377   102560333.733       -2830.827          20.000                                                                  
G17  20047537.476   105350523.892        -447.008          53.000    20047536.819   105350524.167          47.750    20047535.662    82091318.746        -348.325          47.750    20047535.719    82091318.505        -348.324          52.750  
G28  23551944.796   123766315.710       -3434.867          42.750    23551944.814   123766314.978          32.000    23551945.449    96441284.903       -2676.573          32.000                                                                  
G23  21929261.387   115239057.865         536.949          50.500    21929261.204   115239059.140          39.000    21929258.242    89796669.035         418.394          39.000                                                                  
G24  24657033.090   129573575.284       -2751.657          40.750    24657032.047   129573580.526          24.000    24657035.683   100966425.876       -2144.169          24.000                                                                  
G12  24889581.162   130795630.562        1539.193          43.000    24889579.926   130795629.794          28.250    24889580.562   101918673.989        1199.364          28.250    24889581.452   101918673.755        1199.337          42.500  
G20  22114824.740   116214191.890       -3072.338          48.750    22114823.265   116214190.163          37.750    22114822.888    90556512.862       -2394.015          37.750                                                                  
R20  19285061.458   103125894.398         693.152          52.000    19285062.378   103125893.703          51.000    19285069.903    80209029.803         539.115          48.750    19285069.678    80209029.044         539.118          48.250  
R06  20697477.128   110445704.872        2598.518          53.000    20697477.380   110445704.162          52.250    20697482.500    85902213.002        2021.073          48.500    20697482.599    85902214.224        2021.070          46.750  
S29  40073662.620   210588495.380        -244.775          43.250  
S37  40101731.042   210736023.485        -243.136          41.750  
> 2011 01 15 02 27 05.0000000  0 19                     
G11  24450202.160   128486680.771       -3083.534          41.750    24450201.393   128486681.039          26.750    24450200.445   100119491.943       -2402.772          26.750                                                                  
G02  24367646.659   128052859.863        2375.122          47.500    24367646.042   128052861.145          31.500    24367645.625    99781451.070        1850.686          31.500                                                                  
R05  19219060.817   102736894.728       -1204.557          54.250    19219060.739   102736894.033          53.250    19219067.463    79906473.859        -936.879          49.250    19219067.272    79906474.099        -936.872          48.000  
R21  22149338.674   118525581.415        3493.345          49.750    22149338.311   118525588.711          49.250    22149343.944    92186567.601        2717.027          47.250    22149345.164    92186569.846        2717.050          45.750  
R19  20993968.526   112303579.171       -2991.220          52.500    20993968.934   112303579.476          51.750    20993973.596    87347227.553       -2326.519          47.750    20993974.165    87347228.794       -2326.512          46.500  
G10  22344386.999   117420548.926        2780.165          48.500    22344385.964   117420552.203          36.750    22344386.846    91496534.797        2166.351          36.750                                                                  
G13  22313324.399   117257317.305        2542.387          46.000    22313323.545   117257319.563          36.000    22313323.467    91369339.998        1981.156          36.000                                                                  
G04  21413218.206   112527220.299        1497.564          49.250    21413216.350   112527220.567          40.750    21413216.764    87683548.732        1166.954          40.750                                                                  
G32  25046967.537   131622728.943       -3632.757          39.750    25046971.336   131622728.162          20.000    25046972.574   102563164.557       -2830.480          20.000                                                                  
G17  20047622.422   105350971.448        -447.768          52.750    20047621.954   105350971.723          47.750    20047620.713    82091667.490        -348.905          47.750    20047620.767    82091667.250        -348.914          52.750  
G28  23552598.769   123769750.937       -3435.116          42.750    23552598.248   123769750.195          31.750    23552599.645    96443961.697       -2676.725          31.750                                                                  
G23  21929159.302   115238521.423         536.187          50.250    21929158.594   115238522.700          39.500    21929156.514    89796251.028         417.788          39.500                                                                  
G24  24657557.310   129576327.260       -2751.898          41.000    24657556.366   129576332.508          24.750    24657559.835   100968570.283       -2144.382          24.750                                                                  
G12  24889289.383   130794091.975        1538.282          43.000    24889287.614   130794091.208          28.500    24889287.536   101917475.074        1198.661          28.500    24889288.339   101917474.849        1198.654          42.500  
G20  22115409.093   116217264.568       -3072.695          48.750    22115408.005   116217262.829          37.500    22115408.146    90558907.152       -2394.278          37.500                                                                  
R20  19284932.715   103125201.792         692.332          51.750    19284932.760   103125201.098          51.000    19284940.060    80208491.110         538.487          48.750    19284939.967    80208490.352         538.481          48.250  
R06  20696991.068   110443106.904        2597.757          53.000    20696990.451   110443106.194          52.500    20696995.526    85900192.357        2020.489          48.500    20696995.841    85900193.582        2020.475          46.750  
S29  40073707.741   210588740.059        -244.446          43.250  
S37  40101776.533   210736266.800        -243.314          41.750  
> 2011 01 15 02 27 06.0000000  0 19                     
G11  24450789.196   128489764.314       -3083.736          41.750    24450788.216   128489764.589          26.750    24450786.765   100121894.712       -2402.846          26.750                                                                  
G02  24367194.920   128050484.762        2374.839          47.750    24367194.072   128050486.033          31.250    24367193.820    99779600.333        1850.614          31.250                                                                  
R05  19219286.021   102738099.660       -1205.564          54.250    19219286.186   102738098.967          53.250    19219292.605    79907411.032        -937.656          49.000    19219292.467    79907411.272        -937.661          47.500  
R21  22148686.008   118522088.156        3492.964          49.500    22148685.624   118522095.451          49.250    22148691.785    92183850.620        2716.766          47.250    22148692.288    92183852.868        2716.757          45.250  
R19  20994528.670   112306570.683       -2992.043          52.500    20994528.298   112306570.989          51.750    20994533.401    87349554.282       -2327.130          47.500    20994533.623    87349555.526       -2327.139          46.500  
G10  22343858.408   117417768.942        2779.544          48.250    22343857.086   117417772.218          37.000    22343857.451    91494368.578        2165.851          37.000                                                                  
G13  22312840.333   117254775.125        2541.754          46.000    22312839.689   117254777.389          36.000    22312838.942    91367359.084        1980.599          36.000                                                                  
G04  21412932.746   112525722.815        1497.160          49.250    21412931.607   112525723.090          40.000    21412931.886    87682381.868        1166.633          40.000                                                                  
G32  25047657.525   131626361.825       -3633.171          39.250    25047662.393   131626361.047          20.750    25047664.078   102565995.410       -2831.099          20.750                                                                  
G17  20047707.563   105351419.581        -448.708          52.750    20047707.239   105351419.854          47.750    20047705.989    82092016.682        -349.636          47.750    20047706.406    82092016.442        -349.642          52.750  
G28  23553252.703   123773186.232       -3435.594          42.750    23553252.005   123773185.487          31.500    23553253.327    96446638.550       -2677.118          31.500                                                                  
G23  21929057.483   115237985.561         535.352          50.250    21929057.043   115237986.836          39.500    21929054.470    89795833.471         417.162          39.500                                                                  
G24  24658082.109   129579079.247       -2752.213          41.000    24658079.672   129579084.485          24.500    24658083.263   100970714.667       -2144.541          24.500                                                                  
G12  24888996.719   130792553.839        1537.602          43.000    24888995.088   130792553.084          28.250    24888995.265   101916276.537        1198.235          28.250    24888996.770   101916276.298        1198.140          42.500  
G20  22115994.135   116220337.457       -3073.286          48.750    22115992.639   116220335.725          37.750    22115992.333    90561301.614       -2394.753          37.750                                                                  
R20  19284802.851   103124509.802         691.455          52.000    19284803.366   103124509.108          51.000    19284810.930    80207952.897         537.790          48.500    19284810.768    80207952.138         537.791          48.250  
R06  20696503.579   110440509.474        2596.895          53.000    20696503.654   110440508.767          52.250    20696508.843    85898172.137        2019.806          48.250    20696508.768    85898173.365        2019.799          46.250  
S29  40073753.007   210588984.801        -245.092          42.750  
S37  40101822.110   210736510.236        -243.520          41.750  
> 2011 01 15 02 27 07.0000000  0 19                     
G11  24451375.143   128492848.181       -3083.654          41.750    24451375.209   128492848.446          26.250    24451374.130   100124297.706       -2402.895          26.250                                                                  
G02  24366743.720   128048109.864        2374.922          47.750    24366742.203   128048111.143          32.000    24366741.607    99777749.765        1850.588          32.000                                                                  
R05  19219511.552   102739305.547       -1206.219          54.250    19219511.666   102739304.853          53.250    19219518.399    79908348.942        -938.169          49.000    19219518.162    79908349.184        -938.183          47.500  
R21  22148033.036   118518595.252        3492.831          49.500    22148033.096   118518602.548          49.000    22148039.424    92181133.919        2716.652          47.250    22148039.379    92181136.163        2716.673          45.250  
R19  20995088.020   112309562.945       -2992.516          52.500    20995087.459   112309563.251          51.750    20995093.054    87351881.599       -2327.520          47.500    20995093.018    87351882.839       -2327.507          46.000  
G10  22343329.166   117414989.529        2779.254          48.250    22343328.024   117414992.809          37.000    22343328.590    91492202.799        2165.660          37.000                                                                  
G13  22312356.723   117252233.516        2541.531          46.000    22312355.692   117252235.782          35.750    22312355.356    91365378.621        1980.427          35.750                                                                  
G04  21412647.991   112524225.763        1496.943          49.250    21412647.011   112524226.038          40.500    21412646.885    87681215.334        1166.446          40.500                                                                  
G32  25048349.368   131629994.911       -3633.241          39.250    25048354.179   131629994.127          20.750    25048355.579   102568826.364       -2831.012          20.750                                                                  
G17  20047793.139   105351868.509        -449.189          52.500    20047792.470   105351868.781          47.750    20047791.538    82092366.497        -350.015          47.750    20047792.014    82092366.258        -350.027          52.750  
G28  23553907.126   123776621.830       -3435.667          42.500    23553905.055   123776621.087          31.250    23553906.578    96449315.620       -2677.080          31.250                                                                  
G23  21928955.926   115237450.528         534.695          50.250    21928955.734   115237451.800          39.500    21928952.844    89795416.565         416.625          39.500                                                                  
G24  24658605.205   129581831.493       -2752.276          41.000    24658603.970   129581836.728          24.500    24658606.953   100972859.243       -2144.475          24.500                                                                  
G12  24888703.837   130791016.433        1537.284          43.000    24888701.882   130791015.668          28.500    24888703.036   101915078.551        1197.872          28.500    24888703.372   101915078.320        1197.869          43.000  
G20  22116578.226   116223410.782       -3073.478          48.750    22116577.159   116223409.053          37.000    22116577.708    90563696.417       -2394.928          37.000                                                                  
R20  19284674.216   103123818.690         690.835          52.000    19284674.195   103123817.996          51.000    19284681.570    80207415.365         537.320          48.500    19284681.414    80207414.608         537.310          48.250  
R06  20696017.708   110437912.830        2596.400          53.000    20696017.082   110437912.121          52.250    20696021.785    85896152.525        2019.424          48.250    20696022.541    85896153.749        2019.429          46.250  
S29  40073798.755   210589229.676        -244.684          43.000  
S37  40101868.734   210736754.036        -243.762          41.750  
> 2011 01 15 02 27 08.0000000  0 19                     
G11  24451962.566   128495931.914       -3083.462          41.500    24451961.076   128495932.173          26.000    24451959.936   100126700.633       -2402.781          26.000                                                                  
G02  24366291.196   128045734.714        2375.448          48.000    24366290.446   128045735.998          31.750    24366289.969    99775899.013        1851.018          31.750                                                                  
R05  19219736.978   102740511.892       -1206.365          54.250    19219737.152   102740511.198          53.250    19219743.094    79909287.213        -938.288          48.750    19219744.074    79909287.453        -938.284          47.500  
R21  22147379.611   118515102.199        3493.300          49.250    22147380.211   118515109.498          49.000    22147386.165    92178417.105        2717.003          47.250    22147386.863    92178419.350        2716.999          45.000  
R19  20995647.253   112312555.470       -2992.484          52.500    20995646.923   112312555.777          51.750    20995652.059    87354209.119       -2327.483          47.500    20995652.289    87354210.358       -2327.498          46.000  
G10  22342800.212   117412210.206        2779.421          48.250    22342799.001   117412213.486          37.000    22342800.092    91490037.100        2165.726          37.000                                                                  
G13  22311873.538   117249692.016        2541.669          46.000    22311872.411   117249694.288          35.750    22311872.138    91363398.232        1980.473          35.750                                                                  
G04  21412363.036   112522728.653        1497.314          49.250    21412362.109   112522728.928          40.250    21412362.172    87680048.756        1166.736          40.250                                                                  
G32  25049042.536   131633627.709       -3632.682          39.000    25049045.222   131633626.928          20.750    25049046.784   102571657.102       -2830.691          20.750                                                                  
G17  20047878.837   105352317.774        -449.226          52.500    20047878.130   105352318.049          48.000    20047876.934    82092716.573        -350.042          48.000    20047877.311    82092716.333        -350.042          53.000  
G28  23554560.293   123780057.222       -3435.047          42.250    23554559.340   123780056.487          32.000    23554559.915    96451992.548       -2676.631          32.000                                                                  
G23  21928854.317   115236915.811         534.734          50.250    21928853.394   115236917.092          39.250    21928850.618    89794999.902         416.673          39.250                                                                  
G24  24659128.172   129584583.494       -2751.746          41.250    24659127.737   129584588.719          24.250    24659130.720   100975003.700       -2144.274          24.250                                                                  
G12  24888411.146   130789479.325        1537.024          43.000    24888410.055   130789478.568          28.750    24888410.835   101913880.815        1197.592          28.750    24888411.611   101913880.570        1197.679          43.000  
G20  22117162.738   116226484.068       -3073.063          48.250    22117162.132   116226482.344          37.250    22117162.126    90566091.184       -2394.626          37.250                                                                  
R20  19284544.232   103123127.939         690.789          52.000    19284545.056   103123127.246          50.750    19284552.779    80206878.116         537.275          48.500    19284552.383    80206877.357         537.271          48.000  
R06  20695531.490   110435316.493        2596.339          53.000    20695530.470   110435315.780          52.250    20695534.464    85894133.151        2019.381          48.250    20695535.714    85894134.375        2019.389          46.500  
S29  40073844.648   210589473.994        -243.967          42.750  
S37  40101914.842   210736997.573        -243.073          42.250  
> 2011 01 15 02 27 09.0000000  0 19                     
G11  24452549.667   128499015.444       -3083.335          41.500    24452548.015   128499015.700          25.750    24452546.606   100129103.351       -2402.500          25.750                                                                  
G02  24365839.070   128043359.276        2375.717          48.250    24365838.305   128043360.554          31.750    24365837.514    99774048.027        1851.170          31.750                                                                  
R05  19219963.117   102741718.696       -1206.942          54.250    19219963.027   102741718.003          53.250    19219969.470    79910225.840        -938.732          48.750    19219969.770    79910226.080        -938.747          47.500  
R21  22146728.252   118511609.003        3493.386          49.250    22146727.491   118511616.300          49.000    22146732.752    92175700.176        2717.064          47.000    22146733.555    92175702.416        2717.087          45.000  
R19  20996207.283   112315548.262       -2992.840          52.750    20996206.303   112315548.568          51.750    20996210.896    87356536.842       -2327.749          47.250    20996211.399    87356538.084       -2327.761          46.000  
G10  22342272.026   117409430.950        2779.325          48.250    22342271.151   117409434.219          37.000    22342270.833    91487871.438        2165.705          37.000                                                                  
G13  22311389.652   117247150.615        2541.462          46.250    22311388.843   117247152.881          35.000    22311388.378    91361417.923        1980.321          35.000                                                                  
G04  21412078.556   112521231.476        1497.295          49.000    21412077.132   112521231.751          40.750    21412077.243    87678882.126        1166.723          40.750                                                                  
G32  25049732.898   131637260.219       -3632.284          39.500    25049736.681   131637259.441          20.250    25049738.348   102574487.630       -2830.375          20.250                                                                  
G17  20047964.398   105352767.374        -449.675          52.750    20047963.700   105352767.648          47.750    20047962.470    82093066.911        -350.403          47.750    20047963.145    82093066.671        -350.393          53.000  
G28  23555214.563   123783492.457       -3435.055          42.000    23555212.992   123783491.725          32.000    23555214.093    96454669.365       -2676.669          32.000                                                                  
G23  21928752.585   115236381.427         534.354          50.250    21928751.815   115236382.695          39.750    21928749.327    89794583.494         416.399          39.750                                                                  
G24  24659650.569   129587335.248       -2751.469          41.000    24659650.950   129587340.498          24.250    24659654.086   100977147.899       -2143.820          24.250                                                                  
G12  24888118.369   130787942.409        1536.984          43.000    24888117.536   130787941.641          29.000    24888118.351   101912683.219        1197.617          29.000    24888118.513   101912682.963        1197.663          42.500  
G20  22117747.972   116229557.321       -3073.117          48.500    22117747.378   116229555.593          37.500    22117746.740    90568485.915       -2394.611          37.500                                                                  
R20  19284415.609   103122437.554         690.328          52.000    19284415.921   103122436.860          50.750    19284422.741    80206341.150         536.922          48.250    19284423.164    80206340.391         536.919          48.000  
R06  20695044.989   110432720.436        2596.002          53.250    20695043.964   110432719.724          52.250    20695048.953    85892113.996        2019.092          48.000    20695049.193    85892115.221        2019.110          46.500  
S29  40073891.068   210589718.174        -244.111          42.500  
S37  40101960.767   210737241.081        -243.386          41.750  
> 2011 01 15 02 27 10.0000000  0 19                     
G11  24453135.860   128502098.990       -3083.696          41.500    24453134.931   128502099.263          25.750    24453134.125   100131506.125       -2402.792          25.750                                                                  
G02  24365387.492   128040983.752        2375.501          48.250    24365386.980   128040985.031          31.750    24365385.172    99772196.970        1851.015          31.750                                                                  
R05  19220188.843   102742926.123       -1207.847          54.250    19220188.960   102742925.429          53.250    19220194.971    79911164.947        -939.422          49.000    19220195.346    79911165.188        -939.441          47.750  
R21  22146074.396   118508115.855        3493.006          49.250    22146074.699   118508123.153          48.750    22146080.622    92172983.284        2716.776          47.250    22146080.529    92172985.530        2716.786          45.500  
R19  20996766.723   112318541.503       -2993.586          52.500    20996766.150   112318541.812          51.750    20996771.253    87358864.922       -2328.352          47.500    20996771.334    87358866.161       -2328.351          46.250  
G10  22341742.805   117406651.962        2778.770          48.500    22341742.323   117406655.235          37.000    22341742.604    91485705.989        2165.260          37.000                                                                  
G13  22310905.685   117244609.490        2540.820          46.250    22310904.999   117244611.766          35.750    22310904.540    91359437.829        1979.822          35.750                                                                  
G04  21411793.040   112519734.406        1496.862          49.000    21411792.378   112519734.683          40.250    21411792.572    87677715.575        1166.399          40.250                                                                  
G32  25050424.246   131640892.671       -3632.594          39.000    25050427.271   131640891.934          20.250    25050429.409   102577318.147       -2830.742          20.250                                                                  
G17  20048049.890   105353217.482        -450.464          52.500    20048049.419   105353217.756          47.750    20048048.187    82093417.644        -351.006          47.750    20048048.742    82093417.406        -351.023          53.000  
G28  23555867.943   123786927.687       -3435.410          42.250    23555866.816   123786926.955          31.750    23555868.021    96457346.164       -2677.015          31.750                                                                  
G23  21928650.995   115235847.568         533.483          50.250    21928650.248   115235848.846          39.250    21928647.949    89794167.502         415.722          39.250                                                                  
G24  24660174.358   129590086.974       -2751.820          41.000    24660173.971   129590092.217          24.250    24660177.703   100979292.094       -2144.219          24.250                                                                  
G12  24887826.072   130786405.962        1536.167          43.500    24887825.151   130786405.188          29.000    24887825.487   101911485.969        1197.070          29.000    24887824.510   101911485.731        1197.031          42.750  
G20  22118333.322   116232630.712       -3073.511          48.500    22118332.021   116232628.982          37.500    22118332.132    90570880.769       -2394.932          37.500                                                                  
R20  19284286.593   103121747.720         689.420          52.000    19284286.704   103121747.025          50.750    19284294.043    80205804.611         536.211          48.500    19284293.977    80205803.852         536.223          48.000  
R06  20694558.234   110430124.867        2595.211          53.250    20694557.551   110430124.154          52.250    20694562.294    85890095.221        2018.495          48.500    20694562.408    85890096.448        2018.487          46.500  
S29  40073938.474   210589962.101        -243.843          43.250  
S37  40102007.991   210737484.646        -243.523          41.750  
> 2011 01 15 02 27 11.0000000  0 19                     
G11  24453723.343   128505182.596       -3083.732          41.500    24453721.607   128505182.852          25.750    24453721.154   100133908.906       -2402.830          25.750                                                                  
G02  24364935.381   128038608.213        2375.396          48.250    24364934.746   128038609.471          31.750    24364933.202    99770345.899        1850.944          31.750                                                                  
R05  19220415.588   102744134.255       -1208.685          54.250    19220414.683   102744133.560          53.250    19220421.143    79912104.609        -940.102          49.000    19220421.668    79912104.847        -940.097          47.750  
R21  22145422.173   118504622.825        3492.775          49.500    22145421.945   118504630.122          48.750    22145428.091    92170266.482        2716.609          47.250    22145428.430    92170268.732        2716.593          45.500  
R19  20997325.788   112321535.272       -2994.252          52.500    20997325.731   112321535.584          51.750    20997330.719    87361193.412       -2328.864          47.250    20997330.896    87361194.647       -2328.858          46.000  
G10  22341213.965   117403873.302        2778.362          48.500    22341213.435   117403876.581          37.500    22341213.081    91483540.809        2164.914          37.500                                                                  
G13  22310423.199   117242068.714        2540.342          46.250    22310421.832   117242070.977          35.500    22310421.191    91357457.993        1979.525          35.500                                                                  
G04  21411507.985   112518237.517        1496.615          49.000    21411507.611   112518237.795          40.000    21411507.746    87676549.174        1166.184          40.000                                                                  
G32  25051115.049   131644525.055       -3632.431          39.000    25051118.844   131644524.283          20.250    25051120.790   102580148.552       -2830.581          20.250                                                                  
G17  20048135.882   105353668.171        -451.136          52.500    20048135.211   105353668.443          47.750    20048133.853    82093768.829        -351.530          47.750    20048134.341    82093768.589        -351.527          52.750  
G28  23556521.425   123790363.007       -3435.727          42.250    23556520.699   123790362.266          31.750    23556520.579    96460023.030       -2677.230          31.750                                                                  
G23  21928549.602   115235314.289         532.763          50.250    21928548.658   115235315.566          39.250    21928546.160    89793751.969         415.110          39.250                                                                  
G24  24660697.600   129592838.704       -2751.915          41.250    24660697.792   129592843.938          24.250    24660701.441   100981436.300       -2144.396          24.250                                                                  
G12  24887533.441   130784870.010        1535.519          43.500    24887533.228   130784869.240          28.500    24887533.576   101910289.148        1196.453          28.500    24887533.369   101910288.894        1196.489          42.500  
G20  22118918.113   116235704.332       -3073.920          48.500    22118916.722   116235702.598          37.250    22118916.482    90573275.797       -2395.261          37.250                                                                  
R20  19284158.081   103121058.501         688.696          52.000    19284157.874   103121057.802          50.750    19284166.143    80205268.550         535.647          48.500    19284165.444    80205267.790         535.666          48.000  
R06  20694071.506   110427529.851        2594.551          53.500    20694071.336   110427529.140          52.250    20694076.669    85888076.873        2017.990          48.250    20694076.336    85888078.101        2017.992          46.500  
S29  40073984.639   210590206.093        -244.321          43.250  
S37  40102052.834   210737727.930        -243.414          41.500  
> 2011 01 15 02 27 12.0000000  0 19                     
G11  24454309.824   128508266.537       -3083.955          41.250    24454308.825   128508266.789          25.750    24454307.785   100136312.000       -2403.064          25.750                                                                  
G02  24364484.122   128036232.899        2375.198          48.000    24364483.054   128036234.172          31.500    24364481.813    99768495.006        1850.783          31.500                                                                  
R05  19220641.467   102745343.340       -1209.608          54.250    19220641.071   102745342.643          53.250    19220647.325    79913045.007        -940.809          49.000    19220647.568    79913045.244        -940.797          47.750  
R21  22144769.636   118501130.165        3492.481          49.500    22144769.426   118501137.465          48.750    22144775.404    92167549.974        2716.379          47.250    22144775.059    92167552.222        2716.368          45.500  
R19  20997885.273   112324529.814       -2994.939          52.500    20997885.623   112324530.127          51.750    20997890.477    87363522.498       -2329.396          47.500    20997890.465    87363523.738       -2329.402          46.000  
G10  22340685.422   117401095.242        2777.744          48.500    22340684.544   117401098.518          37.250    22340685.350    91481376.081        2164.470          37.250                                                                  
G13  22309939.529   117239528.530        2539.840          46.250    22309938.948   117239530.805          35.500    22309937.725    91355478.629        1979.122          35.500                                                                  
G04  21411223.410   112516741.087        1496.208          49.250    21411222.847   112516741.363          40.500    21411223.006    87675383.124        1165.876          40.500                                                                  
G32  25051808.094   131648157.696       -3632.704          38.500    25051810.798   131648156.921          20.250    25051812.396   102582979.182       -2830.781          20.250                                                                  
G17  20048221.476   105354119.701        -451.980          52.500    20048221.089   105354119.978          48.000    20048219.884    82094120.671        -352.199          48.000    20048220.775    82094120.433        -352.194          52.750  
G28  23557175.536   123793798.608       -3435.823          42.750    23557174.403   123793797.868          31.750    23557174.424    96462700.121       -2677.281          31.750                                                                  
G23  21928448.059   115234781.842         532.003          50.000    21928447.409   115234783.119          39.250    21928445.022    89793337.069         414.529          39.250                                                                  
G24  24661221.227   129595590.698       -2752.128          41.250    24661221.230   129595595.943          24.750    24661225.088   100983580.711       -2144.460          24.750                                                                  
G12  24887240.742   130783334.806        1534.861          43.750    24887240.805   130783334.038          29.000    24887241.236   101909092.882        1195.993          29.000    24887240.883   101909092.629        1196.005          42.750  
G20  22119503.158   116238778.399       -3074.319          48.250    22119501.707   116238776.665          37.250    22119502.117    90575671.171       -2395.562          37.250                                                                  
R20  19284029.041   103120370.147         687.908          52.000    19284029.284   103120369.449          50.750    19284036.782    80204733.164         535.037          48.750    19284036.410    80204732.404         535.041          48.250  
R06  20693585.288   110424935.647        2593.793          53.250    20693585.120   110424934.936          52.250    20693590.903    85886059.163        2017.390          48.500    20693589.983    85886060.388        2017.388          46.250  
S29  40074032.084   210590450.150        -244.220          43.250  
S37  40102101.133   210737971.082        -243.412          42.000  
> 2011 01 15 02 27 13.0000000  0 19                     
G11  24454897.099   128511350.600       -3084.348          41.000    24454895.258   128511350.858          25.750    24454894.593   100138715.191       -2403.420          25.750                                                                  
G02  24364031.549   128033857.555        2375.278          47.750    24364029.990   128033858.829          32.000    24364029.708    99766644.089        1850.915          32.000                                                                  
R05  19220867.837   102746553.124       -1210.254          54.500    19220867.378   102746552.432          53.250    19220874.465    79913985.954        -941.315          49.250    19220873.935    79913986.189        -941.304          47.750  
R21  22144116.994   118497637.634        3492.396          49.500    22144116.667   118497644.932          49.000    22144122.063    92164833.562        2716.296          47.500    22144123.032    92164835.810        2716.289          46.000  
R19  20998445.881   112327524.888       -2995.444          52.750    20998445.429   112327525.203          51.750    20998450.750    87365852.001       -2329.790          47.500    20998450.903    87365853.240       -2329.795          46.250  
G10  22340156.451   117398317.505        2777.483          48.500    22340156.019   117398320.778          37.000    22340156.175    91479211.610        2164.282          37.000                                                                  
G13  22309456.087   117236988.691        2539.512          46.250    22309454.798   117236990.965          35.750    22309454.672    91353499.545        1978.838          35.750                                                                  
G04  21410938.764   112515244.853        1496.065          49.250    21410938.164   112515245.127          40.250    21410938.125    87674217.225        1165.765          40.250                                                                  
G32  25052500.123   131651790.301       -3632.667          39.250    25052501.856   131651789.527          20.000    25052503.265   102585809.751       -2830.505          20.000                                                                  
G17  20048307.412   105354571.801        -452.459          52.500    20048306.917   105354572.075          47.750    20048305.835    82094472.956        -352.573          47.750    20048306.440    82094472.718        -352.572          52.750  
G28  23557828.918   123797234.296       -3435.846          42.250    23557827.812   123797233.567          31.250    23557829.203    96465377.279       -2677.276          31.250                                                                  
G23  21928346.897   115234249.979         531.517          50.000    21928346.049   115234251.251          39.000    21928343.312    89792922.632         414.150          39.000                                                                  
G24  24661745.411   129598342.702       -2752.053          41.000    24661745.291   129598347.933          25.000    24661748.945   100985725.116       -2144.344          25.000                                                                  
G12  24886948.372   130781800.117        1534.275          43.750    24886949.496   130781799.350          29.250    24886949.305   101907897.003        1195.655          29.250    24886948.711   101907896.774        1195.564          42.750  
G20  22120087.987   116241852.670       -3074.415          48.250    22120086.836   116241850.943          37.250    22120087.306    90578066.708       -2395.626          37.250                                                                  
R20  19283900.203   103119682.418         687.320          52.000    19283900.458   103119681.722          50.750    19283908.543    80204198.264         534.576          49.000    19283907.814    80204197.504         534.578          48.250  
R06  20693098.995   110422342.011        2593.259          53.250    20693098.935   110422341.301          52.500    20693103.782    85884041.894        2016.977          48.500    20693104.208    85884043.116        2016.996          46.500  
S29  40074078.027   210590694.349        -244.269          43.500  
S37  40102148.093   210738214.478        -243.854          41.750  
> 2011 01 15 02 27 14.0000000  0 19                     
G11  24455482.816   128514434.546       -3083.844          41.250    24455482.914   128514434.794          25.250    24455480.624   100141118.240       -2402.854          25.250                                                                  
G02  24363579.513   128031482.064        2375.576          47.750    24363578.140   128031483.326          31.500    24363577.588    99764793.050        1851.126          31.500                                                                  
R05  19221094.234   102747763.489       -1210.632          54.250    19221093.653   102747762.795          53.250    19221100.617    79914927.348        -941.606          49.250    19221100.605    79914927.587        -941.617          48.000  
R21  22143464.109   118494145.094        3492.541          49.750    22143464.259   118494152.395          48.750    22143469.937    92162117.144        2716.410          47.500    22143469.964    92162119.393        2716.396          46.000  
R19  20999006.098   112330520.353       -2995.700          52.750    20999005.405   112330520.669          51.750    20999011.383    87368181.806       -2329.970          47.500    20999010.786    87368183.043       -2329.983          46.000  
G10  22339628.438   117395539.981        2777.441          48.500    22339627.296   117395543.247          37.000    22339628.117    91477047.302        2164.283          37.000                                                                  
G13  22308972.621   117234449.063        2539.529          46.250    22308972.252   117234451.330          35.000    22308971.583    91351520.618        1978.807          35.000                                                                  
G04  21410654.545   112513748.696        1496.160          49.250    21410653.640   112513748.971          39.750    21410653.544    87673051.392        1165.839          39.750                                                                  
G32  25053192.602   131655422.792       -3632.609          38.500    25053193.012   131655422.026          20.000    25053194.328   102588640.265       -2830.604          20.000                                                                  
G17  20048393.752   105355024.370        -452.776          52.250    20048393.116   105355024.644          47.750    20048391.971    82094825.604        -352.813          47.750    20048392.499    82094825.368        -352.816          52.750  
G28  23558482.481   123800669.934       -3435.623          42.750    23558481.695   123800669.212          32.000    23558482.598    96468054.390       -2677.081          32.000                                                                  
G23  21928245.774   115233718.587         531.182          50.250    21928245.358   115233719.858          39.750    21928242.872    89792508.559         413.904          39.750                                                                  
G24  24662268.915   129601094.607       -2751.794          41.000    24662269.184   129601099.813          25.000    24662272.422   100987869.480       -2144.281          25.000                                                                  
G12  24886657.025   130780265.788        1534.061          43.250    24886657.675   130780265.030          28.750    24886657.517   101906701.436        1195.429          28.750    24886656.842   101906701.204        1195.351          42.500  
G20  22120673.203   116244927.045       -3074.447          48.500    22120671.743   116244925.307          37.500    22120671.991    90580462.319       -2395.637          37.500                                                                  
R20  19283772.146   103118995.182         687.016          52.000    19283772.026   103118994.485          50.750    19283779.905    80203663.745         534.353          48.750    19283779.413    80203662.987         534.342          48.250  
R06  20692613.142   110419748.820        2592.975          53.250    20692613.031   110419748.113          52.250    20692618.397    85882024.970        2016.768          48.500    20692618.349    85882026.196        2016.750          46.500  
S29  40074125.349   210590938.355        -243.730          43.500  
S37  40102194.171   210738458.158        -243.733          42.000  
> 2011 01 15 02 27 15.0000000  0 19                     
G11  24456070.834   128517518.737       -3084.317          41.500    24456069.863   128517519.011          26.000    24456067.723   100143521.529       -2403.388          26.000                                                                  
G02  24363126.814   128029106.683        2375.191          47.750    24363126.562   128029107.951          31.250    24363125.429    99762942.117        1850.851          31.250                                                                  
R05  19221320.584   102748974.697       -1211.838          54.250    19221320.419   102748974.005          53.250    19221326.999    79915869.402        -942.536          49.250    19221326.930    79915869.637        -942.541          47.750  
R21  22142811.533   118490652.797        3492.035          49.500    22142811.323   118490660.095          48.750    22142817.043    92159400.913        2716.024          47.500    22142817.438    92159403.159        2716.027          46.000  
R19  20999565.921   112333516.463       -2996.613          52.750    20999565.483   112333516.779          51.750    20999570.460    87370512.111       -2330.697          47.250    20999570.892    87370513.349       -2330.707          46.000  
G10  22339099.829   117392762.930        2776.623          48.250    22339098.879   117392766.209          37.000    22339099.805    91474883.373        2163.593          37.000                                                                  
G13  22308489.832   117231909.935        2538.741          46.250    22308489.313   117231912.213          36.000    22308488.054    91349542.064        1978.277          36.000                                                                  
G04  21410369.308   112512252.840        1495.560          49.250    21410369.221   112512253.116          40.000    21410368.633    87671885.793        1165.368          40.000                                                                  
G32  25053882.163   131659055.334       -3632.819          38.750    25053884.157   131659054.572          20.000    25053885.836   102591470.835       -2830.758          20.000                                                                  
G17  20048479.831   105355477.658        -453.839          52.000    20048479.633   105355477.930          47.750    20048478.212    82095178.815        -353.644          47.750    20048478.566    82095178.579        -353.638          52.750  
G28  23559136.523   123804105.777       -3436.147          42.750    23559135.483   123804105.023          31.500    23559136.784    96470731.666       -2677.479          31.500                                                                  
G23  21928145.407   115233187.901         530.145          49.750    21928144.112   115233189.179          39.750    21928142.169    89792095.044         413.087          39.750                                                                  
G24  24662793.581   129603846.660       -2752.197          41.000    24662793.168   129603851.877          25.250    24662796.567   100990013.941       -2144.594          25.250                                                                  
G12  24886364.913   130778732.089        1533.226          43.500    24886366.052   130778731.336          28.750    24886365.435   101905506.355        1194.741          28.750    24886364.577   101905506.114        1194.722          42.500  
G20  22121258.134   116248001.756       -3075.120          48.500    22121256.934   116248000.023          37.500    22121256.997    90582858.208       -2396.191          37.500                                                                  
R20  19283643.532   103118308.704         685.938          52.000    19283643.535   103118308.011          50.750    19283650.506    80203129.821         533.504          48.750    19283650.976    80203129.062         533.505          48.250  
R06  20692127.553   110417156.330        2591.969          53.250    20692127.322   110417155.623          52.250    20692131.882    85880008.593        2015.961          48.250    20692132.359    85880009.814        2015.976          46.250  
S29  40074171.257   210591182.348        -244.569          43.750  
S37  40102240.591   210738702.013        -244.184          41.500  
> 2011 01 15 02 27 16.0000000  0 19                     
G11  24456657.618   128520603.232       -3084.497          41.500    24456657.330   128520603.474          26.000    24456654.294   100145925.040       -2403.631          26.000                                                                  
G02  24362674.991   128026731.472        2375.441          47.750    24362674.122   128026732.747          31.750    24362672.803    99761091.291        1851.054          31.750                                                                  
R05  19221547.640   102750186.779       -1212.253          54.500    19221546.945   102750186.086          53.250    19221553.921    79916812.133        -942.870          49.250    19221553.813    79916812.369        -942.871          47.500  
R21  22142159.340   118487160.817        3492.141          49.500    22142158.716   118487168.113          48.750    22142165.027    92156684.928        2716.118          47.500    22142164.964    92156687.174        2716.117          45.750  
R19  21000126.116   112336513.271       -2996.880          52.750    21000125.646   112336513.586          51.750    21000130.595    87372842.965       -2330.914          47.250    21000131.081    87372844.200       -2330.892          45.750  
G10  22338571.328   117389986.400        2776.515          48.500    22338570.788   117389989.666          37.000    22338571.694    91472719.835        2163.553          37.000                                                                  
G13  22308006.414   117229371.342        2538.580          46.000    22308005.787   117229373.611          35.250    22308005.583    91347563.952        1978.072          35.250                                                                  
G04  21410084.895   112510757.362        1495.614          49.250    21410084.103   112510757.639          40.250    21410084.013    87670720.489        1165.399          40.250                                                                  
G32  25054575.331   131662688.043       -3632.487          39.000    25054575.229   131662687.256          21.000    25054577.154   102594301.520       -2830.684          21.000                                                                  
G17  20048566.312   105355931.705        -454.151          51.750    20048565.965   105355931.979          47.750    20048564.702    82095532.619        -353.888          47.750    20048565.182    82095532.384        -353.904          52.750  
G28  23559790.619   123807541.876       -3435.972          42.750    23559788.902   123807541.154          31.750    23559790.278    96473409.151       -2677.419          31.750                                                                  
G23  21928043.879   115232658.001         529.778          49.250    21928043.289   115232659.272          39.500    21928041.010    89791682.132         412.802          39.500                                                                  
G24  24663318.710   129606598.924       -2752.063          40.750    24663316.680   129606604.136          25.250    24663320.242   100992158.547       -2144.425          25.250                                                                  
G12  24886073.338   130777199.089        1532.912          43.250    24886073.944   130777198.341          29.000    24886072.945   101904311.822        1194.430          29.000    24886074.096   101904311.572        1194.489          43.000  
G20  22121843.116   116251076.844       -3074.926          48.500    22121842.528   116251075.115          37.000    22121842.156    90585254.373       -2396.025          37.000                                                                  
R20  19283515.299   103117623.047         685.516          51.750    19283515.410   103117622.354          50.500    19283523.477    80202596.533         533.177          48.750    19283522.803    80202595.776         533.172          48.250  
R06  20691641.737   110414564.583        2591.647          53.250    20691641.599   110414563.877          52.250    20691646.048    85877992.791        2015.721          48.250    20691646.767    85877994.014        2015.722          46.500  
S29  40074216.372   210591426.509        -243.566          43.500  
S37  40102288.377   210738945.960        -243.328          41.500  
> 2011 01 15 02 27 17.0000000  0 19                     
G11  24457244.747   128523687.570       -3084.524          41.500    24457243.647   128523687.834          25.500    24457240.820   100148328.387       -2403.451          25.500                                                                  
G02  24362222.670   128024356.085        2375.121          47.750    24362221.819   128024357.361          31.750    24362221.027    99759240.344        1850.749          31.750                                                                  
R05  19221774.179   102751399.396       -1213.260          54.250    19221774.011   102751398.704          53.250    19221780.981    79917755.279        -943.644          49.250    19221780.615    79917755.515        -943.650          47.500  
R21  22141506.617   118483668.789        3491.704          49.250    22141506.356   118483676.083          48.750    22141512.526    92153968.911        2715.766          47.000    22141512.412    92153971.157        2715.763          45.500  
R19  21000686.605   112339510.427       -2997.708          52.750    21000685.931   112339510.743          51.500    21000691.468    87375174.082       -2331.536          47.000    21000691.228    87375175.322       -2331.551          46.000  
G10  22338043.501   117387210.042        2775.902          48.250    22338042.782   117387213.318          36.750    22338043.061    91470556.443        2163.048          36.750                                                                  
G13  22307523.361   117226832.918        2538.088          46.500    22307522.291   117226835.184          35.500    22307522.252    91345585.953        1977.720          35.500                                                                  
G04  21409800.125   112509261.921        1495.100          49.250    21409799.852   112509262.195          40.000    21409799.567    87669555.206        1165.029          40.000                                                                  
G32  25055266.470   131666320.579       -3632.747          39.000    25055266.812   131666319.819          21.000    25055268.185   102597132.049       -2830.572          21.000                                                                  
G17  20048652.838   105356386.198        -455.132          52.000    20048652.404   105356386.470          47.750    20048651.271    82095886.769        -354.651          47.750    20048651.378    82095886.532        -354.650          52.750  
G28  23560444.467   123810977.906       -3436.452          42.500    23560443.738   123810977.181          32.000    23560443.888    96476086.560       -2677.682          32.000                                                                  
G23  21927943.176   115232128.520         528.894          49.500    21927942.564   115232129.788          39.500    21927940.019    89791269.547         412.127          39.500                                                                  
G24  24663841.647   129609351.042       -2752.336          40.750    24663840.618   129609356.257          25.000    24663843.592   100994303.051       -2144.723          25.000                                                                  
G12  24885781.664   130775666.446        1532.141          43.000    24885781.229   130775665.689          29.250    24885780.743   101903117.554        1193.920          29.250    24885781.940   101903117.300        1193.885          43.000  
G20  22122428.383   116254152.030       -3075.603          48.250    22122427.780   116254150.302          37.500    22122427.231    90587650.627       -2396.574          37.500                                                                  
R20  19283386.301   103116937.859         684.572          51.750    19283387.222   103116937.168          50.750    19283394.873    80202063.609         532.446          48.500    19283394.705    80202062.851         532.443          48.000  
R06  20691156.585   110411973.237        2590.773          53.500    20691155.989   110411972.530          52.500    20691160.093    85875977.302        2015.052          48.000    20691161.181    85875978.522        2015.049          46.250  
S29  40074262.109   210591670.483        -244.721          43.750  
S37  40102333.184   210739189.504        -243.670          41.750  
> 2011 01 15 02 27 18.0000000  0 19                     
G11  24457831.489   128526772.079       -3084.518          41.500    24457830.598   128526772.344          25.000    24457828.281   100150731.909       -2403.464          25.000                                                                  
G02  24361770.646   128021980.717        2375.303          47.250    24361770.358   128021981.993          31.000    24361768.697    99757389.409        1850.862          31.000                                                                  
R05  19222000.900   102752612.754       -1213.738          54.500    19222000.951   102752612.061          53.500    19222008.032    79918699.003        -944.016          49.000    19222007.774    79918699.240        -944.020          47.500  
R21  22140853.888   118480176.915        3491.826          49.250    22140853.519   118480184.212          48.750    22140859.986    92151253.013        2715.862          47.000    22140859.932    92151255.254        2715.866          45.250  
R19  21001246.785   112342508.130       -2997.971          52.750    21001246.435   112342508.447          51.500    21001250.964    87377505.629       -2331.759          47.000    21001251.273    87377506.869       -2331.767          45.500  
G10  22337515.117   117384434.061        2775.792          48.500    22337513.501   117384437.332          37.000    22337514.631    91468393.345        2162.959          37.000                                                                  
G13  22307039.994   117224294.910        2537.838          46.250    22307039.766   117224297.184          35.750    22307039.094    91343608.295        1977.523          35.750                                                                  
G04  21409515.322   112507766.699        1495.142          49.250    21409515.367   112507766.980          40.250    21409515.361    87668390.103        1165.042          40.250                                                                  
G32  25055956.026   131669953.145       -3632.680          38.750    25055958.508   131669952.407          21.000    25055958.736   102599962.599       -2830.353          21.000                                                                  
G17  20048739.568   105356841.290        -455.427          52.000    20048739.176   105356841.567          47.500    20048737.818    82096241.387        -354.881          47.500    20048738.057    82096241.150        -354.886          52.750  
G28  23561098.365   123814414.014       -3436.101          42.250    23561097.717   123814413.272          31.500    23561098.011    96478764.053       -2677.474          31.500                                                                  
G23  21927842.401   115231599.660         528.571          49.750    21927841.813   115231600.925          39.500    21927839.963    89790857.441         411.931          39.500                                                                  
G24  24664366.508   129612103.236       -2752.257          40.250    24664363.816   129612108.483          25.250    24664367.243   100996447.606       -2144.645          25.250                                                                  
G12  24885489.516   130774134.343        1531.863          43.500    24885489.441   130774133.583          28.750    24885489.225   101901923.696        1193.713          28.750    24885489.513   101901923.449        1193.697          42.750  
G20  22123013.745   116257227.445       -3075.579          48.250    22123012.759   116257225.720          37.250    22123011.722    90590047.050       -2396.557          37.250                                                                  
R20  19283259.426   103116253.336         684.189          51.750    19283259.363   103116252.644          50.750    19283266.879    80201531.205         532.138          48.500    19283266.477    80201530.446         532.145          47.750  
R06  20690671.050   110409382.477        2590.491          53.250    20690670.532   110409381.768          52.500    20690674.357    85873962.268        2014.822          48.000    20690675.697    85873963.487        2014.841          46.000  
S29  40074308.337   210591914.711        -244.000          43.500  
S37  40102379.224   210739433.087        -243.346          41.500  
> 2011 01 15 02 27 19.0000000  0 19                     
G11  24458418.359   128529856.822       -3084.971          41.750    24458417.244   128529857.071          25.000    24458415.481   100153135.588       -2403.781          25.000                                                                  
G02  24361318.898   128019605.485        2375.013          47.000    24361318.397   128019606.752          31.000    24361316.329    99755538.575        1850.724          31.000                                                                  
R05  19222228.436   102753827.010       -1214.840          54.500    19222227.965   102753826.319          53.250    19222234.594    79919643.427        -944.880          49.250    19222234.696    79919643.665        -944.888          47.500  
R21  22140200.994   118476685.345        3491.264          49.250    22140201.090   118476692.640          49.000    22140206.984    92148537.350        2715.439          47.000    22140207.442    92148539.593        2715.441          45.750  
R19  21001806.966   112345506.527       -2998.894          53.000    21001806.642   112345506.842          51.750    21001811.184    87379837.715       -2332.477          47.000    21001812.197    87379838.954       -2332.474          45.750  
G10  22336986.613   117381658.593        2775.057          48.500    22336986.091   117381661.862          37.250    22336986.667    91466230.641        2162.409          37.250                                                                  
G13  22306557.082   117221757.407        2537.145          46.250    22306557.238   117221759.677          35.750    22306556.015    91341631.022        1976.969          35.750                                                                  
G04  21409230.870   112506271.857        1494.511          49.250    21409230.777   112506272.132          40.250    21409230.936    87667225.292        1164.542          40.250                                                                  
G32  25056647.869   131673585.843       -3632.992          38.750    25056649.946   131673585.071          20.750    25056649.485   102602793.285       -2830.841          20.750                                                                  
G17  20048826.115   105357297.153        -456.409          52.000    20048825.777   105357297.428          47.500    20048824.470    82096596.604        -355.654          47.500    20048824.545    82096596.368        -355.652          52.750  
G28  23561752.512   123817850.399       -3436.611          42.500    23561750.941   123817849.675          32.000    23561751.865    96481441.757       -2677.850          32.000                                                                  
G23  21927742.234   115231071.567         527.578          49.500    21927740.549   115231072.837          40.000    21927738.717    89790445.945         411.098          40.000                                                                  
G24  24664889.349   129614855.614       -2752.681          40.500    24664888.246   129614860.847          25.250    24664890.875   100998592.287       -2144.818          25.250                                                                  
G12  24885198.735   130772602.908        1530.981          43.500    24885198.337   130772602.147          28.750    24885198.526   101900730.391        1192.866          28.750    24885198.274   101900730.132        1192.961          42.500  
G20  22123599.255   116260303.253       -3076.187          48.250    22123597.993   116260301.518          38.000    22123597.018    90592443.784       -2397.005          38.000                                                                  
R20  19283131.706   103115569.627         683.166          51.750    19283131.721   103115568.933          50.750    19283138.907    80200999.429         531.358          48.500    19283138.895    80200998.669         531.362          48.000  
R06  20690185.210   110406792.454        2589.524          53.250    20690185.186   110406791.746          52.500    20690190.162    85871947.808        2014.064          48.250    20690190.010    85871949.026        2014.078          46.500  
S29  40074355.623   210592159.148        -244.631          43.750  
S37  40102425.476   210739676.553        -243.970          41.500  
> 2011 01 15 02 27 20.0000000  0 19                     
G11  24459005.131   128532941.557       -3084.540          41.750    24459004.469   128532941.810          25.750    24459002.196   100155539.299       -2403.460          25.750                                                                  
G02  24360867.192   128017230.165        2375.434          47.000    24360866.172   128017231.429          30.500    24360865.732    99753687.687        1850.949          30.500                                                                  
R05  19222455.181   102755041.907       -1215.167          54.500    19222455.211   102755041.216          53.250    19222461.414    79920588.347        -945.132          49.500    19222462.223    79920588.587        -945.147          48.000  
R21  22139549.104   118473193.797        3491.589          49.000    22139548.451   118473201.096          48.750    22139553.409    92145821.708        2715.657          47.500    22139554.722    92145823.946        2715.677          46.000  
R19  21002367.757   112348505.375       -2999.021          53.000    21002367.401   112348505.687          51.500    21002372.389    87382170.147       -2332.564          47.500    21002372.905    87382171.387       -2332.563          46.250  
G10  22336458.550   117378883.386        2775.110          48.000    22336457.578   117378886.653          37.000    22336458.490    91464068.145        2162.412          37.000                                                                  
G13  22306074.779   117219220.185        2537.107          46.500    22306074.734   117219222.453          36.000    22306073.571    91339653.962        1976.945          36.000                                                                  
G04  21408947.140   112504777.126        1494.739          49.250    21408946.604   112504777.401          40.500    21408946.625    87666060.559        1164.735          40.500                                                                  
G32  25057339.190   131677218.445       -3632.651          38.500    25057340.785   131677217.676          20.750    25057340.770   102605623.877       -2830.440          20.750                                                                  
G17  20048913.187   105357753.510        -456.528          52.000    20048912.585   105357753.784          47.250    20048911.421    82096952.206        -355.727          47.250    20048911.637    82096951.968        -355.733          52.750  
G28  23562406.123   123821286.774       -3436.330          42.250    23562404.582   123821286.023          31.500    23562405.988    96484119.437       -2677.627          31.500                                                                  
G23  21927642.376   115230543.985         527.352          49.750    21927640.391   115230545.253          39.500    21927638.233    89790034.842         410.938          39.500                                                                  
G24  24665413.767   129617607.896       -2752.095          40.250    24665412.754   129617613.096          25.250    24665414.880   101000736.954       -2144.594          25.250                                                                  
G12  24884907.169   130771071.907        1530.813          43.750    24884907.055   130771071.148          28.750    24884906.726   101899537.388        1192.816          28.750    24884907.085   101899537.146        1192.826          42.750  
G20  22124184.543   116263379.201       -3076.039          48.500    22124183.443   116263377.470          37.250    22124182.732    90594840.623       -2396.902          37.250                                                                  
R20  19283003.428   103114886.460         682.941          51.750    19283003.475   103114885.768          50.750    19283011.270    80200468.078         531.172          48.750    19283011.021    80200467.317         531.190          48.500  
R06  20689699.780   110404202.888        2589.440          53.250    20689699.924   110404202.183          52.250    20689704.981    85869933.702        2014.021          48.500    20689705.059    85869934.922        2014.025          46.500  
S29  40074403.053   210592403.664        -244.195          43.500  
S37  40102471.488   210739919.947        -243.312          41.250  
> 2011 01 15 02 27 21.0000000  0 19                     
G11  24459591.741   128536026.368       -3084.823          41.750    24459591.699   128536026.626          26.000    24459589.792   100157943.071       -2403.791          26.000                                                                  
G02  24360414.496   128014854.790        2375.396          46.750    24360414.235   128014856.070          30.750    24360413.192    99751836.744        1851.003          30.750                                                                  
R05  19222682.721   102756257.483       -1215.913          54.250    19222682.595   102756256.792          53.250    19222689.580    79921533.795        -945.712          49.000    19222689.574    79921534.032        -945.716          47.500  
R21  22138895.823   118469702.336        3491.386          48.750    22138896.285   118469709.636          48.750    22138902.865    92143106.131        2715.509          47.000    22138902.299    92143108.371        2715.519          45.750  
R19  21002928.624   112351504.712       -2999.603          53.000    21002928.114   112351505.027          51.500    21002933.457    87384502.965       -2333.028          47.250    21002933.613    87384504.205       -2333.020          46.000  
G10  22335930.582   117376108.472        2774.750          48.000    22335929.257   117376111.745          37.000    22335930.813    91461905.877        2162.155          37.000                                                                  
G13  22305591.076   117216683.261        2536.813          46.750    22305591.603   117216685.539          35.500    22305591.109    91337677.137        1976.724          35.500                                                                  
G04  21408662.304   112503282.536        1494.445          49.250    21408661.990   112503282.808          40.250    21408662.197    87664895.948        1164.495          40.250                                                                  
G32  25058031.546   131680850.966       -3632.493          38.500    25058031.633   131680850.184          21.500    25058032.532   102608454.450       -2830.488          21.500                                                                  
G17  20049000.211   105358210.433        -457.208          52.000    20048999.725   105358210.704          47.500    20048998.301    82097308.248        -356.264          47.500    20048998.556    82097308.011        -356.261          53.000  
G28  23563060.282   123824723.183       -3436.464          42.750    23563058.900   123824722.444          31.750    23563060.150    96486797.165       -2677.806          31.750                                                                  
G23  21927541.685   115230016.955         526.674          49.500    21927540.438   115230018.229          39.500    21927538.132    89789624.177         410.353          39.500                                                                  
G24  24665936.863   129620360.206       -2752.268          40.500    24665935.892   129620365.438          25.250    24665938.692   101002881.607       -2144.651          25.250                                                                  
G12  24884616.098   130769541.359        1530.312          43.500    24884615.531   130769540.609          28.500    24884614.869   101898344.762        1192.407          28.500    24884615.255   101898344.513        1192.437          43.000  
G20  22124769.932   116266455.311       -3076.233          48.250    22124768.490   116266453.582          37.000    22124768.092    90597237.597       -2397.074          37.000                                                                  
R20  19282875.764   103114203.898         682.224          52.000    19282875.878   103114203.204          50.750    19282883.636    80199937.195         530.627          48.500    19282883.412    80199936.439         530.614          48.000  
R06  20689214.932   110401613.854        2588.763          53.250    20689214.692   110401613.150          52.500    20689218.898    85867920.010        2013.485          48.250    20689219.845    85867921.232        2013.486          46.250  
S29  40074450.618   210592647.842        -244.157          44.000  
S37  40102518.018   210740163.633        -243.896          41.500  
> 2011 01 15 02 27 22.0000000  0 19                     
G11  24460179.160   128539111.216       -3084.951          42.000    24460178.633   128539111.474          26.000    24460176.996   100160346.841       -2403.986          26.000                                                                  
G02  24359961.513   128012479.375        2375.365          46.500    24359961.372   128012480.638          30.000    24359959.978    99749985.780        1850.906          30.000                                                                  
R05  19222910.455   102757473.756       -1216.738          54.500    19222910.038   102757473.067          53.250    19222917.698    79922479.786        -946.345          49.250    19222916.862    79922480.023        -946.345          47.750  
R21  22138243.898   118466210.971        3491.213          49.000    22138243.775   118466218.269          48.750    22138250.103    92140390.624        2715.402          47.500    22138249.711    92140392.863        2715.405          45.750  
R19  21003488.951   112354504.562       -3000.205          52.750    21003488.876   112354504.874          51.500    21003493.136    87386836.177       -2333.483          47.500    21003494.060    87386837.422       -2333.502          46.000  
G10  22335402.815   117373333.891        2774.302          48.000    22335401.158   117373337.162          37.000    22335402.036    91459743.866        2161.775          37.000                                                                  
G13  22305108.847   117214146.692        2536.332          46.500    22305109.249   117214148.960          35.500    22305108.026    91335700.588        1976.376          35.500                                                                  
G04  21408378.302   112501788.097        1494.248          49.500    21408377.700   112501788.372          40.250    21408377.526    87663731.457        1164.326          40.250                                                                  
G32  25058721.455   131684483.467       -3632.612          38.750    25058723.128   131684482.727          21.500    25058723.988   102611284.957       -2830.780          21.500                                                                  
G17  20049087.094   105358667.910        -457.826          51.750    20049086.629   105358668.182          47.500    20049085.364    82097664.723        -356.735          47.500    20049085.460    82097664.489        -356.755          53.000  
G28  23563714.600   123828159.649       -3436.582          42.500    23563712.636   123828158.916          32.000    23563713.841    96489474.918       -2677.856          32.000                                                                  
G23  21927441.053   115229490.481         526.036          49.500    21927440.046   115229491.752          39.250    21927437.873    89789213.933         409.926          39.250                                                                  
G24  24666460.199   129623112.505       -2752.425          40.500    24666459.389   129623117.709          25.250    24666462.354   101005026.251       -2144.762          25.250                                                                  
G12  24884324.810   130768011.307        1529.741          44.000    24884324.649   130768010.558          29.000    24884324.403   101897152.500        1191.988          29.000    24884325.071   101897152.266        1191.993          42.750  
G20  22125354.570   116269531.626       -3076.520          48.500    22125354.264   116269529.905          37.250    22125353.152    90599634.720       -2397.259          37.250                                                                  
R20  19282747.576   103113521.942         681.565          51.750    19282748.316   103113521.246          50.750    19282756.324    80199406.785         530.113          48.750    19282755.784    80199406.026         530.110          48.250  
R06  20688729.559   110399025.346        2588.104          53.250    20688729.532   110399024.645          52.500    20688735.045    85865906.732        2012.974          48.250    20688734.778    85865907.953        2012.981          46.500  
S29  40074496.639   210592892.205        -244.406          44.000  
S37  40102564.738   210740407.539        -243.804          41.750  
> 2011 01 15 02 27 23.0000000  0 19                     
G11  24460765.806   128542196.269       -3085.512          41.750    24460765.273   128542196.524          26.000    24460764.181   100162750.785       -2404.434          26.000                                                                  
G02  24359510.661   128010104.043        2374.988          46.500    24359508.829   128010105.310          30.000    24359508.955    99748134.871        1850.630          30.000                                                                  
R05  19223138.069   102758690.811       -1217.714          54.500    19223137.839   102758690.120          53.250    19223144.875    79923426.384        -947.104          49.000    19223144.542    79923426.622        -947.096          47.500  
R21  22137591.786   118462719.826        3490.712          48.750    22137591.264   118462727.122          48.500    22137596.634    92137675.288        2715.008          46.750    22137597.254    92137677.528        2715.009          45.250  
R19  21004050.115   112357505.032       -3001.073          52.750    21004049.764   112357505.342          51.500    21004054.968    87389169.878       -2334.183          47.000    21004054.794    87389171.119       -2334.193          45.750  
G10  22334874.884   117370559.732        2773.643          48.250    22334873.565   117370563.006          37.000    22334874.191    91457582.184        2161.232          37.000                                                                  
G13  22304626.412   117211610.559        2535.648          46.500    22304626.601   117211612.826          35.750    22304626.170    91333724.381        1975.847          35.750                                                                  
G04  21408093.955   112500293.943        1493.790          49.750    21408093.490   112500294.220          40.000    21408093.190    87662567.179        1163.992          40.000                                                                  
G32  25059411.736   131688116.016       -3632.779          38.500    25059414.482   131688115.256          21.500    25059415.259   102614115.501       -2830.746          21.500                                                                  
G17  20049174.342   105359126.076        -458.786          51.750    20049173.764   105359126.350          47.750    20049172.637    82098021.738        -357.496          47.750    20049172.754    82098021.500        -357.490          53.000  
G28  23564367.395   123831596.268       -3436.896          43.000    23564367.740   123831595.536          31.750    23564367.578    96492152.806       -2678.093          31.750                                                                  
G23  21927341.211   115228964.692         525.128          49.250    21927340.002   115228965.965          39.750    21927337.487    89788804.231         409.188          39.750                                                                  
G24  24666983.619   129625864.909       -2752.765          41.000    24666983.511   129625870.124          24.500    24666985.492   101007170.989       -2145.064          24.500                                                                  
G12  24884034.111   130766481.861        1528.875          43.750    24884033.661   130766481.109          29.250    24884033.433   101895960.718        1191.351          29.250    24884033.898   101895960.482        1191.348          42.750  
G20  22125940.640   116272608.235       -3076.996          48.250    22125939.531   116272606.513          37.500    22125938.850    90602032.084       -2397.694          37.500                                                                  
R20  19282621.009   103112840.717         680.611          51.750    19282621.087   103112840.021          50.750    19282627.824    80198876.942         529.377          48.500    19282628.555    80198876.183         529.378          47.750  
R06  20688245.301   110396437.484        2587.256          53.250    20688244.503   110396436.780          52.500    20688249.402    85863893.947        2012.324          47.750    20688249.756    85863895.168        2012.302          45.750  
S29  40074545.173   210593136.386        -244.329          44.000  
S37  40102609.140   210740651.373        -244.205          41.750  
> 2011 01 15 02 27 24.0000000  0 19                     
G11  24461352.887   128545281.448       -3084.975          42.000    24461352.269   128545281.706          26.250    24461351.211   100165154.790       -2403.846          26.250                                                                  
G02  24359058.157   128007728.769        2375.543          46.250    24359057.722   128007730.030          30.000    24359056.376    99746284.000        1851.080          30.000                                                                  
R05  19223366.086   102759908.662       -1217.940          54.500    19223365.567   102759907.974          53.250    19223373.032    79924373.602        -947.289          49.000    19223372.648    79924373.841        -947.293          47.750  
R21  22136937.585   118459228.894        3491.057          48.750    22136938.754   118459236.192          48.500    22136944.363    92134960.121        2715.253          46.750    22136944.987    92134962.364        2715.260          45.500  
R19  21004611.527   112360506.110       -3001.097          52.750    21004610.840   112360506.423          51.500    21004615.547    87391504.045       -2334.185          47.250    21004615.952    87391505.288       -2334.177          46.000  
G10  22334346.362   117367786.009        2773.771          48.250    22334345.828   117367789.282          36.750    22334346.751    91455420.841        2161.349          36.750                                                                  
G13  22304144.130   117209074.870        2535.785          46.500    22304143.468   117209077.138          35.500    22304142.230    91331748.518        1975.958          35.500                                                                  
G04  21407809.632   112498800.069        1493.990          49.500    21407809.017   112498800.341          40.750    21407808.975    87661403.120        1164.168          40.750                                                                  
G32  25060103.321   131691748.673       -3632.364          38.500    25060105.288   131691747.898          21.250    25060106.541   102616946.140       -2830.499          21.250                                                                  
G17  20049261.846   105359584.914        -458.898          51.750    20049261.045   105359585.188          47.750    20049260.011    82098379.272        -357.580          47.750    20049260.113    82098379.035        -357.576          52.750  
G28  23565021.785   123835033.083       -3436.666          42.750    23565020.906   123835032.352          31.500    23565021.431    96494830.840       -2677.955          31.500                                                                  
G23  21927241.284   115228439.589         525.006          49.250    21927240.531   115228440.863          39.750    21927237.521    89788395.062         409.058          39.750                                                                  
G24  24667507.875   129628617.424       -2752.279          40.750    24667507.416   129628622.654          24.500    24667509.772   101009315.787       -2144.642          24.500                                                                  
G12  24883743.612   130764953.017        1528.797          44.500    24883742.422   130764952.267          29.000    24883742.260   101894769.413        1191.266          29.000    24883743.750   101894769.177        1191.280          43.000  
G20  22126525.898   116275685.167       -3076.784          48.250    22126525.346   116275683.440          38.000    22126524.393    90604429.688       -2397.478          38.000                                                                  
R20  19282493.702   103112160.218         680.443          51.750    19282493.720   103112159.524          50.750    19282501.173    80198347.666         529.237          48.750    19282501.245    80198346.905         529.238          48.000  
R06  20687760.407   110393850.283        2587.166          53.000    20687759.664   110393849.577          52.500    20687764.473    85861881.679        2012.236          48.000    20687764.946    85861882.901        2012.231          46.250  
S29  40074592.396   210593380.401        -243.726          44.000  
S37  40102655.932   210740895.490        -243.842          42.250  
> 2011 01 15 02 27 25.0000000  0 19                     
G11  24461939.419   128548366.804       -3085.334          42.000    24461939.410   128548367.059          26.000    24461938.426   100167558.948       -2404.081          26.000                                                                  
G02  24358606.028   128005353.582        2375.086          46.000    24358605.245   128005354.841          30.500    24358604.760    99744433.209        1850.688          30.500                                                                  
R05  19223594.566   102761127.306       -1219.086          54.500    19223593.697   102761126.614          53.250    19223599.741    79925321.436        -948.169          49.250    19223600.592    79925321.674        -948.165          47.750  
R21  22136286.697   118455738.178        3490.554          49.000    22136286.676   118455745.472          48.500    22136292.366    92132245.115        2714.902          47.000    22136292.384    92132247.357        2714.887          45.500  
R19  21005172.214   112363507.796       -3002.056          52.500    21005171.986   112363508.105          51.750    21005176.435    87393838.690       -2334.930          47.250    21005177.136    87393839.932       -2334.927          46.000  
G10  22333818.886   117365012.710        2773.041          47.750    22333817.744   117365015.986          37.000    22333818.787    91453259.827        2160.818          37.000                                                                  
G13  22303661.566   117206539.620        2535.055          46.500    22303661.467   117206541.881          35.750    22303660.106    91329772.995        1975.418          35.750                                                                  
G04  21407525.602   112497306.478        1493.396          49.500    21407525.066   112497306.751          40.500    21407524.298    87660239.281        1163.702          40.500                                                                  
G32  25060794.463   131695381.408       -3633.054          38.000    25060795.941   131695380.631          21.250    25060798.046   102619776.834       -2830.877          21.250                                                                  
G17  20049349.187   105360044.424        -459.903          51.750    20049348.780   105360044.696          47.500    20049347.314    82098737.332        -358.354          47.500    20049347.952    82098737.096        -358.358          52.750  
G28  23565675.506   123838470.022       -3436.975          42.750    23565675.368   123838469.294          31.750    23565675.659    96497508.974       -2678.223          31.750                                                                  
G23  21927141.513   115227915.157         524.003          49.250    21927140.506   115227916.427          39.750    21927138.050    89787986.412         408.324          39.750                                                                  
G24  24668032.218   129631370.060       -2752.792          41.000    24668031.108   129631375.300          25.000    24668033.627   101011460.703       -2145.060          25.000                                                                  
G12  24883452.061   130763424.751        1527.897          43.750    24883452.160   130763424.000          29.000    24883451.539   101893578.561        1190.563          29.000    24883451.896   101893578.316        1190.571          43.000  
G20  22127111.617   116278762.396       -3077.486          48.250    22127110.277   116278760.673          37.500    22127109.945    90606827.532       -2398.021          37.500                                                                  
R20  19282366.066   103111480.439         679.396          51.750    19282366.644   103111479.742          50.750    19282373.929    80197818.948         528.420          48.750    19282374.103    80197818.189         528.415          48.000  
R06  20687275.739   110391263.728        2586.191          53.000    20687275.103   110391263.021          52.500    20687279.175    85859869.916        2011.491          48.000    20687280.002    85859871.135        2011.495          46.500  
S29  40074636.157   210593624.892        -244.435          43.750  
S37  40102702.382   210741139.334        -243.548          42.000  
> 2011 01 15 02 27 26.0000000  0 19                     
G11  24462526.994   128551452.250       -3085.305          42.000    24462527.144   128551452.493          26.000    24462527.105   100169963.196       -2404.033          26.000                                                                  
G02  24358154.229   128002978.357        2375.309          46.000    24358153.587   128002979.625          30.000    24358152.298    99742582.394        1850.838          30.000                                                                  
R05  19223822.019   102762346.633       -1219.576          54.500    19223821.728   102762345.942          53.250    19223829.046    79926269.801        -948.558          49.250    19223828.363    79926270.043        -948.564          47.500  
R21  22135634.039   118452247.592        3490.607          49.000    22135634.060   118452254.890          48.500    22135640.617    92129530.217        2714.929          46.750    22135640.185    92129532.465        2714.916          45.500  
R19  21005733.746   112366509.987       -3002.378          52.500    21005733.081   112366510.296          51.500    21005737.979    87396173.726       -2335.170          47.500    21005738.582    87396174.970       -2335.184          46.000  
G10  22333291.386   117362239.742        2772.892          47.750    22333289.797   117362243.011          36.750    22333291.050    91451099.073        2160.729          36.750                                                                  
G13  22303179.101   117204004.713        2534.859          46.750    22303178.913   117204006.983          35.750    22303177.569    91327797.752        1975.259          35.750                                                                  
G04  21407240.946   112495813.070        1493.483          49.500    21407241.009   112495813.342          40.750    21407240.098    87659075.594        1163.752          40.750                                                                  
G32  25061486.171   131699014.063       -3632.679          38.000    25061487.211   131699013.289          21.250    25061489.712   102622607.507       -2830.655          21.250                                                                  
G17  20049436.973   105360504.514        -460.288          52.000    20049436.100   105360504.786          47.750    20049434.733    82099095.840        -358.665          47.750    20049435.195    82099095.605        -358.671          52.750  
G28  23566329.905   123841907.069       -3437.161          42.750    23566329.345   123841906.337          31.500    23566330.682    96500187.196       -2678.347          31.500                                                                  
G23  21927041.523   115227391.301         523.655          49.750    21927041.163   115227392.568          39.500    21927038.651    89787578.214         408.064          39.500                                                                  
G24  24668555.002   129634122.693       -2752.549          41.250    24668555.155   129634127.913          25.000    24668557.316   101013605.627       -2144.970          25.000                                                                  
G12  24883161.724   130761896.989        1527.606          44.000    24883161.148   130761896.233          29.250    24883161.229   101892388.091        1190.362          29.250    24883160.746   101892387.848        1190.387          43.000  
G20  22127696.743   116281839.827       -3077.507          48.250    22127696.432   116281838.103          37.250    22127695.463    90609225.525       -2398.021          37.250                                                                  
R20  19282239.958   103110801.284         678.949          51.750    19282239.706   103110800.589          50.750    19282246.541    80197290.719         528.065          48.750    19282247.186    80197289.958         528.067          48.250  
R06  20686790.813   110388677.727        2585.887          53.000    20686790.534   110388677.019          52.500    20686795.480    85857858.577        2011.262          48.000    20686795.837    85857859.802        2011.248          46.250  
S29  40074683.959   210593869.192        -243.852          44.000  
S37  40102747.776   210741382.796        -243.291          41.750  
> 2011 01 15 02 27 27.0000000  0 19                     
G11  24463114.809   128554537.628       -3085.183          42.000    24463114.599   128554537.874          26.000    24463113.814   100172367.384       -2403.926          26.000                                                                  
G02  24357702.109   128000602.976        2375.443          46.000    24357700.996   128000604.252          30.250    24357700.940    99740731.446        1850.954          30.250                                                                  
R05  19224049.846   102763566.546       -1220.266          54.500    19224049.942   102763565.855          53.250    19224056.073    79927218.622        -949.096          49.000    19224057.017    79927218.863        -949.112          47.750  
R21  22134982.030   118448756.998        3490.585          49.000    22134982.078   118448764.296          48.750    22134986.500    92126815.317        2714.891          47.000    22134988.083    92126817.562        2714.875          45.500  
R19  21006295.054   112369512.552       -3002.802          52.500    21006294.622   112369512.863          51.750    21006299.239    87398509.053       -2335.504          47.500    21006299.643    87398510.298       -2335.536          46.250  
G10  22332763.910   117359466.980        2772.604          47.750    22332762.171   117359470.254          37.250    22332764.171    91448938.488        2160.431          37.250                                                                  
G13  22302696.657   117201470.040        2534.451          46.500    22302696.394   117201472.306          35.500    22302695.632    91325822.683        1974.862          35.500                                                                  
G04  21406956.623   112494319.723        1493.311          49.250    21406956.713   112494319.999          40.250    21406956.318    87657911.947        1163.612          40.250                                                                  
G32  25062177.199   131702646.564       -3632.460          38.250    25062178.698   131702645.764          21.250    25062180.092   102625437.985       -2830.498          21.250                                                                  
G17  20049524.521   105360965.056        -460.803          51.750    20049523.688   105360965.329          47.500    20049522.434    82099454.703        -359.052          47.500    20049522.791    82099454.470        -359.062          52.750  
G28  23566983.998   123845344.022       -3437.033          42.500    23566983.192   123845343.299          31.000    23566983.705    96502865.324       -2678.129          31.000                                                                  
G23  21926941.863   115226867.905         523.122          49.500    21926941.680   115226869.179          39.000    21926939.024    89787170.377         407.621          39.000                                                                  
G24  24669079.531   129636875.220       -2752.469          41.250    24669078.667   129636880.448          25.250    24669081.179   101015750.428       -2144.676          25.250                                                                  
G12  24882870.910   130760369.565        1527.445          44.000    24882870.298   130760368.812          30.000    24882870.166   101891197.904        1190.195          30.000    24882870.919   101891197.659        1190.210          43.500  
G20  22128282.691   116284917.343       -3077.710          48.250    22128281.878   116284915.622          37.250    22128280.694    90611623.594       -2398.229          37.250                                                                  
R20  19282112.288   103110122.612         678.401          51.750    19282112.711   103110121.918          50.750    19282119.528    80196762.863         527.631          48.750    19282120.236    80196762.102         527.637          48.250  
R06  20686306.306   110386092.155        2585.355          53.000    20686305.811   110386091.449          52.500    20686310.215    85855847.580        2010.832          48.250    20686310.923    85855848.801        2010.833          46.250  
S29  40074729.863   210594113.172        -244.218          44.250  
S37  40102795.060   210741626.156        -243.085          42.000  
> 2011 01 15 02 27 28.0000000  0 19                     
G11  24463701.827   128557623.183       -3085.807          41.500    24463702.303   128557623.439          25.500    24463700.454   100174771.727       -2404.529          25.500                                                                  
G02  24357250.894   127998227.627        2375.164          46.250    24357249.065   127998228.884          30.250    24357249.314    99738880.516        1850.779          30.250                                                                  
R05  19224278.720   102764787.213       -1221.197          54.500    19224278.306   102764786.521          53.500    19224285.552    79928168.028        -949.811          48.750    19224285.021    79928168.271        -949.829          47.750  
R21  22134329.238   118445266.582        3490.266          49.000    22134330.020   118445273.879          48.500    22134334.946    92124100.546        2714.666          46.750    22134335.578    92124102.792        2714.652          45.500  
R19  21006856.100   112372515.680       -3003.577          52.500    21006855.734   112372515.992          51.500    21006860.783    87400844.820       -2336.106          47.500    21006861.032    87400846.057       -2336.093          46.250  
G10  22332237.094   117356694.593        2772.086          48.000    22332234.732   117356697.868          37.000    22332236.171    91446778.179        2160.072          37.000                                                                  
G13  22302214.597   117198935.728        2534.109          46.500    22302214.186   117198937.990          35.250    22302213.053    91323847.892        1974.636          35.250                                                                  
G04  21406672.447   112492826.584        1492.936          49.250    21406672.429   112492826.861          40.500    21406672.075    87656748.462        1163.330          40.500                                                                  
G32  25062869.408   131706279.093       -3632.645          39.000    25062869.788   131706278.328          20.500    25062871.170   102628268.545       -2830.628          20.500                                                                  
G17  20049612.180   105361426.221        -461.584          51.750    20049611.680   105361426.494          47.500    20049610.187    82099814.054        -359.672          47.500    20049610.639    82099813.818        -359.677          52.750  
G28  23567638.053   123848781.100       -3437.290          42.750    23567637.186   123848780.365          31.500    23567638.607    96505543.568       -2678.407          31.500                                                                  
G23  21926842.881   115226345.149         522.210          49.250    21926841.840   115226346.416          40.000    21926839.520    89786763.029         406.935          40.000                                                                  
G24  24669604.353   129639627.804       -2752.646          41.000    24669601.916   129639633.025          25.000    24669604.689   101017895.294       -2144.852          25.000                                                                  
G12  24882580.186   130758842.762        1526.420          43.500    24882579.745   130758842.004          30.000    24882579.353   101890008.178        1189.447          30.000    24882580.993   101890007.940        1189.429          43.500  
G20  22128868.356   116287995.094       -3078.048          48.000    22128867.802   116287993.370          37.500    22128866.779    90614021.843       -2398.494          37.500                                                                  
R20  19281985.752   103109444.613         677.523          51.750    19281986.253   103109443.918          50.750    19281992.147    80196235.529         526.966          48.750    19281993.487    80196234.768         526.972          48.250  
R06  20685821.281   110383507.178        2584.539          53.000    20685821.542   110383506.473          52.500    20685826.485    85853837.045        2010.200          48.000    20685826.482    85853838.265        2010.200          46.000  
S29  40074777.095   210594357.577        -244.312          44.000  
S37  40102841.698   210741869.256        -243.027          42.500  
> 2011 01 15 02 27 29.0000000  0 19                     
G11  24464287.609   128560708.534       -3085.466          41.500    24464288.428   128560708.820          25.250    24464288.035   100177175.872       -2404.062          25.250                                                                  
G02  24356798.999   127995851.998        2375.691          46.500    24356797.428   127995853.255          30.000    24356797.125    99737029.394        1851.181          30.000                                                                  
R05  19224506.412   102766008.349       -1221.487          54.750    19224506.673   102766007.656          53.500    19224513.424    79929117.803        -950.059          48.750    19224513.535    79929118.040        -950.040          47.500  
R21  22133677.174   118441776.054        3490.494          49.250    22133677.375   118441783.349          48.750    22133683.503    92121385.691        2714.831          46.500    22133683.350    92121387.940        2714.837          45.250  
R19  21007417.752   112375519.084       -3003.665          52.500    21007417.324   112375519.396          51.500    21007421.997    87403180.802       -2336.190          47.500    21007422.672    87403182.042       -2336.186          45.750  
G10  22331708.707   117353922.309        2772.141          48.000    22331707.637   117353925.588          37.250    22331708.437    91444617.958        2160.134          37.250                                                                  
G13  22301732.189   117196401.561        2534.037          46.250    22301732.339   117196403.827          35.500    22301730.777    91321873.217        1974.610          35.500                                                                  
G04  21406388.601   112491333.409        1493.096          49.250    21406388.034   112491333.685          40.500    21406387.854    87655584.946        1163.474          40.500                                                                  
G32  25063559.365   131709911.366       -3632.245          38.750    25063561.083   131709910.595          20.500    25063561.179   102631098.868       -2830.382          20.500                                                                  
G17  20049700.214   105361887.744        -461.816          51.750    20049699.480   105361888.019          47.500    20049697.558    82100173.684        -359.859          47.500    20049698.227    82100173.448        -359.869          52.500  
G28  23568292.886   123852217.996       -3436.802          42.750    23568290.905   123852217.267          31.250    23568292.119    96508221.664       -2678.003          31.250                                                                  
G23  21926743.295   115225822.735         522.026          49.500    21926742.450   115225824.011          40.000    21926740.016    89786355.949         406.804          40.000                                                                  
G24  24670127.155   129642380.177       -2752.298          41.250    24670125.474   129642385.412          25.000    24670128.936   101020039.988       -2144.476          25.000                                                                  
G12  24882289.259   130757316.145        1526.690          43.250    24882289.229   130757315.397          30.000    24882289.136   101888818.617        1189.657          30.000    24882289.930   101888818.368        1189.633          43.250  
G20  22129454.528   116291072.831       -3077.808          48.250    22129453.536   116291071.102          37.750    22129452.775    90616420.074       -2398.285          37.750                                                                  
R20  19281859.719   103108766.991         677.300          51.750    19281859.270   103108766.299          50.750    19281867.004    80195708.490         526.788          48.750    19281866.818    80195707.731         526.788          47.750  
R06  20685337.260   110380922.517        2584.402          53.000    20685337.080   110380921.809          52.250    20685341.940    85851826.752        2010.100          47.750    20685342.389    85851827.974        2010.097          46.000  
S29  40074822.364   210594601.873        -244.515          44.000  
S37  40102888.484   210742112.421        -243.251          42.500  
> 2011 01 15 02 27 30.0000000  0 19                     
G11  24464874.678   128563794.005       -3085.493          41.500    24464875.244   128563794.260          25.750    24464874.870   100179580.160       -2404.330          25.750                                                                  
G02  24356346.792   127993476.417        2375.508          46.750    24356344.957   127993477.698          30.500    24356345.128    99735178.285        1850.991          30.500                                                                  
R05  19224734.806   102767230.232       -1222.383          54.750    19224735.184   102767229.541          53.500    19224742.052    79930068.155        -950.736          48.750    19224741.911    79930068.400        -950.752          47.750  
R21  22133024.709   118438285.685        3490.189          49.500    22133025.236   118438292.982          48.750    22133031.259    92118670.964        2714.596          46.750    22133031.025    92118673.209        2714.608          45.250  
R19  21007979.045   112378523.052       -3004.328          52.500    21007978.799   112378523.363          51.500    21007983.790    87405517.222       -2336.702          47.500    21007983.763    87405518.459       -2336.690          45.750  
G10  22331181.171   117351150.412        2771.588          47.750    22331179.906   117351153.689          37.000    22331180.469    91442458.045        2159.662          37.000                                                                  
G13  22301250.617   117193867.772        2533.627          46.250    22301249.442   117193870.041          35.750    22301248.900    91319898.848        1974.198          35.750                                                                  
G04  21406104.367   112489840.491        1492.788          49.250    21406104.193   112489840.766          40.500    21406104.092    87654421.641        1163.202          40.500                                                                  
G32  25064251.265   131713543.644       -3632.293          38.750    25064252.404   131713542.888          20.500    25064252.305   102633929.214       -2830.262          20.500                                                                  
G17  20049788.048   105362349.909        -462.617          51.750    20049787.439   105362350.181          47.250    20049785.796    82100533.811        -360.475          47.250    20049786.234    82100533.574        -360.478          52.750  
G28  23568946.200   123855655.031       -3437.128          42.750    23568945.609   123855654.298          31.500    23568945.936    96510899.877       -2678.344          31.500                                                                  
G23  21926644.001   115225300.953         521.355          49.500    21926643.294   115225302.230          39.750    21926640.868    89785949.376         406.235          39.750                                                                  
G24  24670651.160   129645132.605       -2752.408          41.250    24670649.520   129645137.834          25.000    24670652.578   101022184.753       -2144.636          25.000                                                                  
G12  24881999.290   130755790.169        1525.605          43.250    24881999.350   130755789.424          30.000    24881999.170   101887629.551        1188.808          30.000    24881999.956   101887629.305        1188.764          43.250  
G20  22130039.933   116294150.836       -3078.256          48.250    22130038.992   116294149.107          37.750    22130038.119    90618818.520       -2398.623          37.750                                                                  
R20  19281732.304   103108090.044         676.508          51.750    19281732.763   103108089.352          50.750    19281739.230    80195181.976         526.178          48.500    19281739.874    80195181.216         526.181          48.000  
R06  20684852.957   110378338.470        2583.658          53.000    20684852.789   110378337.762          52.500    20684857.568    85849816.939        2009.522          48.000    20684857.934    85849818.161        2009.520          46.250  
S29  40074868.217   210594846.217        -244.564          44.000  
S37  40102935.512   210742355.673        -243.370          42.500  
> 2011 01 15 02 27 31.0000000  0 19                     
G11  24465462.052   128566879.779       -3085.824          41.750    24465463.008   128566880.026          25.250    24465462.223   100181984.647       -2404.468          25.250                                                                  
G02  24355894.732   127991101.010        2375.423          46.500    24355893.731   127991102.271          30.500    24355893.701    99733327.315        1850.995          30.500                                                                  
R05  19224964.309   102768453.019       -1223.164          54.750    19224963.997   102768452.325          53.500    19224970.887    79931019.212        -951.346          48.500    19224970.584    79931019.454        -951.363          47.750  
R21  22132373.542   118434795.625        3490.000          49.250    22132373.089   118434802.917          48.750    22132380.293    92115956.472        2714.447          46.500    22132378.734    92115958.718        2714.454          45.250  
R19  21008541.129   112381527.744       -3004.917          52.750    21008540.634   112381528.057          51.500    21008544.948    87407854.202       -2337.149          47.250    21008545.883    87407855.442       -2337.159          45.750  
G10  22330653.836   117348379.044        2771.202          47.750    22330652.406   117348382.326          37.000    22330652.718    91440298.536        2159.375          37.000                                                                  
G13  22300768.299   117191334.558        2533.106          46.250    22300767.493   117191336.822          35.750    22300766.974    91317924.910        1973.826          35.750                                                                  
G04  21405820.281   112488347.945        1492.465          49.250    21405820.092   112488348.221          40.750    21405819.660    87653258.613        1162.969          40.750                                                                  
G32  25064942.643   131717176.115       -3632.496          38.500    25064942.931   131717175.303          21.000    25064943.738   102636759.721       -2830.428          21.000                                                                  
G17  20049876.013   105362812.845        -463.250          51.500    20049875.500   105362813.118          47.500    20049874.007    82100894.537        -360.968          47.500    20049874.196    82100894.301        -360.958          52.750  
G28  23569600.362   123859092.334       -3437.266          42.500    23569599.295   123859091.613          31.250    23569599.703    96513578.287       -2678.357          31.250                                                                  
G23  21926544.818   115224779.954         520.726          49.250    21926544.164   115224781.222          40.000    21926541.745    89785543.403         405.761          40.000                                                                  
G24  24671174.166   129647885.277       -2752.674          41.500    24671174.738   129647890.498          24.500    24671176.036   101024329.693       -2145.087          24.500                                                                  
G12  24881708.947   130754264.858        1524.928          43.250    24881708.456   130754264.116          30.000    24881709.127   101886440.993        1188.278          30.000    24881709.496   101886440.751        1188.231          43.500  
G20  22130625.988   116297229.249       -3078.551          48.250    22130624.828   116297227.517          37.250    22130624.202    90621217.275       -2398.852          37.250                                                                  
R20  19281606.299   103107413.931         675.785          51.500    19281606.341   103107413.237          50.750    19281613.539    80194656.109         525.628          48.500    19281613.473    80194655.351         525.610          47.750  
R06  20684368.079   110375755.186        2583.007          53.000    20684368.735   110375754.479          52.250    20684373.883    85847807.722        2008.998          48.000    20684374.033    85847808.941        2009.002          45.750  
S29  40074915.653   210595090.488        -243.916          44.250  
S37  40102982.862   210742599.342        -243.682          42.750  
> 2011 01 15 02 27 32.0000000  0 19                     
G11  24466049.708   128569965.578       -3085.839          41.000    24466051.150   128569965.846          25.250    24466049.693   100184389.159       -2404.371          25.250                                                                  
G02  24355442.516   127988725.531        2375.677          46.750    24355441.814   127988726.800          30.250    24355440.804    99731476.291        1851.216          30.250                                                                  
R05  19225193.225   102769676.455       -1223.673          54.750    19225192.916   102769675.766          53.500    19225200.138    79931970.775        -951.754          48.250    19225199.673    79931971.014        -951.736          47.500  
R21  22131720.378   118431305.632        3490.051          49.500    22131720.833   118431312.929          49.000    22131727.363    92113242.035        2714.484          46.250    22131726.832    92113244.281        2714.489          45.000  
R19  21009102.955   112384532.911       -3005.303          52.750    21009102.238   112384533.220          51.500    21009107.398    87410191.553       -2337.457          47.000    21009107.236    87410192.793       -2337.468          45.500  
G10  22330126.384   117345607.966        2771.053          47.750    22330124.936   117345611.239          37.000    22330125.842    91438139.256        2159.261          37.000                                                                  
G13  22300285.714   117188801.619        2532.995          46.000    22300285.544   117188803.887          35.750    22300285.175    91315951.187        1973.795          35.750                                                                  
G04  21405536.656   112486855.549        1492.452          49.250    21405535.949   112486855.823          40.500    21405535.451    87652095.708        1162.965          40.500                                                                  
G32  25065635.500   131720808.493       -3632.138          38.750    25065634.396   131720807.718          21.000    25065635.293   102639590.130       -2830.209          21.000                                                                  
G17  20049964.179   105363276.318        -463.676          51.500    20049963.594   105363276.590          47.500    20049962.155    82101255.687        -361.313          47.500    20049962.539    82101255.452        -361.309          52.750  
G28  23570254.470   123862529.646       -3437.174          42.500    23570254.039   123862528.910          31.500    23570254.162    96516256.700       -2678.255          31.500                                                                  
G23  21926446.312   115224259.502         520.278          49.500    21926445.425   115224260.775          40.000    21926442.906    89785137.857         405.428          40.000                                                                  
G24  24671698.889   129650637.895       -2752.420          41.750    24671698.344   129650643.090          24.500    24671699.462   101026474.596       -2144.927          24.500                                                                  
G12  24881418.499   130752739.972        1524.781          43.250    24881418.853   130752739.224          30.000    24881418.526   101885252.768        1188.105          30.000    24881418.715   101885252.527        1188.135          43.500  
G20  22131212.215   116300307.810       -3078.513          48.000    22131210.937   116300306.090          38.000    22131209.891    90623616.163       -2398.851          38.000                                                                  
R20  19281479.337   103106738.404         675.332          51.750    19281480.122   103106737.710          50.750    19281487.956    80194130.698         525.267          48.250    19281487.086    80194129.940         525.266          47.500  
R06  20683884.915   110373172.411        2582.637          52.750    20683884.673   110373171.706          52.500    20683889.592    85845798.898        2008.735          47.750    20683889.790    85845800.119        2008.728          45.750  
S29  40074961.992   210595334.573        -244.290          44.250  
S37  40103031.092   210742843.150        -243.840          42.750  
> 2011 01 15 02 27 33.0000000  0 19                     
G11  24466636.276   128573051.349       -3086.072          41.000    24466637.760   128573051.602          25.250    24466636.888   100186793.664       -2404.708          25.250                                                                  
G02  24354990.351   127986349.924        2375.652          46.500    24354989.512   127986351.180          30.750    24354988.807    99729625.169        1851.136          30.750                                                                  
R05  19225421.798   102770900.472       -1224.406          54.750    19225421.852   102770899.779          53.500    19225428.106    79932922.789        -952.327          48.500    19225428.607    79932923.027        -952.316          47.500  
R21  22131068.491   118427815.644        3489.838          49.250    22131068.566   118427822.942          49.000    22131074.805    92110527.606        2714.304          46.750    22131074.595    92110529.847        2714.314          45.000  
R19  21009664.397   112387538.483       -3005.897          52.500    21009664.118   112387538.794          51.500    21009668.474    87412529.221       -2337.918          47.250    21009669.445    87412530.458       -2337.923          45.750  
G10  22329598.686   117342837.121        2770.570          47.750    22329597.532   117342840.397          36.750    22329598.642    91435980.155        2158.888          36.750                                                                  
G13  22299803.600   117186268.943        2532.481          46.000    22299803.621   117186271.212          35.250    22299802.569    91313977.674        1973.391          35.250                                                                  
G04  21405252.723   112485363.238        1492.228          49.250    21405252.372   112485363.512          40.500    21405251.422    87650932.868        1162.788          40.500                                                                  
G32  25066326.770   131724440.761       -3632.476          38.750    25066325.799   131724439.990          21.000    25066326.147   102642420.484       -2830.574          21.000                                                                  
G17  20050052.683   105363740.272        -464.305          51.500    20050052.015   105363740.545          47.500    20050050.405    82101617.207        -361.792          47.500    20050050.642    82101616.972        -361.792          52.750  
G28  23570908.342   123865966.925       -3437.351          42.250    23570908.153   123865966.191          31.250    23570907.685    96518935.104       -2678.434          31.250                                                                  
G23  21926347.108   115223739.515         519.678          49.500    21926346.244   115223740.787          39.750    21926343.711    89784732.672         404.959          39.750                                                                  
G24  24672222.753   129653390.424       -2752.470          41.750    24672221.365   129653395.636          25.000    24672223.925   101028619.419       -2144.820          25.000                                                                  
G12  24881128.204   130751215.512        1524.104          42.250    24881128.537   130751214.760          30.250    24881128.471   101884064.880        1187.624          30.250    24881128.165   101884064.645        1187.595          43.250  
G20  22131797.889   116303386.483       -3078.799          48.250    22131796.621   116303384.763          37.750    22131795.848    90626015.126       -2399.078          37.750                                                                  
R20  19281353.496   103106063.395         674.656          51.750    19281353.796   103106062.704          50.750    19281361.659    80193605.695         524.731          48.500    19281361.245    80193604.933         524.734          47.500  
R06  20683400.583   110370590.087        2581.989          53.000    20683400.856   110370589.381          52.500    20683404.984    85843790.427        2008.223          47.750    20683405.886    85843791.646        2008.210          46.000  
S29  40075008.670   210595578.698        -243.998          44.250  
S37  40103077.002   210743086.989        -243.817          42.750  
> 2011 01 15 02 27 34.0000000  0 19                     
G11  24467223.306   128576137.133       -3086.065          41.250    24467224.931   128576137.417          25.250    24467223.911   100189198.152       -2404.643          25.250                                                                  
G02  24354538.369   127983974.249        2375.620          46.250    24354537.634   127983975.521          30.750    24354537.230    99727773.999        1851.080          30.750                                                                  
R05  19225650.903   102772125.131       -1225.099          54.750    19225651.140   102772124.437          53.500    19225657.867    79933875.300        -952.858          48.500    19225657.714    79933875.541        -952.850          47.750  
R21  22130416.083   118424325.708        3489.799          49.500    22130416.469   118424333.006          49.000    22130422.594    92107813.210        2714.292          46.750    22130422.276    92107815.454        2714.295          45.250  
R19  21010227.290   112390544.532       -3006.426          52.500    21010226.088   112390544.843          51.750    21010230.294    87414867.255       -2338.321          47.250    21010231.694    87414868.495       -2338.324          46.000  
G10  22329072.002   117340066.545        2770.267          47.750    22329070.386   117340069.820          37.250    22329071.528    91433821.261        2158.667          37.250                                                                  
G13  22299321.984   117183736.562        2532.073          46.000    22299321.522   117183738.830          35.500    22299321.045    91312004.401        1972.984          35.500                                                                  
G04  21404969.089   112483871.061        1491.969          49.500    21404968.595   112483871.341          40.500    21404967.878    87649770.136        1162.554          40.500                                                                  
G32  25067016.155   131728072.916       -3632.297          38.750    25067016.817   131728072.160          21.500    25067017.702   102645250.740       -2830.354          21.500                                                                  
G17  20050140.906   105364204.747        -464.821          51.750    20050140.331   105364205.021          47.500    20050138.853    82101979.138        -362.201          47.500    20050139.030    82101978.901        -362.197          52.750  
G28  23571563.235   123869404.230       -3437.456          42.750    23571562.267   123869403.491          31.500    23571562.171    96521613.519       -2678.541          31.500                                                                  
G23  21926248.152   115223220.076         519.071          49.750    21926247.076   115223221.353          40.000    21926244.768    89784327.918         404.469          40.000                                                                  
G24  24672745.645   129656142.934       -2752.590          42.000    24672745.360   129656148.152          25.000    24672747.656   101030764.227       -2144.839          25.000                                                                  
G12  24880838.356   130749691.496        1523.558          43.250    24880838.455   130749690.755          30.250    24880838.821   101882877.340        1187.198          30.250    24880838.932   101882877.098        1187.204          43.500  
G20  22132383.147   116306465.320       -3079.005          48.250    22132382.290   116306463.594          37.250    22132381.432    90628414.221       -2399.215          37.250                                                                  
R20  19281227.397   103105388.972         674.028          51.750    19281227.796   103105388.277          50.750    19281234.679    80193081.142         524.240          48.500    19281235.012    80193080.381         524.247          48.000  
R06  20682916.907   110368008.263        2581.449          53.000    20682916.832   110368007.558          52.250    20682921.622    85841782.342        2007.798          48.000    20682921.961    85841783.560        2007.806          46.250  
S29  40075054.286   210595823.171        -244.124          44.500  
S37  40103121.774   210743330.755        -243.761          42.500  
> 2011 01 15 02 27 35.0000000  0 19                     
G11  24467811.079   128579223.129       -3086.011          41.250    24467811.828   128579223.391          25.250    24467810.974   100191602.870       -2404.962          25.250                                                                  
G02  24354086.306   127981598.699        2375.551          46.250    24354085.299   127981599.965          31.500    24354084.978    99725922.923        1851.075          31.500                                                                  
R05  19225880.490   102773350.656       -1225.922          54.500    19225880.214   102773349.964          53.500    19225886.914    79934828.489        -953.496          49.000    19225886.831    79934828.729        -953.519          48.000  
R21  22129764.580   118420836.065        3489.529          49.500    22129764.523   118420843.362          49.000    22129770.228    92105099.044        2714.074          47.250    22129770.270    92105101.288        2714.083          45.250  
R19  21010788.772   112393551.239       -3006.963          52.500    21010788.382   112393551.548          51.750    21010792.228    87417205.807       -2338.760          47.500    21010793.625    87417207.042       -2338.742          46.250  
G10  22328544.337   117337296.451        2769.896          47.250    22328544.086   117337299.731          36.750    22328543.936    91431662.751        2158.383          36.750                                                                  
G13  22298840.373   117181204.671        2531.723          45.750    22298839.234   117181206.928          35.750    22298839.300    91310031.486        1972.791          35.750                                                                  
G04  21404685.186   112482379.189        1491.805          49.250    21404684.478   112482379.462          40.500    21404683.582    87648607.637        1162.457          40.500                                                                  
G32  25067708.810   131731705.178       -3632.191          38.750    25067707.764   131731704.362          21.500    25067709.461   102648081.065       -2830.350          21.500                                                                  
G17  20050229.186   105364669.968        -465.528          51.500    20050228.850   105364670.243          47.500    20050227.375    82102341.647        -362.755          47.500    20050227.606    82102341.412        -362.768          52.750  
G28  23572217.236   123872841.739       -3437.559          42.500    23572216.621   123872841.016          31.500    23572216.276    96524292.103       -2678.707          31.500                                                                  
G23  21926149.311   115222701.359         518.472          49.500    21926148.705   115222702.638          40.250    21926146.580    89783923.725         403.981          40.250                                                                  
G24  24673270.887   129658895.593       -2752.660          42.000    24673270.042   129658900.791          25.000    24673271.265   101032909.159       -2144.924          25.000                                                                  
G12  24880550.489   130748168.105        1523.180          43.000    24880548.076   130748167.354          29.750    24880548.855   101881690.285        1186.905          29.750    24880549.056   101881690.043        1186.883          43.000  
G20  22132969.274   116309544.523       -3079.360          48.000    22132968.120   116309542.798          37.250    22132967.392    90630813.597       -2399.486          37.250                                                                  
R20  19281101.211   103104715.329         673.369          51.750    19281101.646   103104714.634          50.750    19281109.306    80192557.196         523.730          49.000    19281108.961    80192556.434         523.734          48.250  
R06  20682433.338   110365427.140        2580.853          53.000    20682433.329   110365426.436          52.250    20682438.132    85839774.801        2007.336          48.750    20682438.387    85839776.023        2007.324          46.500  
S29  40075100.514   210596067.208        -243.854          44.000  
S37  40103169.276   210743574.828        -244.230          42.750  
> 2011 01 15 02 27 36.0000000  0 19                     
G11  24468397.878   128582309.255       -3086.339          41.250    24468399.485   128582309.528          24.750    24468398.159   100194007.597       -2404.782          24.750                                                                  
G02  24353633.610   127979223.147        2375.461          46.250    24353633.337   127979224.411          30.750    24353632.840    99724071.842        1851.062          30.750                                                                  
R05  19226109.594   102774576.909       -1226.703          54.750    19226109.606   102774576.214          53.500    19226116.049    79935782.241        -954.104          48.500    19226116.406    79935782.480        -954.111          47.250  
R21  22129112.078   118417346.539        3489.382          49.500    22129112.090   118417353.836          49.000    22129118.503    92102384.970        2713.960          46.500    22129118.233    92102387.214        2713.954          44.750  
R19  21011351.329   112396558.473       -3007.558          52.500    21011350.508   112396558.782          51.750    21011354.180    87419544.765       -2339.216          46.750    21011356.054    87419546.002       -2339.227          45.750  
G10  22328017.002   117334526.704        2769.532          47.500    22328017.011   117334529.982          37.000    22328017.401    91429504.511        2158.068          37.000                                                                  
G13  22298358.670   117178673.141        2531.275          45.750    22298358.196   117178675.411          35.500    22298358.295    91308058.877        1972.394          35.500                                                                  
G04  21404400.956   112480887.535        1491.458          49.000    21404400.431   112480887.807          40.250    21404399.876    87647445.313        1162.176          40.250                                                                  
G32  25068399.037   131735337.457       -3632.319          39.000    25068398.405   131735336.665          21.500    25068400.623   102650911.429       -2830.388          21.500                                                                  
G17  20050317.757   105365135.774        -466.146          51.250    20050317.547   105365136.049          47.500    20050316.090    82102704.611        -363.227          47.500    20050316.108    82102704.374        -363.228          52.750  
G28  23572871.098   123876279.334       -3437.677          42.750    23572870.447   123876278.612          31.250    23572870.651    96526970.735       -2678.697          31.250                                                                  
G23  21926050.619   115222183.251         517.771          49.500    21926050.142   115222184.527          40.000    21926047.798    89783520.004         403.474          40.000                                                                  
G24  24673794.004   129661648.290       -2752.808          42.000    24673793.962   129661653.504          25.000    24673794.262   101035054.135       -2145.109          25.000                                                                  
G12  24880259.838   130746645.250        1522.551          43.000    24880258.192   130746644.499          30.000    24880258.902   101880503.648        1186.329          30.000    24880258.968   101880503.408        1186.374          43.250  
G20  22133555.090   116312623.934       -3079.570          48.250    22133554.097   116312622.210          38.000    22133553.384    90633213.135       -2399.654          38.000                                                                  
R20  19280975.116   103104042.334         672.624          51.500    19280975.946   103104041.640          51.000    19280983.018    80192033.756         523.141          48.250    19280983.033    80192032.994         523.154          47.750  
R06  20681949.800   110362846.597        2580.198          53.000    20681949.890   110362845.891          52.500    20681954.864    85837767.717        2006.811          48.000    20681955.211    85837768.932        2006.833          45.750  
S29  40075147.201   210596311.532        -244.481          44.000  
S37  40103216.718   210743818.809        -243.978          42.500  
> 2011 01 15 02 27 37.0000000  0 19                     
G11  24468986.475   128585395.286       -3086.242          41.500    24468986.361   128585395.541          24.750    24468984.808   100196412.312       -2405.022          24.750                                                                  
G02  24353182.366   127976847.435        2375.542          46.250    24353181.083   127976848.702          31.000    24353180.843    99722220.632        1851.154          31.000                                                                  
R05  19226339.367   102775803.719       -1227.280          54.750    19226339.061   102775803.024          53.250    19226345.993    79936736.427        -954.542          48.250    19226345.711    79936736.664        -954.539          47.000  
R21  22128461.043   118413856.985        3489.420          49.500    22128460.162   118413864.280          49.000    22128466.661    92099670.870        2714.002          46.250    22128466.341    92099673.112        2714.016          44.500  
R19  21011913.029   112399566.074       -3008.029          52.500    21011912.762   112399566.381          51.750    21011916.762    87421884.012       -2339.590          46.500    21011918.180    87421885.241       -2339.552          45.000  
G10  22327490.117   117331757.164        2769.249          47.250    22327489.916   117331760.442          37.500    22327490.120    91427346.428        2157.856          37.500                                                                  
G13  22297876.732   117176141.813        2531.062          46.000    22297876.432   117176144.077          35.750    22297876.169    91306086.414        1972.245          35.750                                                                  
G04  21404117.085   112479395.914        1491.382          49.000    21404117.037   112479396.186          41.000    21404116.213    87646283.012        1162.123          41.000                                                                  
G32  25069091.900   131738969.550       -3632.130          38.750    25069089.759   131738968.770          21.250    25069091.750   102653741.622       -2830.197          21.250                                                                  
G17  20050406.522   105365602.020        -466.665          51.250    20050406.202   105365602.292          47.500    20050404.913    82103067.919        -363.621          47.500    20050405.050    82103067.683        -363.628          52.750  
G28  23573524.583   123879716.856       -3437.640          43.000    23573524.651   123879716.128          31.500    23573524.550    96529649.321       -2678.678          31.500                                                                  
G23  21925952.134   115221665.584         517.256          49.250    21925951.307   115221666.861          40.250    21925949.157    89783116.628         403.063          40.250                                                                  
G24  24674317.370   129664400.859       -2752.732          41.750    24674317.885   129664406.068          24.250    24674318.614   101037198.977       -2145.047          24.250                                                                  
G12  24879970.025   130745122.758        1522.102          42.500    24879968.748   130745122.003          29.750    24879968.466   101879317.283        1186.102          29.750    24879968.865   101879317.048        1186.096          42.750  
G20  22134141.298   116315703.422       -3079.694          48.000    22134140.710   116315701.696          37.500    22134139.304    90635612.735       -2399.742          37.500                                                                  
R20  19280850.039   103103369.814         672.115          51.500    19280850.270   103103369.115          50.750    19280857.822    80191510.680         522.773          48.000    19280857.402    80191509.922         522.756          47.250  
R06  20681466.286   110360266.447        2579.793          53.000    20681466.328   110360265.739          52.500    20681471.403    85835760.927        2006.518          47.750    20681471.340    85835762.151        2006.504          45.500  
S29  40075194.001   210596555.859        -244.839          43.750  
S37  40103261.582   210744062.609        -244.148          42.500  
> 2011 01 15 02 27 38.0000000  0 19                     
G11  24469573.682   128588481.423       -3086.069          41.250    24469573.745   128588481.710          24.750    24469571.991   100198817.098       -2404.739          24.750                                                                  
G02  24352730.500   127974471.718        2375.848          46.000    24352729.502   127974472.983          30.750    24352728.282    99720369.445        1851.265          30.750                                                                  
R05  19226569.503   102777031.269       -1227.804          54.750    19226568.747   102777030.577          53.500    19226575.292    79937691.188        -954.970          48.250    19226575.451    79937691.429        -954.974          47.000  
R21  22127807.571   118410367.575        3489.529          49.500    22127808.041   118410374.871          49.000    22127814.448    92096956.886        2714.085          46.250    22127813.749    92096959.129        2714.078          44.750  
R19  21012475.506   112402574.211       -3008.277          52.500    21012475.158   112402574.520          51.750    21012478.786    87424223.671       -2339.776          46.500    21012480.494    87424224.906       -2339.772          45.000  
G10  22326963.877   117328987.967        2769.214          47.500    22326962.387   117328991.241          37.750    22326963.031    91425188.614        2157.846          37.750                                                                  
G13  22297395.110   117173610.872        2530.843          46.000    22297395.397   117173613.140          35.750    22297394.423    91304114.252        1972.059          35.750                                                                  
G04  21403833.625   112477904.516        1491.438          49.000    21403833.095   112477904.791          41.000    21403832.234    87645120.881        1162.160          41.000                                                                  
G32  25069781.782   131742601.678       -3632.065          38.750    25069781.162   131742600.897          21.250    25069782.951   102656571.859       -2830.125          21.250                                                                  
G17  20050495.060   105366068.872        -467.027          51.250    20050494.982   105366069.145          47.250    20050493.522    82103431.702        -363.921          47.250    20050493.699    82103431.464        -363.920          52.750  
G28  23574179.773   123883154.473       -3437.550          43.000    23574179.200   123883153.752          31.500    23574178.676    96532327.988       -2678.640          31.500                                                                  
G23  21925853.748   115221148.517         516.945          49.250    21925852.735   115221149.793          40.000    21925850.669    89782713.715         402.841          40.000                                                                  
G24  24674839.653   129667153.460       -2752.458          42.000    24674841.359   129667158.685          24.750    24674842.501   101039343.825       -2144.647          24.750                                                                  
G12  24879679.553   130743600.783        1521.773          43.000    24879679.451   130743600.055          30.500    24879678.789   101878131.325        1185.839          30.500    24879678.564   101878131.095        1185.809          43.000  
G20  22134727.104   116318783.144       -3079.673          48.250    22134726.424   116318781.422          37.250    22134725.291    90638012.517       -2399.715          37.250                                                                  
R20  19280724.423   103102697.940         671.734          51.500    19280724.495   103102697.244          50.750    19280732.290    80190988.112         522.448          48.000    19280731.645    80190987.354         522.443          47.750  
R06  20680982.247   110357686.869        2579.464          53.250    20680982.879   110357686.162          52.500    20680988.114    85833754.592        2006.251          47.750    20680987.943    85833755.814        2006.253          45.500  
S29  40075240.167   210596800.468        -244.109          44.000  
S37  40103306.985   210744306.389        -243.387          43.000  
> 2011 01 15 02 27 39.0000000  0 19                     
G11  24470160.837   128591567.908       -3086.206          41.750    24470160.687   128591568.176          24.750    24470159.407   100201222.148       -2405.038          24.750                                                                  
G02  24352278.908   127972096.236        2375.813          46.000    24352277.184   127972097.492          31.250    24352276.837    99718518.410        1851.268          31.250                                                                  
R05  19226798.889   102778259.766       -1228.477          54.750    19226798.604   102778259.072          53.500    19226805.068    79938646.686        -955.479          48.250    19226805.230    79938646.925        -955.488          47.000  
R21  22127155.765   118406878.549        3489.335          49.500    22127156.188   118406885.841          49.000    22127161.965    92094243.197        2713.928          46.500    22127161.839    92094245.439        2713.947          44.750  
R19  21013037.527   112405583.111       -3008.754          52.500    21013037.527   112405583.423          51.750    21013042.114    87426563.926       -2340.140          46.500    21013042.869    87426565.165       -2340.153          45.250  
G10  22326436.434   117326219.361        2768.878          47.500    22326435.822   117326222.636          37.500    22326435.972    91423031.264        2157.548          37.500                                                                  
G13  22296914.650   117171080.514        2530.574          46.000    22296913.928   117171082.780          35.500    22296912.585    91302142.544        1971.903          35.500                                                                  
G04  21403549.557   112476413.561        1491.264          49.000    21403549.026   112476413.835          41.000    21403548.313    87643959.105        1162.017          41.000                                                                  
G32  25070473.292   131746234.003       -3632.107          38.250    25070472.324   131746233.232          21.250    25070474.150   102659402.207       -2830.122          21.250                                                                  
G17  20050584.440   105366536.556        -467.602          51.000    20050584.086   105366536.828          47.500    20050582.606    82103796.125        -364.348          47.500    20050582.974    82103795.890        -364.357          52.750  
G28  23574833.306   123886592.396       -3437.623          43.000    23574833.021   123886591.670          31.000    23574833.159    96535006.874       -2678.643          31.000                                                                  
G23  21925755.989   115220632.289         516.304          49.000    21925754.877   115220633.562          40.000    21925752.832    89782311.464         402.316          40.000                                                                  
G24  24675364.706   129669906.330       -2752.497          41.750    24675364.533   129669911.560          24.750    24675367.279   101041488.928       -2144.591          24.750                                                                  
G12  24879389.207   130742079.558        1521.329          43.000    24879389.927   130742078.817          30.250    24879389.819   101876945.970        1185.460          30.250    24879389.945   101876945.726        1185.434          42.500  
G20  22135314.194   116321863.324       -3079.912          48.250    22135312.302   116321861.598          37.500    22135311.601    90640412.665       -2399.960          37.500                                                                  
R20  19280598.942   103102026.946         671.070          51.500    19280599.032   103102026.249          50.750    19280606.011    80190466.227         521.944          48.000    19280606.182    80190465.467         521.957          47.500  
R06  20680499.605   110355108.096        2578.880          53.250    20680499.407   110355107.386          52.250    20680504.195    85831748.881        2005.796          47.750    20680504.734    85831750.099        2005.795          45.750  
S29  40075286.484   210597044.893        -244.026          43.500  
S37  40103353.069   210744550.276        -243.455          43.250  
> 2011 01 15 02 27 40.0000000  0 19                     
G11  24470748.610   128594654.441       -3086.379          41.750    24470747.369   128594654.709          25.000    24470746.515   100203627.252       -2404.933          25.000                                                                  
G02  24351825.625   127969720.715        2375.657          45.750    24351825.019   127969721.980          31.000    24351824.663    99716667.357        1851.161          31.000                                                                  
R05  19227029.082   102779488.960       -1229.427          54.750    19227028.497   102779488.264          53.500    19227035.207    79939602.725        -956.221          48.500    19227035.009    79939602.960        -956.208          47.500  
R21  22126503.291   118403389.622        3489.028          49.500    22126504.034   118403396.916          49.250    22126510.815    92091529.588        2713.701          46.750    22126509.943    92091531.833        2713.694          45.000  
R19  21013600.423   112408592.537       -3009.590          52.250    21013600.264   112408592.846          52.000    21013604.485    87428904.589       -2340.790          46.750    21013605.574    87428905.824       -2340.769          45.250  
G10  22325910.184   117323451.103        2768.241          47.500    22325909.042   117323454.384          37.250    22325909.569    91420874.171        2157.112          37.250                                                                  
G13  22296432.773   117168550.510        2529.990          46.250    22296432.176   117168552.772          35.000    22296431.727    91300171.118        1971.433          35.000                                                                  
G04  21403266.007   112474922.798        1490.792          49.500    21403265.441   112474923.076          40.500    21403264.778    87642797.471        1161.618          40.500                                                                  
G32  25071162.581   131749866.258       -3632.065          38.000    25071163.148   131749865.508          20.500    25071165.696   102662232.597       -2830.157          20.500                                                                  
G17  20050673.389   105367004.817        -468.439          51.250    20050673.296   105367005.092          47.500    20050671.788    82104161.008        -365.017          47.500    20050671.956    82104160.771        -365.013          52.750  
G28  23575487.279   123890030.404       -3438.011          43.000    23575487.231   123890029.672          31.000    23575487.132    96537685.842       -2678.908          31.000                                                                  
G23  21925657.582   115220116.648         515.465          49.250    21925656.812   115220117.922          39.750    21925654.500    89781909.667         401.632          39.750                                                                  
G24  24675889.184   129672659.225       -2752.832          41.500    24675888.075   129672664.440          24.000    24675890.662   101043634.045       -2145.035          24.000                                                                  
G12  24879101.685   130740558.859        1520.479          42.750    24879100.711   130740558.114          29.500    24879100.273   101875760.992        1184.906          29.500    24879100.378   101875760.763        1184.782          42.250  
G20  22135899.889   116324943.711       -3080.405          48.500    22135898.226   116324941.992          37.000    22135897.788    90642812.961       -2400.311          37.000                                                                  
R20  19280473.149   103101356.564         670.177          51.500    19280473.668   103101355.867          50.750    19280480.332    80189944.815         521.254          48.250    19280480.710    80189944.060         521.244          48.000  
R06  20680017.005   110352529.866        2578.047          53.000    20680016.346   110352529.159          52.250    20680021.481    85829743.591        2005.150          48.000    20680021.559    85829744.814        2005.158          45.750  
S29  40075333.294   210597289.456        -244.534          43.500  
S37  40103400.640   210744794.071        -243.589          43.000  
> 2011 01 15 02 27 41.0000000  0 19                     
G11  24471335.550   128597740.859       -3086.385          41.500    24471335.058   128597741.113          25.000    24471333.835   100206032.241       -2404.918          25.000                                                                  
G02  24351373.814   127967344.960        2375.751          45.750    24351372.935   127967346.229          31.000    24351372.285    99714816.113        1851.301          31.000                                                                  
R05  19227258.972   102780718.611       -1229.972          54.750    19227258.504   102780717.920          53.500    19227265.180    79940559.121        -956.643          49.000    19227265.276    79940559.360        -956.651          47.750  
R21  22125852.459   118399900.605        3489.006          49.250    22125852.090   118399907.900          49.000    22125858.068    92088815.905        2713.692          47.000    22125857.915    92088818.153        2713.679          45.500  
R19  21014163.035   112411602.231       -3009.928          52.500    21014162.672   112411602.543          51.750    21014167.894    87431245.460       -2341.055          47.250    21014167.918    87431246.697       -2341.047          46.000  
G10  22325383.485   117320682.947        2768.031          47.750    22325381.932   117320686.225          37.500    22325382.846    91418717.172        2156.929          37.500                                                                  
G13  22295951.243   117166020.633        2529.825          45.750    22295950.506   117166022.906          35.500    22295949.768    91298199.782        1971.274          35.500                                                                  
G04  21402982.344   112473431.975        1490.794          49.250    21402981.513   112473432.249          40.750    21402981.228    87641635.785        1161.692          40.750                                                                  
G32  25071852.548   131753498.293       -3631.907          38.000    25071854.331   131753497.499          20.500    25071857.060   102665062.730       -2830.228          20.500                                                                  
G17  20050762.082   105367473.435        -468.854          51.250    20050762.385   105367473.707          47.500    20050760.955    82104526.162        -365.320          47.500    20050761.213    82104525.927        -365.336          52.750  
G28  23576141.294   123893468.239       -3437.924          43.250    23576140.883   123893467.501          31.000    23576141.129    96540364.677       -2678.919          31.000                                                                  
G23  21925559.196   115219601.366         515.003          49.000    21925558.537   115219602.641          40.500    21925556.405    89781508.147         401.307          40.500                                                                  
G24  24676413.075   129675411.894       -2752.550          41.500    24676412.061   129675417.113          24.000    24676414.016   101045778.993       -2144.734          24.000                                                                  
G12  24878811.831   130739038.411        1520.219          43.000    24878811.621   130739037.662          29.500    24878811.531   101874576.253        1184.466          29.500    24878811.420   101874575.996        1184.567          42.500  
G20  22136486.286   116328024.079       -3080.458          48.500    22136485.036   116328022.354          37.250    22136484.137    90645213.252       -2400.368          37.250                                                                  
R20  19280347.497   103100686.569         669.754          51.500    19280348.388   103100685.872          50.750    19280355.720    80189423.708         520.930          49.000    19280355.346    80189422.951         520.929          48.500  
R06  20679532.996   110349951.967        2577.653          53.250    20679533.308   110349951.261          52.250    20679538.569    85827738.562        2004.853          48.500    20679538.455    85827739.782        2004.847          46.500  
S29  40075379.924   210597533.879        -244.373          43.500  
S37  40103445.426   210745037.411        -243.116          43.250  
> 2011 01 15 02 27 42.0000000  0 19                     
G11  24471923.485   128600827.491       -3087.025          41.000    24471921.944   128600827.744          24.500    24471920.862   100208437.429       -2405.698          24.500                                                                  
G02  24350921.502   127964969.301        2375.485          46.000    24350919.979   127964970.560          31.000    24350920.309    99712964.969        1851.046          31.000                                                                  
R05  19227489.062   102781949.102       -1231.101          55.000    19227488.736   102781948.408          53.500    19227494.956    79941516.171        -957.526          49.500    19227495.514    79941516.408        -957.525          48.250  
R21  22125200.033   118396411.845        3488.478          49.250    22125200.303   118396419.140          49.000    22125206.445    92086102.429        2713.250          47.500    22125206.298    92086104.673        2713.242          45.750  
R19  21014725.592   112414612.573       -3010.841          52.500    21014725.397   112414612.888          51.750    21014729.951    87433586.841       -2341.765          47.250    21014730.869    87433588.077       -2341.779          46.500  
G10  22324856.815   117317915.257        2767.323          47.750    22324855.001   117317918.530          36.750    22324856.195    91416560.539        2156.311          36.750                                                                  
G13  22295470.046   117163491.268        2528.858          46.000    22295469.123   117163493.543          35.000    22295468.236    91296228.851        1970.539          35.000                                                                  
G04  21402698.005   112471941.465        1490.204          49.250    21402698.077   112471941.740          40.750    21402697.478    87640474.357        1161.182          40.750                                                                  
G32  25072545.071   131757130.477       -3632.529          38.250    25072545.452   131757129.686          20.500    25072548.735   102667893.005       -2830.530          20.500                                                                  
G17  20050851.660   105367942.781        -469.874          51.250    20050851.747   105367943.053          47.500    20050850.218    82104891.886        -366.123          47.500    20050850.656    82104891.651        -366.132          52.750  
G28  23576796.101   123896906.280       -3438.441          43.000    23576795.549   123896905.539          31.750    23576795.558    96543043.670       -2679.312          31.750                                                                  
G23  21925461.458   115219086.789         514.110          49.000    21925461.143   115219088.061          39.750    21925458.418    89781107.178         400.620          39.750                                                                  
G24  24676936.725   129678164.745       -2753.112          41.500    24676936.491   129678169.943          24.250    24676937.810   101047924.049       -2145.223          24.250                                                                  
G12  24878522.432   130737518.606        1519.387          43.500    24878521.782   130737517.862          29.750    24878521.989   101873391.984        1183.936          29.750    24878521.986   101873391.738        1183.926          42.500  
G20  22137072.156   116331104.791       -3081.017          48.500    22137071.101   116331103.062          37.250    22137070.456    90647613.807       -2400.792          37.250                                                                  
R20  19280223.521   103100017.353         668.673          51.500    19280223.254   103100016.658          50.750    19280230.326    80188903.208         520.082          49.250    19280230.488    80188902.452         520.086          48.750  
R06  20679050.408   110347374.776        2576.674          53.000    20679050.258   110347374.070          52.250    20679055.130    85825734.083        2004.064          48.750    20679055.442    85825735.302        2004.085          46.500  
S29  40075425.648   210597778.455        -244.840          43.250  
S37  40103492.917   210745280.779        -243.577          43.000  
> 2011 01 15 02 27 43.0000000  0 19                     
G11  24472510.613   128603914.427       -3086.638          41.500    24472509.669   128603914.694          24.500    24472508.743   100210842.832       -2405.296          24.500                                                                  
G02  24350470.227   127962593.901        2375.715          46.000    24350468.075   127962595.154          30.750    24350467.988    99711113.996        1851.242          30.750                                                                  
R05  19227719.588   102783180.559       -1231.583          55.000    19227719.048   102783179.866          53.750    19227725.296    79942473.970        -957.895          49.500    19227725.739    79942474.208        -957.903          48.000  
R21  22124548.479   118392923.481        3488.563          49.250    22124548.173   118392930.774          49.250    22124554.948    92083389.258        2713.335          47.750    22124554.241    92083391.502        2713.323          46.000  
R19  21015288.432   112417623.717       -3011.161          52.500    21015288.303   112417624.030          51.750    21015293.615    87435928.839       -2342.010          47.500    21015293.675    87435930.076       -2342.016          46.250  
G10  22324329.900   117315148.179        2767.178          47.500    22324328.494   117315151.460          37.000    22324329.699    91414404.367        2156.256          37.000                                                                  
G13  22294988.247   117160962.484        2528.881          46.000    22294988.478   117160964.745          35.250    22294987.153    91294258.366        1970.549          35.250                                                                  
G04  21402414.872   112470451.416        1490.170          49.250    21402414.495   112470451.695          40.750    21402414.198    87639313.279        1161.177          40.750                                                                  
G32  25073236.378   131760762.848       -3632.218          38.250    25073237.115   131760762.073          20.250    25073239.573   102670723.391       -2830.223          20.250                                                                  
G17  20050941.331   105368412.967        -470.221          51.500    20050941.292   105368413.242          47.250    20050939.697    82105258.269        -366.411          47.250    20050940.162    82105258.031        -366.409          52.750  
G28  23577450.395   123900344.634       -3438.110          43.250    23577449.789   123900343.903          30.750    23577449.852    96545722.901       -2679.085          30.750                                                                  
G23  21925364.031   115218573.087         513.659          48.750    21925363.204   115218574.360          40.500    21925360.626    89780706.895         400.245          40.500                                                                  
G24  24677459.338   129680917.852       -2752.816          41.000    24677460.082   129680923.063          24.250    24677461.602   101050069.331       -2145.044          24.250                                                                  
G12  24878233.939   130735999.603        1518.924          43.250    24878233.109   130735998.851          30.000    24878233.250   101872208.345        1183.592          30.000    24878232.587   101872208.101        1183.572          42.750  
G20  22137658.472   116334185.982       -3081.059          48.750    22137657.087   116334184.261          37.250    22137656.979    90650014.737       -2400.869          37.250                                                                  
R20  19280098.001   103099349.031         668.281          51.500    19280098.064   103099348.337          50.750    19280104.983    80188383.405         519.763          49.250    19280105.349    80188382.646         519.766          48.750  
R06  20678567.676   110344798.421        2576.304          53.000    20678567.521   110344797.716          52.250    20678572.704    85823730.252        2003.796          48.750    20678572.509    85823731.475        2003.776          46.500  
S29  40075472.614   210598023.028        -244.281          43.250  
S37  40103539.822   210745524.468        -243.535          43.250  
> 2011 01 15 02 27 44.0000000  0 19                     
G11  24473098.033   128607001.535       -3087.050          41.250    24473097.547   128607001.806          24.750    24473096.324   100213248.345       -2405.545          24.750                                                                  
G02  24350017.828   127960218.542        2375.406          45.500    24350016.144   127960219.812          31.000    24350015.877    99709263.091        1850.885          31.000                                                                  
R05  19227949.873   102784412.778       -1232.553          54.750    19227949.576   102784412.085          53.500    19227956.307    79943432.364        -958.652          49.250    19227956.166    79943432.602        -958.658          48.000  
R21  22123896.355   118389435.287        3488.194          49.500    22123896.313   118389442.584          49.000    22123903.457    92080676.218        2713.048          47.750    22123902.165    92080678.463        2713.039          46.250  
R19  21015852.347   112420635.448       -3011.964          52.500    21015851.385   112420635.759          51.750    21015855.885    87438271.295       -2342.635          47.500    21015856.826    87438272.531       -2342.627          46.250  
G10  22323803.755   117312381.497        2766.537          47.500    22323802.004   117312384.778          37.250    22323803.231    91412248.509        2155.771          37.250                                                                  
G13  22294506.558   117158434.125        2528.198          46.000    22294506.735   117158436.399          35.750    22294506.070    91292288.221        1970.023          35.750                                                                  
G04  21402131.179   112468961.610        1489.759          49.250    21402131.077   112468961.887          40.500    21402130.474    87638152.390        1160.851          40.500                                                                  
G32  25073924.545   131764395.285       -3632.715          37.250    25073928.389   131764394.514          20.250    25073930.910   102673553.870       -2830.693          20.250                                                                  
G17  20051031.230   105368883.802        -471.094          51.750    20051030.849   105368884.077          47.500    20051029.290    82105625.153        -367.083          47.500    20051029.563    82105624.915        -367.079          52.750  
G28  23578105.243   123903783.121       -3438.415          43.250    23578103.960   123903782.388          32.250    23578104.302    96548402.235       -2679.282          32.250                                                                  
G23  21925266.458   115218060.021         512.799          49.000    21925265.208   115218061.293          40.000    21925262.809    89780307.097         399.602          40.000                                                                  
G24  24677984.428   129683671.052       -2753.200          40.750    24677983.975   129683676.264          23.500    24677985.585   101052214.676       -2145.226          23.500                                                                  
G12  24877944.681   130734481.119        1518.265          43.500    24877943.737   130734480.377          30.000    24877944.408   101871025.111        1183.030          30.000    24877944.546   101871024.865        1183.100          43.250  
G20  22138245.061   116337267.431       -3081.495          48.500    22138243.697   116337265.708          37.250    22138243.166    90652415.860       -2401.153          37.250                                                                  
R20  19279972.978   103098681.400         667.370          51.500    19279973.320   103098680.701          50.750    19279980.728    80187864.131         519.076          49.250    19279980.581    80187863.376         519.064          48.750  
R06  20678084.834   110342222.693        2575.475          53.250    20678084.825   110342221.985          52.250    20678090.230    85821726.908        2003.146          49.000    20678089.966    85821728.129        2003.150          46.500  
S29  40075517.738   210598267.566        -244.619          43.000  
S37  40103585.328   210745768.552        -244.378          43.500  
> 2011 01 15 02 27 45.0000000  0 19                     
G11  24473685.692   128610088.676       -3087.236          41.500    24473684.835   128610088.968          24.750    24473684.130   100215653.891       -2405.500          24.750                                                                  
G02  24349566.134   127957843.107        2375.374          45.750    24349564.431   127957844.382          30.500    24349564.557    99707412.094        1850.897          30.500                                                                  
R05  19228180.408   102785645.643       -1233.284          55.000    19228180.219   102785644.949          53.750    19228187.150    79944391.261        -959.222          47.500    19228186.907    79944391.497        -959.219          46.000  
R21  22123244.573   118385947.163        3488.011          49.500    22123244.561   118385954.457          49.000    22123249.847    92077963.235        2712.901          46.250    22123250.497    92077965.481        2712.893          44.500  
R19  21016415.190   112423647.651       -3012.556          52.500    21016414.521   112423647.963          51.750    21016419.405    87440614.117       -2343.076          46.000    21016419.683    87440615.357       -2343.103          44.500  
G10  22323276.720   117309615.098        2766.175          47.750    22323275.737   117309618.378          37.250    22323277.101    91410092.880        2155.457          37.250                                                                  
G13  22294025.646   117155906.081        2527.764          46.250    22294025.700   117155908.345          35.500    22294025.442    91290318.324        1969.674          35.500                                                                  
G04  21401847.896   112467471.963        1489.553          49.000    21401847.326   112467472.234          40.750    21401847.036    87636991.626        1160.711          40.750                                                                  
G32  25074616.178   131768027.594       -3632.310          38.000    25074619.539   131768026.825          20.250    25074621.683   102676384.243       -2830.358          20.250                                                                  
G17  20051120.760   105369355.183        -471.789          51.750    20051120.466   105369355.455          47.500    20051119.099    82105992.459        -367.606          47.500    20051119.342    82105992.223        -367.617          52.750  
G28  23578759.037   123907221.634       -3438.488          43.250    23578758.782   123907220.908          31.250    23578758.881    96551081.595       -2679.368          31.250                                                                  
G23  21925168.923   115217547.494         512.134          49.000    21925167.766   115217548.769          40.250    21925165.269    89779907.728         399.088          40.250                                                                  
G24  24678508.786   129686424.214       -2753.254          41.000    24678507.233   129686429.428          23.500    24678509.484   101054360.001       -2145.279          23.500                                                                  
G12  24877654.398   130732963.131        1517.504          43.750    24877655.346   130732962.389          30.250    24877655.777   101869842.255        1182.485          30.250    24877656.425   101869842.025        1182.449          43.500  
G20  22138831.332   116340349.058       -3081.844          48.750    22138829.545   116340347.328          37.750    22138829.779    90654817.128       -2401.439          37.750                                                                  
R20  19279848.028   103098014.347         666.659          51.500    19279848.747   103098013.650          50.750    19279854.938    80187345.313         518.526          47.250    19279855.553    80187344.556         518.527          47.000  
R06  20677602.123   110339647.485        2574.811          53.250    20677602.135   110339646.779          52.250    20677606.872    85819723.973        2002.635          46.750    20677607.321    85819725.191        2002.635          44.750  
S29  40075562.995   210598512.178        -244.529          43.250  
S37  40103633.019   210746012.468        -243.805          43.250  
> 2011 01 15 02 27 46.0000000  0 19                     
G11  24474273.174   128613175.859       -3087.218          41.500    24474272.317   128613176.124          24.750    24474271.175   100218059.500       -2405.685          24.750                                                                  
G02  24349113.615   127955467.631        2375.493          45.750    24349112.356   127955468.901          30.250    24349112.455    99705561.066        1851.068          30.250                                                                  
R05  19228411.287   102786879.176       -1233.864          55.000    19228410.990   102786878.484          53.500    19228417.903    79945350.674        -959.666          48.250    19228417.723    79945350.913        -959.678          47.250  
R21  22122594.306   118382459.120        3488.053          49.500    22122592.885   118382466.414          49.250    22122599.213    92075250.317        2712.931          46.750    22122598.868    92075252.561        2712.916          45.000  
R19  21016977.996   112426660.333       -3012.927          52.500    21016977.609   112426660.644          51.750    21016982.784    87442957.313       -2343.385          46.500    21016983.071    87442958.551       -2343.388          45.000  
G10  22322750.989   117306849.010        2765.950          47.500    22322749.322   117306852.290          37.250    22322751.211    91407937.486        2155.273          37.250                                                                  
G13  22293545.343   117153378.345        2527.578          46.750    22293544.818   117153380.612          35.250    22293544.314    91288348.662        1969.488          35.250                                                                  
G04  21401564.047   112465982.473        1489.458          49.000    21401563.873   112465982.751          40.750    21401564.067    87635830.984        1160.618          40.750                                                                  
G32  25075307.962   131771659.884       -3632.228          38.750    25075310.612   131771659.094          20.250    25075312.599   102679214.610       -2830.241          20.250                                                                  
G17  20051210.770   105369827.102        -472.199          51.750    20051210.158   105369827.380          47.500    20051208.785    82106360.191        -367.953          47.500    20051209.178    82106359.953        -367.952          53.000  
G28  23579414.353   123910660.207       -3438.542          43.000    23579412.704   123910659.469          31.500    23579413.283    96553760.990       -2679.344          31.500                                                                  
G23  21925071.740   115217035.516         511.710          49.000    21925070.274   115217036.787          40.250    21925067.899    89779508.785         398.753          40.250                                                                  
G24  24679032.763   129689177.362       -2753.110          41.250    24679031.405   129689182.584          23.750    24679033.654   101056505.304       -2145.265          23.750                                                                  
G12  24877365.599   130731445.572        1517.361          43.250    24877367.104   130731444.840          30.250    24877366.564   101868659.755        1182.343          30.250    24877367.206   101868659.511        1182.373          43.250  
G20  22139417.897   116343430.860       -3081.958          48.500    22139416.599   116343429.133          37.250    22139415.810    90657218.523       -2401.498          37.250                                                                  
R20  19279723.551   103097347.894         666.183          51.500    19279724.151   103097347.197          51.000    19279731.559    80186826.960         518.154          48.250    19279731.100    80186826.205         518.142          47.750  
R06  20677119.934   110337072.802        2574.448          53.250    20677119.511   110337072.095          52.250    20677124.308    85817721.443        2002.342          47.750    20677124.631    85817722.662        2002.351          45.500  
S29  40075610.647   210598756.783        -244.196          43.000  
S37  40103678.230   210746256.337        -243.747          43.250  
> 2011 01 15 02 27 47.0000000  0 19                     
G11  24474860.468   128616263.153       -3087.260          42.000    24474860.252   128616263.408          24.500    24474858.909   100220465.219       -2405.817          24.500                                                                  
G02  24348661.247   127953092.182        2375.343          45.750    24348660.077   127953093.449          30.500    24348660.467    99703710.085        1850.911          30.500                                                                  
R05  19228641.617   102788113.475       -1234.819          55.000    19228641.992   102788112.783          53.500    19228648.519    79946310.683        -960.404          49.250    19228648.636    79946310.925        -960.431          48.000  
R21  22121941.460   118378971.263        3487.655          49.500    22121941.367   118378978.558          49.000    22121947.524    92072537.542        2712.638          47.750    22121947.081    92072539.781        2712.645          46.000  
R19  21017540.877   112429673.574       -3013.653          52.500    21017541.096   112429673.888          51.750    21017546.489    87445300.945       -2343.964          47.750    21017546.312    87445302.184       -2343.959          45.750  
G10  22322224.272   117304083.317        2765.367          47.500    22322223.091   117304086.594          37.500    22322224.344    91405782.398        2154.846          37.500                                                                  
G13  22293063.876   117150851.025        2527.069          45.750    22293064.242   117150853.286          35.000    22293062.872    91286379.312        1969.155          35.000                                                                  
G04  21401281.024   112464493.251        1488.993          48.750    21401280.659   112464493.526          40.250    21401280.368    87634670.551        1160.264          40.250                                                                  
G32  25075999.319   131775292.181       -3632.345          39.000    25076001.957   131775291.365          20.250    25076003.891   102682044.958       -2830.344          20.250                                                                  
G17  20051300.605   105370299.668        -473.010          51.500    20051300.300   105370299.945          47.500    20051298.591    82106728.423        -368.587          47.500    20051299.056    82106728.185        -368.588          52.750  
G28  23580068.671   123914098.889       -3438.861          43.500    23580067.163   123914098.160          31.500    23580067.412    96556440.479       -2679.610          31.500                                                                  
G23  21924974.064   115216524.182         510.909          49.250    21924973.441   115216525.451          40.000    21924970.773    89779110.344         398.090          40.000                                                                  
G24  24679556.312   129691930.592       -2753.378          41.500    24679555.415   129691935.826          23.750    24679557.445   101058650.663       -2145.373          23.750                                                                  
G12  24877078.098   130729928.603        1516.611          43.000    24877078.278   130729927.856          29.750    24877078.017   101867477.690        1181.817          29.750    24877079.639   101867477.459        1181.775          43.000  
G20  22140004.513   116346512.925       -3082.417          48.750    22140002.939   116346511.200          37.500    22140002.228    90659620.143       -2401.852          37.500                                                                  
R20  19279599.296   103096682.139         665.300          51.500    19279599.629   103096681.445          50.750    19279607.085    80186309.153         517.459          49.250    19279606.470    80186308.395         517.460          48.750  
R06  20676637.169   110334498.745        2573.614          53.000    20676637.205   110334498.037          52.500    20676642.184    85815719.399        2001.709          48.500    20676642.445    85815720.618        2001.700          46.250  
S29  40075658.041   210599001.198        -244.668          43.000  
S37  40103724.009   210746500.458        -244.225          43.500  
> 2011 01 15 02 27 48.0000000  0 19                     
G11  24475448.771   128619350.549       -3087.451          41.250    24475447.203   128619350.771          24.500    24475446.091   100222870.968       -2405.942          24.500                                                                  
G02  24348209.231   127950716.674        2375.581          45.500    24348207.628   127950717.938          30.000    24348208.428    99701859.034        1851.108          30.000                                                                  
R05  19228873.036   102789348.426       -1235.245          54.750    19228872.925   102789347.731          53.500    19228879.623    79947271.200        -960.750          49.250    19228879.665    79947271.439        -960.744          48.000  
R21  22121289.216   118375483.473        3487.785          49.500    22121289.417   118375490.773          49.000    22121294.708    92069824.817        2712.728          47.750    22121295.269    92069827.059        2712.728          46.000  
R19  21018104.367   112432687.290       -3013.931          52.500    21018104.463   112432687.603          51.750    21018110.399    87447644.942       -2344.166          47.750    21018109.224    87447646.182       -2344.167          46.250  
G10  22321697.959   117301317.915        2765.262          47.500    22321696.688   117301321.192          37.000    22321698.136    91403627.540        2154.766          37.000                                                                  
G13  22292583.273   117148324.035        2526.777          46.500    22292583.255   117148326.301          35.500    22292582.047    91284410.223        1968.933          35.500                                                                  
G04  21400997.565   112463004.152        1489.053          48.750    21400997.145   112463004.432          40.500    21400996.935    87633510.215        1160.315          40.500                                                                  
G32  25076692.319   131778924.436       -3632.129          38.500    25076693.431   131778923.657          20.000    25076695.557   102684875.274       -2830.044          20.000                                                                  
G17  20051390.759   105370772.768        -473.355          51.750    20051390.309   105370773.044          47.500    20051388.738    82107097.071        -368.838          47.500    20051389.059    82107096.836        -368.841          52.750  
G28  23580723.394   123917537.600       -3438.685          43.500    23580721.766   123917536.862          31.500    23580721.787    96559120.007       -2679.537          31.500                                                                  
G23  21924877.000   115216013.396         510.551          49.000    21924876.233   115216014.667          40.250    21924873.616    89778712.326         397.841          40.250                                                                  
G24  24680080.169   129694683.784       -2753.110          41.500    24680080.220   129694689.016          24.250    24680081.341   101060796.044       -2145.360          24.250                                                                  
G12  24876789.350   130728412.104        1516.208          43.000    24876789.137   130728411.366          29.750    24876789.539   101866296.011        1181.468          29.750    24876789.593   101866295.772        1181.461          43.250  
G20  22140590.793   116349595.146       -3082.306          48.250    22140589.756   116349593.422          37.000    22140589.498    90662021.868       -2401.787          37.000                                                                  
R20  19279474.582   103096016.993         664.856          51.750    19279475.305   103096016.296          51.000    19279482.776    80185791.813         517.111          49.500    19279482.260    80185791.054         517.123          49.000  
R06  20676154.905   110331925.191        2573.305          53.000    20676155.037   110331924.484          52.250    20676159.980    85813717.748        2001.478          49.000    20676160.415    85813718.967        2001.467          46.500  
S29  40075704.224   210599245.879        -244.676          42.500  
S37  40103769.763   210746744.414        -243.647          43.000  
> 2011 01 15 02 27 49.0000000  0 19                     
G11  24476035.975   128622438.002       -3087.193          41.750    24476034.170   128622438.254          24.500    24476034.110   100225276.768       -2405.697          24.500                                                                  
G02  24347756.953   127948341.205        2375.620          45.750    24347756.014   127948342.473          30.500    24347756.341    99700008.028        1851.109          30.500                                                                  
R05  19229104.320   102790584.142       -1235.910          54.750    19229104.272   102790583.448          53.750    19229110.652    79948232.312        -961.274          49.000    19229110.556    79948232.550        -961.268          48.000  
R21  22120638.229   118371995.868        3487.742          49.750    22120637.710   118372003.168          49.250    22120643.022    92067112.237        2712.691          47.500    22120643.511    92067114.477        2712.693          45.750  
R19  21018668.307   112435701.577       -3014.374          52.500    21018667.830   112435701.890          51.500    21018674.512    87449989.389       -2344.531          47.500    21018673.094    87449990.631       -2344.531          46.000  
G10  22321172.597   117298552.921        2764.935          47.500    22321170.963   117298556.196          37.750    22321171.850    91401472.999        2154.508          37.750                                                                  
G13  22292102.241   117145797.447        2526.479          46.750    22292101.971   117145799.701          35.500    22292101.716    91282441.447        1968.745          35.500                                                                  
G04  21400714.144   112461515.315        1488.851          48.750    21400713.964   112461515.588          40.500    21400713.715    87632350.083        1160.143          40.500                                                                  
G32  25077382.954   131782556.737       -3632.305          38.500    25077384.741   131782555.951          20.000    25077386.186   102687705.689       -2830.594          20.000                                                                  
G17  20051480.619   105371246.506        -473.894          52.000    20051480.244   105371246.785          47.500    20051478.832    82107466.221        -369.271          47.500    20051479.150    82107465.984        -369.276          52.750  
G28  23581377.178   123920976.424       -3438.677          43.250    23581376.045   123920975.691          31.250    23581376.201    96561799.601       -2679.511          31.250                                                                  
G23  21924779.805   115215503.242         510.135          49.000    21924779.244   115215504.511          40.500    21924776.570    89778314.807         397.491          40.500                                                                  
G24  24680602.575   129697437.052       -2753.027          41.750    24680603.891   129697442.252          24.000    24680606.359   101062941.418       -2145.210          24.000                                                                  
G12  24876500.929   130726896.140        1515.903          42.500    24876500.461   130726895.402          29.750    24876500.809   101865114.742        1181.191          29.750    24876501.624   101865114.501        1181.237          42.500  
G20  22141177.691   116352677.651       -3082.480          48.500    22141175.859   116352675.927          37.500    22141175.355    90664423.822       -2401.930          37.500                                                                  
R20  19279351.371   103095352.545         664.288          51.750    19279350.747   103095351.849          51.000    19279358.272    80185275.023         516.662          49.250    19279358.029    80185274.262         516.675          48.500  
R06  20675672.332   110329352.246        2572.828          53.000    20675672.946   110329351.541          52.250    20675677.797    85811716.569        2001.089          48.500    20675678.124    85811717.787        2001.086          46.250  
S29  40075751.870   210599490.476        -244.260          42.750  
S37  40103815.403   210746988.492        -244.208          43.000  
> 2011 01 15 02 27 50.0000000  0 19                     
G11  24476622.948   128625525.622       -3087.687          42.000    24476622.384   128625525.895          24.500    24476622.093   100227682.727       -2406.086          24.500                                                                  
G02  24347305.438   127945965.752        2375.360          45.250    24347304.170   127945967.009          30.250    24347304.230    99698157.005        1850.905          30.250                                                                  
R05  19229335.700   102791820.622       -1237.046          55.000    19229335.511   102791819.927          53.750    19229341.786    79949194.018        -962.157          48.000    19229342.076    79949194.256        -962.140          46.750  
R21  22119986.168   118368508.441        3487.184          50.000    22119986.150   118368515.741          49.250    22119992.113    92064399.791        2712.245          46.500    22119991.729    92064402.036        2712.250          44.750  
R19  21019231.623   112438716.433       -3015.299          52.500    21019231.530   112438716.744          51.500    21019237.682    87452334.275       -2345.229          46.500    21019236.719    87452335.512       -2345.218          44.750  
G10  22320645.718   117295788.288        2764.287          47.750    22320644.860   117295791.565          37.500    22320645.807    91399318.741        2154.002          37.500                                                                  
G13  22291621.742   117143271.217        2525.833          46.750    22291621.515   117143273.494          34.750    22291621.053    91280472.972        1968.174          34.750                                                                  
G04  21400430.900   112460026.683        1488.331          48.750    21400430.873   112460026.957          40.750    21400430.339    87631190.107        1159.743          40.750                                                                  
G32  25078076.554   131786188.996       -3632.354          38.500    25078075.714   131786188.228          20.500    25078076.983   102690535.998       -2830.423          20.500                                                                  
G17  20051570.970   105371720.882        -474.811          52.000    20051570.608   105371721.154          47.500    20051569.070    82107835.858        -369.976          47.500    20051569.453    82107835.620        -369.981          52.750  
G28  23582031.727   123924415.384       -3439.234          43.500    23582030.501   123924414.657          31.250    23582030.711    96564479.304       -2679.942          31.250                                                                  
G23  21924682.753   115214993.743         509.122          48.750    21924682.309   115214995.015          40.250    21924679.416    89777917.800         396.715          40.250                                                                  
G24  24681127.506   129700190.410       -2753.572          42.000    24681127.524   129700195.648          23.250    24681130.390   101065086.902       -2145.478          23.250                                                                  
G12  24876212.582   130725380.755        1514.926          42.750    24876211.812   130725380.010          29.750    24876213.194   101863933.918        1180.497          29.750    24876212.930   101863933.685        1180.480          42.750  
G20  22141763.890   116355760.408       -3083.088          48.500    22141762.730   116355758.687          37.750    22141762.277    90666825.974       -2402.429          37.750                                                                  
R20  19279225.632   103094688.789         663.257          51.750    19279226.777   103094688.095          51.000    19279233.726    80184758.769         515.863          47.750    19279233.906    80184758.012         515.864          47.250  
R06  20675190.314   110326779.896        2571.950          53.000    20675190.802   110326779.190          52.500    20675195.749    85809715.855        2000.394          47.500    20675196.112    85809717.071        2000.411          45.000  
S29  40075799.196   210599735.041        -244.603          42.500  
S37  40103862.507   210747232.536        -244.076          42.750  
