     3.00           OBSERVATION DATA    M: Mixed            RINEX VERSION / TYPE
CONVBIN demo5 b34f.1                    20220527 015938 UTC PGM / RUN BY / DATE 
log: /home/igor/git/flutter_rtklib/test/data/rcvraw/oemv_200COMMENT             
format: NovAtel OEM7                                        COMMENT             
format: NovAtel OEM7                                        COMMENT             
log: /home/igor/git/flutter_rtklib/test/data/rcvraw/oemv_200COMMENT             
                                                            MARKER NAME         
                                                            MARKER NUMBER       
                                                            MARKER TYPE         
                                                            OBSERVER / AGENCY   
                                                            REC # / TYPE / VERS 
                                                            ANT # / TYPE        
 -3869293.4777  3436568.2779  3717368.7232                  APPROX POSITION XYZ 
        0.0000        0.0000        0.0000                  ANTENNA: DELTA H/E/N
G    8 C1C L1C D1C S1C C2W L2W D2W S2W                      SYS / # / OBS TYPES 
R    8 C1C L1C D1C S1C C2P L2P D2P S2P                      SYS / # / OBS TYPES 
S    4 C1C L1C D1C S1C                                      SYS / # / OBS TYPES 
  2009    12    18    23    07   00.0000000     GPS         TIME OF FIRST OBS   
  2009    12    18    23    07   45.0000000     GPS         TIME OF LAST OBS    
                                                            END OF HEADER       
> 2009 12 18 23 07 00.0000000  0 16                     
G03  20213930.641   106224932.5121      -1140.227          51.000    20213929.547    82772666.9651       -888.492          45.000  
G22  24674143.680   129663505.1171       1511.258          43.000    24674141.344   101036496.5621       1177.598          36.000  
G13  24389990.742   128170248.4531      -2390.738          43.000    24389990.109    99872919.4101      -1862.918          35.000  
G06  21118916.336   110980659.8521      -1613.992          50.000    21118915.977    86478431.9411      -1257.660          43.000  
G07  21872690.922   114941763.4101       1834.066          50.000    21872689.125    89565004.4491       1429.145          43.000  
G19  20421761.297   107317079.0041        183.016          51.000    20421757.836    83623678.4921        142.609          47.000  
G11  23656736.570   124316992.9881       3696.750          47.000    23656735.164    96870386.4491       2880.586          34.000  
G16  22489005.375   118180510.3751      -2088.770          48.000    22489004.117    92088695.8161      -1627.617          40.000  
G08  24725782.039   129934871.3791       3594.996          41.000    24725781.547   101247930.6171       2801.289          36.000  
S29  37175537.062   197915775.8361          5.531          45.000  
S37  37214033.391   198118096.3321          3.500          43.000  
R14  19271851.070   102729811.3671       -824.980          49.000    19271859.297    79901064.6021       -641.656          46.000  
R17  21115655.148   112994130.3751       1840.875          46.000    21115656.398    87884325.2231       1431.789          43.000  
R13  21815848.070   116495399.6411      -4050.910          45.000    21815854.477    90607631.8631      -3150.711          43.000  
R23  22657649.695   121203139.4801      -3247.988          37.000    22657652.930    94269204.0121      -2526.219          33.000  
R15  21365653.828   114171577.1721       3213.070          45.000    21365659.266    88800142.2461       2499.055          42.000  
> 2009 12 18 23 07 01.0000000  0 16                     
G03  20214147.664   106226073.008       -1140.570          51.000    20214146.586    82773555.664        -888.762          44.000  
G22  24673856.156   129661994.250        1510.793          42.000    24673853.828   101035319.270        1177.242          36.000  
G13  24390445.688   128172639.238       -2390.852          43.000    24390444.969    99874782.367       -1863.000          34.000  
G06  21119223.508   110982274.062       -1614.297          50.000    21119223.148    86479689.766       -1257.898          44.000  
G07  21872341.969   114939929.688        1833.465          49.000    21872340.180    89563575.570        1428.676          43.000  
G19  20421726.523   107316896.270         182.559          50.000    20421723.062    83623536.102         142.254          47.000  
G11  23656033.195   124313296.602        3696.438          47.000    23656031.773    96867506.152        2880.336          35.000  
G16  22489402.891   118182599.391       -2089.148          48.000    22489401.648    92090323.617       -1627.910          39.000  
G08  24725098.031   129931277.031        3594.254          40.000    24725097.562   101245129.828        2800.715          34.000  
S29  37175536.031   197915770.469           5.352          44.000  
S37  37214032.742   198118092.906           3.777          43.000  
R14  19272005.938   102730636.953        -826.125          49.000    19272014.188    79901706.727        -642.547          46.000  
R17  21115311.195   112992289.789        1840.629          46.000    21115312.430    87882893.656        1431.598          43.000  
R13  21816606.688   116499450.652       -4051.266          45.000    21816613.102    90610782.648       -3150.988          43.000  
R23  22658256.930   121206387.742       -3248.066          37.000    22658260.180    94271730.438       -2526.277          32.000  
R15  21365052.594   114168364.344        3212.547          45.000    21365058.047    88797643.379        2498.648          42.000  
> 2009 12 18 23 07 02.0000000  0 16                     
G03  20214364.742   106227213.734       -1140.824          51.000    20214363.656    82774444.539        -888.957          44.000  
G22  24673568.672   129660483.598        1510.723          43.000    24673566.422   101034142.133        1177.188          36.000  
G13  24390900.664   128175030.160       -2390.961          43.000    24390899.922    99876645.430       -1863.086          35.000  
G06  21119530.703   110983888.402       -1614.383          50.000    21119530.359    86480947.695       -1257.965          43.000  
G07  21871993.102   114938096.457        1833.004          49.000    21871991.336    89562147.078        1428.316          43.000  
G19  20421691.812   107316713.824         182.336          50.000    20421688.344    83623393.934         142.078          47.000  
G11  23655329.820   124309600.297        3696.160          46.000    23655328.383    96864625.906        2880.121          34.000  
G16  22489800.438   118184688.582       -2089.340          48.000    22489799.227    92091951.559       -1628.062          40.000  
G08  24724414.094   129927682.820        3593.871          40.000    24724413.570   101242329.152        2800.414          36.000  
S29  37175535.047   197915765.281           5.129          44.000  
S37  37214032.109   198118089.492           3.633          43.000  
R14  19272160.969   102731463.363        -826.754          49.000    19272169.234    79902349.488        -643.035          46.000  
R17  21114967.281   112990449.547        1839.984          46.000    21114968.531    87881462.355        1431.098          43.000  
R13  21817365.367   116503501.977       -4051.684          45.000    21817371.766    90613933.676       -3151.312          43.000  
R23  22658864.156   121209635.930       -3248.266          37.000    22658867.383    94274256.801       -2526.434          33.000  
R15  21364451.445   114165151.965        3212.375          45.000    21364456.914    88795144.863        2498.516          42.000  
> 2009 12 18 23 07 03.0000000  0 16                     
G03  20214581.875   106228354.773       -1141.328          51.000    20214580.797    82775333.660        -889.352          44.000  
G22  24673281.266   129658973.270        1510.148          43.000    24673278.969   101032965.258        1176.738          36.000  
G13  24391355.688   128177421.301       -2391.359          43.000    24391354.984    99878508.656       -1863.398          34.000  
G06  21119837.938   110985502.930       -1614.676          50.000    21119837.586    86482205.766       -1258.191          43.000  
G07  21871644.352   114936263.781        1832.285          50.000    21871642.602    89560719.020        1427.750          43.000  
G19  20421657.180   107316531.766         181.770          51.000    20421653.695    83623252.074         141.637          47.000  
G11  23654626.484   124305904.133        3695.961          46.000    23654624.977    96861745.777        2879.965          35.000  
G16  22490198.031   118186778.016       -2089.684          48.000    22490196.844    92093579.684       -1628.328          39.000  
G08  24723730.172   129924088.797        3593.672          40.000    24723729.688   101239528.629        2800.266          35.000  
S29  37175534.047   197915760.184           4.828          45.000  
S37  37214031.539   198118086.305           3.105          43.000  
R14  19272316.164   102732290.664        -827.828          49.000    19272324.438    79902992.945        -643.871          46.000  
R17  21114623.469   112988609.734        1839.230          46.000    21114624.703    87880031.395        1430.512          44.000  
R13  21818124.109   116507553.676       -4052.023          45.000    21818130.500    90617084.996       -3151.578          44.000  
R23  22659471.320   121212884.043       -3248.941          37.000    22659474.578    94276783.113       -2526.957          33.000  
R15  21363850.391   114161940.121        3211.297          46.000    21363855.891    88792646.766        2497.676          43.000  
> 2009 12 18 23 07 04.0000000  0 16                     
G03  20214799.070   106229496.129       -1141.445          51.000    20214797.984    82776223.031        -889.438          44.000  
G22  24672993.930   129657463.266        1509.938          43.000    24672991.633   101031788.633        1176.574          35.000  
G13  24391810.727   128179812.672       -2391.426          43.000    24391810.047    99880372.055       -1863.449          32.000  
G06  21120145.219   110987117.668       -1614.848          50.000    21120144.859    86483464.000       -1258.328          43.000  
G07  21871295.711   114934431.699        1831.742          50.000    21871293.977    89559291.422        1427.332          43.000  
G19  20421622.609   107316350.098         181.453          51.000    20421619.133    83623110.516         141.391          47.000  
G11  23653923.172   124302208.152        3695.820          46.000    23653921.641    96858865.801        2879.859          35.000  
G16  22490595.680   118188867.715       -2089.902          47.000    22490594.484    92095208.016       -1628.500          41.000  
G08  24723046.289   129920494.996        3593.828          40.000    24723045.789   101236728.277        2800.391          34.000  
S29  37175533.055   197915754.871           5.309          45.000  
S37  37214030.945   198118083.137           3.270          43.000  
R14  19272471.539   102733118.887        -828.777          49.000    19272479.820    79903637.117        -644.609          46.000  
R17  21114279.695   112986770.309        1839.035          46.000    21114280.953    87878600.730        1430.359          44.000  
R13  21818882.922   116511605.770       -4052.340          45.000    21818889.312    90620236.621       -3151.824          43.000  
R23  22660078.516   121216132.121       -3248.129          37.000    22660081.766    94279309.391       -2526.145          34.000  
R15  21363249.445   114158728.820        3210.871          46.000    21363254.977    88790149.086        2497.344          43.000  
> 2009 12 18 23 07 05.0000000  0 16                     
G03  20215016.336   106230637.852       -1141.766          51.000    20215015.258    82777112.691        -889.688          44.000  
G22  24672706.633   129655953.625        1509.633          43.000    24672704.383   101030612.297        1176.336          34.000  
G13  24392265.836   128182204.344       -2391.746          43.000    24392265.164    99882235.691       -1863.703          31.000  
G06  21120452.523   110988732.648       -1615.047          50.000    21120452.172    86484722.422       -1258.480          43.000  
G07  21870947.195   114932600.250        1831.215          50.000    21870945.469    89557864.324        1426.922          43.000  
G19  20421588.125   107316168.871         181.004          50.000    20421584.648    83622969.297         141.039          47.000  
G11  23653219.906   124298512.375        3695.676          46.000    23653218.320    96855985.965        2879.742          33.000  
G16  22490993.391   118190957.727       -2090.105          47.000    22490992.219    92096836.594       -1628.656          40.000  
G08  24722362.461   129916901.477        3593.285          40.000    24722361.992   101233928.133        2799.961          32.000  
S29  37175532.086   197915749.816           4.910          44.000  
S37  37214030.391   198118080.102           3.129          43.000  
R14  19272627.086   102733948.074        -829.582          49.000    19272635.375    79904282.039        -645.234          46.000  
R17  21113936.031   112984931.340        1838.863          46.000    21113937.289    87877170.426        1430.227          44.000  
R13  21819641.812   116515658.301       -4052.488          45.000    21819648.211    90623388.586       -3151.938          44.000  
R23  22660685.656   121219380.227       -3247.828          36.000    22660688.969    94281835.699       -2526.094          33.000  
R15  21362648.586   114155518.121        3210.707          46.000    21362654.164    88787651.879        2497.215          43.000  
> 2009 12 18 23 07 06.0000000  0 16                     
G03  20215233.641   106231779.777       -1142.109          51.000    20215232.555    82778002.500        -889.957          44.000  
G22  24672419.383   129654444.188        1509.473          43.000    24672417.172   101029436.109        1176.211          35.000  
G13  24392720.961   128184596.121       -2392.191          43.000    24392720.297    99884099.410       -1864.051          32.000  
G06  21120759.859   110990347.680       -1615.129          50.000    21120759.508    86485980.891       -1258.547          43.000  
G07  21870598.758   114930769.250        1830.715          50.000    21870597.062    89556437.570        1426.531          43.000  
G19  20421553.688   107315987.902         180.773          51.000    20421550.211    83622828.281         140.859          47.000  
G11  23652516.648   124294816.633        3695.551          46.000    23652515.047    96853106.168        2879.645          35.000  
G16  22491391.125   118193047.855       -2090.172          47.000    22491389.969    92098465.270       -1628.711          40.000  
G08  24721678.688   129913308.023        3593.289          40.000    24721678.180   101231128.027        2799.961          35.000  
S29  37175531.133   197915744.625           5.156          44.000  
S37  37214029.797   198118076.988           3.203          43.000  
R14  19272782.789   102734778.039        -830.465          49.000    19272791.078    79904927.570        -645.922          46.000  
R17  21113592.445   112983092.660        1838.582          46.000    21113593.672    87875740.344        1430.008          44.000  
R13  21820400.742   116519711.078       -4053.008          45.000    21820407.164    90626540.742       -3152.344          43.000  
R23  22661292.812   121222628.188       -3247.531          37.000    22661296.148    94284361.887       -2525.863          33.000  
R15  21362047.836   114152307.855        3209.953          46.000    21362053.430    88785155.008        2496.629          43.000  
> 2009 12 18 23 07 07.0000000  0 16                     
G03  20215451.023   106232922.121       -1142.453          51.000    20215449.938    82778892.637        -890.223          44.000  
G22  24672132.219   129652935.176        1508.961          43.000    24672129.992   101028260.246        1175.809          36.000  
G13  24393176.164   128186988.219       -2392.324          43.000    24393175.508    99885963.375       -1864.152          35.000  
G06  21121067.258   110991963.055       -1615.430          50.000    21121066.898    86487239.621       -1258.781          43.000  
G07  21870250.453   114928938.934        1830.062          50.000    21870248.773    89555011.352        1426.023          43.000  
G19  20421519.344   107315807.430         180.297          51.000    20421515.867    83622687.652         140.488          47.000  
G11  23651813.445   124291121.152        3695.434          46.000    23651811.789    96850226.566        2879.555          32.000  
G16  22491788.922   118195138.371       -2090.758          47.000    22491787.797    92100094.242       -1629.164          40.000  
G08  24720994.914   129909714.887        3592.758          39.000    24720994.438   101228328.184        2799.547          31.000  
S29  37175530.164   197915739.707           5.188          45.000  
S37  37214029.219   198118073.988           2.715          43.000  
R14  19272938.680   102735609.039        -831.395          49.000    19272946.984    79905573.902        -646.645          46.000  
R17  21113248.945   112981254.508        1838.008          46.000    21113250.156    87874310.668        1429.562          43.000  
R13  21821159.789   116523764.367       -4053.699          45.000    21821166.219    90629693.301       -3152.883          43.000  
R23  22661899.984   121225876.270       -3248.250          37.000    22661903.352    94286888.168       -2526.422          33.000  
R15  21361447.219   114149098.234        3209.504          46.000    21361452.820    88782658.637        2496.281          43.000  
> 2009 12 18 23 07 08.0000000  0 16                     
G03  20215668.508   106234064.949       -1143.156          51.000    20215667.414    82779783.156        -890.770          44.000  
G22  24671845.156   129651426.625        1508.316          43.000    24671842.914   101027084.754        1175.309          35.000  
G13  24393631.438   128189380.719       -2392.738          42.000    24393630.773    99887827.660       -1864.477          32.000  
G06  21121374.711   110993578.742       -1616.113          50.000    21121374.352    86488498.598       -1259.312          43.000  
G07  21869902.289   114927109.371        1829.117          50.000    21869900.641    89553585.715        1425.285          43.000  
G19  20421485.102   107315627.500         179.633          51.000    20421481.625    83622547.453         139.969          47.000  
G11  23651110.281   124287426.004        3694.949          46.000    23651108.594    96847347.227        2879.176          34.000  
G16  22492186.797   118197229.285       -2091.230          47.000    22492185.680    92101723.516       -1629.535          40.000  
G08  24720311.227   129906122.117        3592.570          40.000    24720310.812   101225528.648        2799.410          35.000  
S29  37175529.234   197915734.766           4.750          45.000  
S37  37214028.672   198118071.203           2.477          43.000  
R14  19273094.766   102736441.105        -832.562          50.000    19273103.086    79906221.062        -647.551          46.000  
R17  21112905.570   112979416.941        1837.133          46.000    21112906.758    87872881.449        1428.883          44.000  
R13  21821918.945   116527818.207       -4054.246          45.000    21821925.383    90632846.293       -3153.305          43.000  
R23  22662507.125   121229124.445       -3248.305          37.000    22662510.547    94289414.531       -2526.465          32.000  
R15  21360846.727   114145889.324        3208.523          46.000    21360852.336    88780162.820        2495.520          43.000  
> 2009 12 18 23 07 09.0000000  0 16                     
G03  20215886.078   106235208.289       -1143.488          51.000    20215884.977    82780674.066        -891.035          44.000  
G22  24671558.188   129649918.617        1507.836          43.000    24671555.914   101025909.688        1174.938          35.000  
G13  24394086.797   128191773.633       -2392.988          42.000    24394086.172    99889692.258       -1864.672          31.000  
G06  21121682.258   110995194.895       -1616.250          50.000    21121681.891    86489757.938       -1259.418          43.000  
G07  21869554.281   114925280.586        1828.539          50.000    21869552.641    89552160.688        1424.836          43.000  
G19  20421450.977   107315448.168         179.172          51.000    20421447.500    83622407.711         139.613          47.000  
G11  23650407.203   124283731.215        3694.758          46.000    23650405.484    96844468.168        2879.023          34.000  
G16  22492584.773   118199320.648       -2091.434          48.000    22492583.656    92103353.148       -1629.691          39.000  
G08  24719627.617   129902529.789        3592.020          40.000    24719627.297   101222729.422        2798.977          36.000  
S29  37175528.398   197915730.141           4.355          45.000  
S37  37214028.203   198118068.621           2.703          43.000  
R14  19273251.070   102737274.285        -833.613          50.000    19273259.391    79906869.086        -648.371          46.000  
R17  21112562.305   112977579.984        1836.570          46.000    21112563.469    87871452.703        1428.445          44.000  
R13  21822678.195   116531872.633       -4054.633          45.000    21822684.648    90635999.738       -3153.605          43.000  
R23  22663114.359   121232372.820       -3247.922          37.000    22663117.812    94291941.043       -2526.164          33.000  
R15  21360246.367   114142681.148        3207.855          46.000    21360251.977    88777667.566        2494.996          43.000  
> 2009 12 18 23 07 10.0000000  0 16                     
G03  20216103.688   106236351.832       -1143.660          51.000    20216102.586    82781565.137        -891.168          44.000  
G22  24671271.258   129648410.801        1507.633          43.000    24671268.992   101024734.766        1174.777          33.000  
G13  24394542.195   128194166.672       -2393.188          42.000    24394541.508    99891556.973       -1864.824          34.000  
G06  21121989.797   110996811.051       -1616.156          50.000    21121989.430    86491017.281       -1259.348          43.000  
G07  21869206.359   114923452.258        1828.102          50.000    21869204.727    89550736.012        1424.492          43.000  
G19  20421416.898   107315269.090         178.902          51.000    20421413.422    83622268.172         139.406          47.000  
G11  23649704.125   124280036.465        3694.848          46.000    23649702.359    96841589.133        2879.098          34.000  
G16  22492982.773   118201412.156       -2091.602          48.000    22492981.648    92104982.887       -1629.824          40.000  
G08  24718944.023   129898937.523        3592.488          39.000    24718943.742   101219930.238        2799.336          32.000  
S29  37175527.531   197915725.641           4.535          45.000  
S37  37214027.617   198118065.656           3.305          43.000  
R14  19273407.500   102738108.246        -834.395          49.000    19273415.852    79907517.727        -648.977          46.000  
R17  21112219.078   112975743.320        1836.367          46.000    21112220.234    87870024.188        1428.285          44.000  
R13  21823437.500   116535927.328       -4054.883          45.000    21823443.977    90639153.387       -3153.801          43.000  
R23  22663721.570   121235621.059       -3247.844          37.000    22663725.016    94294467.445       -2526.105          33.000  
R15  21359646.070   114139473.395        3207.422          46.000    21359651.695    88775172.641        2494.656          43.000  
> 2009 12 18 23 07 11.0000000  0 16                     
G03  20216321.344   106237495.566       -1143.730          51.000    20216320.234    82782456.359        -891.223          44.000  
G22  24670984.336   129646903.168        1507.438          42.000    24670982.039   101023559.996        1174.625          35.000  
G13  24394997.570   128196559.805       -2393.367          42.000    24394996.852    99893421.750       -1864.965          30.000  
G06  21122297.359   110998427.297       -1616.191          50.000    21122296.984    86492276.695       -1259.375          43.000  
G07  21868858.516   114921624.375        1827.711          50.000    21868856.891    89549311.684        1424.188          43.000  
G19  20421382.875   107315090.273         178.824          51.000    20421379.391    83622128.832         139.344          47.000  
G11  23649001.055   124276341.746        3694.750          46.000    23648999.312    96838710.137        2879.023          35.000  
G16  22493380.805   118203503.789       -2091.609          48.000    22493379.688    92106612.730       -1629.828          39.000  
G08  24718260.453   129895345.340        3591.996          40.000    24718260.203   101217131.145        2798.957          35.000  
S29  37175526.672   197915721.031           4.992          45.000  
S37  37214027.023   198118062.426           3.375          43.000  
R14  19273564.102   102738943.000        -835.129          50.000    19273572.461    79908166.984        -649.547          46.000  
R17  21111875.906   112973906.918        1836.168          46.000    21111877.047    87868595.875        1428.125          44.000  
R13  21824196.859   116539982.250       -4054.926          45.000    21824203.352    90642307.211       -3153.836          43.000  
R23  22664328.773   121238869.121       -3247.367          37.000    22664332.211    94296993.711       -2525.734          33.000  
R15  21359045.844   114136266.031        3207.293          46.000    21359051.477    88772678.023        2494.559          42.000  
> 2009 12 18 23 07 12.0000000  0 16                     
G03  20216539.023   106238639.480       -1144.074          51.000    20216537.914    82783347.719        -891.492          44.000  
G22  24670697.477   129645395.707        1507.391          42.000    24670695.164   101022385.355        1174.590          35.000  
G13  24395452.961   128198953.020       -2393.480          42.000    24395452.320    99895286.582       -1865.055          33.000  
G06  21122604.945   111000043.668       -1616.496          50.000    21122604.570    86493536.207       -1259.605          43.000  
G07  21868510.758   114919796.930        1827.195          50.000    21868509.133    89547887.699        1423.785          43.000  
G19  20421348.898   107314911.707         178.453          51.000    20421345.406    83621989.691         139.051          47.000  
G11  23648297.977   124272647.059        3694.609          46.000    23648296.227    96835831.156        2878.914          34.000  
G16  22493778.852   118205595.535       -2091.754          48.000    22493777.742    92108242.664       -1629.941          40.000  
G08  24717576.875   129891753.223        3591.746          40.000    24717576.625   101214332.090        2798.762          32.000  
S29  37175525.766   197915716.094           4.637          45.000  
S37  37214026.422   198118059.230           2.980          43.000  
R14  19273720.852   102739778.527        -835.914          50.000    19273729.203    79908816.836        -650.160          46.000  
R17  21111532.789   112972070.789        1836.020          46.000    21111533.922    87867167.777        1428.012          44.000  
R13  21824956.250   116544037.422       -4055.422          45.000    21824962.781    90645461.230       -3154.223          44.000  
R23  22664935.922   121242117.039       -3247.461          37.000    22664939.391    94299519.863       -2525.809          33.000  
R15  21358445.703   114133059.090        3206.820          45.000    21358451.328    88770183.734        2494.191          42.000  
> 2009 12 18 23 07 13.0000000  0 16                     
G03  20216756.758   106239783.672       -1144.352          51.000    20216755.633    82784239.297        -891.707          44.000  
G22  24670410.680   129643888.539        1506.703          43.000    24670408.367   101021210.930        1174.051          34.000  
G13  24395908.398   128201346.422       -2393.566          42.000    24395907.773    99897151.551       -1865.125          34.000  
G06  21122912.555   111001660.168       -1616.574          50.000    21122912.188    86494795.820       -1259.668          43.000  
G07  21868163.109   114917970.020        1826.645          50.000    21868161.492    89546464.137        1423.355          43.000  
G19  20421314.984   107314733.484         178.000          51.000    20421311.484    83621850.812         138.699          47.000  
G11  23647594.922   124268952.480        3694.418          46.000    23647593.164    96832952.266        2878.762          33.000  
G16  22494176.930   118207687.496       -2092.105          48.000    22494175.828    92109872.766       -1630.215          40.000  
G08  24716893.375   129888161.285        3591.980          40.000    24716893.141   101211533.184        2798.945          34.000  
S29  37175524.828   197915711.262           5.129          45.000  
S37  37214025.836   198118056.090           3.203          44.000  
R14  19273877.742   102740614.914        -836.824          50.000    19273886.109    79909467.355        -650.867          46.000  
R17  21111189.711   112970235.051        1835.707          46.000    21111190.867    87865739.977        1427.770          44.000  
R13  21825715.695   116548092.926       -4055.609          45.000    21825722.258    90648615.504       -3154.367          44.000  
R23  22665543.094   121245364.930       -3247.844          37.000    22665546.555    94302045.996       -2526.203          33.000  
R15  21357845.664   114129852.617        3206.230          45.000    21357851.266    88767689.812        2493.730          42.000  
> 2009 12 18 23 07 14.0000000  0 16                     
G03  20216974.562   106240928.211       -1144.672          51.000    20216973.430    82785131.148        -891.957          44.000  
G22  24670123.914   129642381.695        1506.816          42.000    24670121.602   101020036.773        1174.145          34.000  
G13  24396363.883   128203740.086       -2393.664          42.000    24396363.273    99899016.754       -1865.195          34.000  
G06  21123220.195   111003276.883       -1616.770          50.000    21123219.852    86496055.598       -1259.820          43.000  
G07  21867815.578   114916143.730        1825.992          50.000    21867813.961    89545041.055        1422.848          43.000  
G19  20421281.156   107314555.680         177.625          51.000    20421277.648    83621712.266         138.406          47.000  
G11  23646891.914   124265258.113        3694.371          46.000    23646890.148    96830073.547        2878.730          35.000  
G16  22494575.078   118209779.746       -2092.340          48.000    22494573.961    92111503.094       -1630.398          39.000  
G08  24716209.906   129884569.609        3591.375          40.000    24716209.664   101208734.449        2798.465          27.000  
S29  37175523.781   197915705.926           5.211          45.000  
S37  37214025.273   198118053.129           3.043          43.000  
R14  19274034.820   102741452.254        -837.754          50.000    19274043.195    79910118.621        -651.590          46.000  
R17  21110846.727   112968399.738        1834.996          46.000    21110847.898    87864312.516        1427.215          44.000  
R13  21826475.227   116552148.848       -4055.988          45.000    21826481.812    90651770.109       -3154.660          44.000  
R23  22666150.250   121248612.820       -3247.949          38.000    22666153.711    94304572.129       -2526.191          33.000  
R15  21357245.719   114126646.707        3205.641          45.000    21357251.297    88765196.328        2493.277          42.000  
> 2009 12 18 23 07 15.0000000  0 16                     
G03  20217192.414   106242073.047       -1144.926          51.000    20217191.281    82786023.227        -892.152          44.000  
G22  24669837.234   129640875.156        1506.695          43.000    24669834.891   101018862.852        1174.047          35.000  
G13  24396819.414   128206133.957       -2394.164          42.000    24396818.805    99900882.113       -1865.586          33.000  
G06  21123527.875   111004893.727       -1616.828          50.000    21123527.531    86497315.469       -1259.871          43.000  
G07  21867468.141   114914317.980        1825.605          50.000    21867466.539    89543618.391        1422.547          43.000  
G19  20421247.398   107314378.234         177.363          51.000    20421243.875    83621573.996         138.207          47.000  
G11  23646188.922   124261563.859        3694.281          45.000    23646187.133    96827194.902        2878.656          34.000  
G16  22494973.266   118211872.219       -2092.473          48.000    22494972.133    92113133.590       -1630.500          40.000  
G08  24715526.430   129880978.102        3591.723          39.000    24715526.156   101205935.875        2798.742          35.000  
S29  37175522.773   197915700.633           5.426          45.000  
S37  37214024.727   198118050.230           2.930          43.000  
R14  19274192.070   102742290.465        -838.637          50.000    19274200.445    79910770.562        -652.277          46.000  
R17  21110503.820   112966564.793        1834.883          46.000    21110504.992    87862885.336        1427.129          44.000  
R13  21827234.844   116556205.141       -4056.570          45.000    21827241.430    90654925.004       -3155.113          44.000  
R23  22666757.375   121251860.680       -3248.020          38.000    22666760.875    94307098.242       -2526.242          33.000  
R15  21356645.852   114123441.293        3205.285          45.000    21356651.422    88762703.230        2493.000          42.000  
> 2009 12 18 23 07 16.0000000  0 16                     
G03  20217410.336   106243218.227       -1145.336          51.000    20217409.203    82786915.574        -892.473          44.000  
G22  24669550.625   129639369.000        1506.176          43.000    24669548.312   101017689.223        1173.645          34.000  
G13  24397275.000   128208528.074       -2394.469          42.000    24397274.406    99902747.656       -1865.824          32.000  
G06  21123835.602   111006510.836       -1617.258          50.000    21123835.242    86498575.551       -1260.203          43.000  
G07  21867120.820   114912492.863        1824.668          49.000    21867119.219    89542196.219        1421.816          43.000  
G19  20421213.711   107314201.215         176.734          51.000    20421210.188    83621436.062         137.715          47.000  
G11  23645485.969   124257869.828        3693.836          46.000    23645484.203    96824316.438        2878.312          35.000  
G16  22495371.508   118213964.992       -2092.910          48.000    22495370.367    92114764.328       -1630.840          39.000  
G08  24714843.023   129877386.836        3591.371          39.000    24714842.836   101203137.469        2798.465          32.000  
S29  37175521.766   197915695.340           5.691          45.000  
S37  37214024.266   198118047.559           2.645          44.000  
R14  19274349.492   102743129.637        -839.688          50.000    19274357.867    79911423.250        -653.094          46.000  
R17  21110161.008   112964730.312        1834.305          46.000    21110162.172    87861458.516        1426.676          44.000  
R13  21827994.539   116560261.863       -4057.113          45.000    21828001.133    90658080.230       -3155.535          44.000  
R23  22667364.539   121255108.477       -3247.910          37.000    22667368.016    94309624.309       -2526.156          33.000  
R15  21356046.102   114120236.453        3204.539          45.000    21356051.656    88760210.586        2492.418          42.000  
> 2009 12 18 23 07 17.0000000  0 16                     
G03  20217628.383   106244364.023       -1146.066          51.000    20217627.242    82787808.402        -893.043          44.000  
G22  24669264.109   129637863.430        1505.020          42.000    24669261.789   101016516.059        1172.742          31.000  
G13  24397730.680   128210922.730       -2394.859          42.000    24397730.094    99904613.621       -1866.129          31.000  
G06  21124143.422   111008128.438       -1617.887          50.000    21124143.062    86499836.023       -1260.695          43.000  
G07  21866773.672   114910668.602        1823.895          49.000    21866772.070    89540774.723        1421.215          43.000  
G19  20421180.156   107314024.863         175.996          51.000    20421176.625    83621298.645         137.141          47.000  
G11  23644783.094   124254176.230        3693.430          45.000    23644781.320    96821438.316        2877.996          32.000  
G16  22495769.867   118216058.316       -2093.602          48.000    22495768.695    92116395.488       -1631.379          39.000  
G08  24714159.727   129873796.102        3590.531          39.000    24714159.477   101200339.492        2797.809          36.000  
S29  37175520.805   197915690.156           4.566          44.000  
S37  37214023.781   198118045.020           2.324          43.000  
R14  19274507.156   102743970.008        -840.906          50.000    19274515.516    79912076.871        -654.039          46.000  
R17  21109818.328   112962896.539        1833.430          46.000    21109819.492    87860032.246        1425.996          44.000  
R13  21828754.328   116564319.266       -4057.820          45.000    21828760.961    90661235.988       -3156.086          44.000  
R23  22667971.742   121258356.621       -3247.715          37.000    22667975.211    94312150.652       -2526.004          33.000  
R15  21355446.516   114117032.473        3203.688          46.000    21355452.055    88757718.598        2491.758          43.000  
> 2009 12 18 23 07 18.0000000  0 16                     
G03  20217846.516   106245510.289       -1146.316          51.000    20217845.375    82788701.594        -893.238          44.000  
G22  24668977.695   129636358.363        1504.879          43.000    24668975.406   101015343.273        1172.629          33.000  
G13  24398186.438   128213317.758       -2394.922          43.000    24398185.812    99906479.879       -1866.172          33.000  
G06  21124451.312   111009746.383       -1618.043          50.000    21124450.945    86501096.758       -1260.816          43.000  
G07  21866426.664   114908845.086        1823.266          49.000    21866425.062    89539353.805        1420.727          43.000  
G19  20421146.703   107313849.059         175.605          51.000    20421143.172    83621161.652         136.836          47.000  
G11  23644080.258   124250482.953        3693.230          45.000    23644078.492    96818560.438        2877.844          35.000  
G16  22496168.305   118218152.051       -2093.945          48.000    22496167.109    92118026.973       -1631.645          39.000  
G08  24713476.484   129870205.727        3590.176          39.000    24713476.211   101197541.816        2797.539          36.000  
S29  37175519.953   197915685.672           4.883          45.000  
S37  37214023.305   198118042.629           2.617          43.000  
R14  19274665.008   102744811.441        -841.867          50.000    19274673.375    79912731.324        -654.789          46.000  
R17  21109475.727   112961063.316        1833.145          46.000    21109476.914    87858606.410        1425.773          44.000  
R13  21829514.273   116568377.215       -4058.051          45.000    21829520.898    90664392.164       -3156.266          44.000  
R23  22668579.008   121261604.879       -3248.117          37.000    22668582.445    94314677.070       -2526.316          33.000  
R15  21354847.078   114113829.168        3203.105          46.000    21354852.602    88755227.137        2491.301          43.000  
> 2009 12 18 23 07 19.0000000  0 16                     
G03  20218064.703   106246656.852       -1146.691          51.000    20218063.555    82789595.020        -893.531          44.000  
G22  24668691.320   129634853.559        1505.055          42.000    24668689.023   101014170.695        1172.766          33.000  
G13  24398642.234   128215713.012       -2395.457          43.000    24398641.641    99908346.316       -1866.590          32.000  
G06  21124759.234   111011364.531       -1618.098          50.000    21124758.852    86502357.656       -1260.855          43.000  
G07  21866079.758   114907022.105        1822.785          50.000    21866078.156    89537933.305        1420.352          43.000  
G19  20421113.328   107313673.617         175.316          51.000    20421109.781    83621024.945         136.609          47.000  
G11  23643377.461   124246789.824        3692.965          45.000    23643375.734    96815682.676        2877.637          35.000  
G16  22496566.773   118220246.016       -2093.957          48.000    22496565.562    92119658.633       -1631.660          39.000  
G08  24712793.297   129866615.535        3589.930          40.000    24712793.039   101194744.273        2797.348          33.000  
S29  37175519.031   197915680.949           4.746          45.000  
S37  37214022.742   198118039.648           3.246          44.000  
R14  19274823.023   102745653.777        -842.652          50.000    19274831.398    79913386.469        -655.398          46.000  
R17  21109133.250   112959230.535        1832.633          46.000    21109134.422    87857180.910        1425.379          44.000  
R13  21830274.281   116572435.543       -4058.434          45.000    21830280.898    90667548.641       -3156.562          44.000  
R23  22669186.250   121264853.086       -3247.969          37.000    22669189.656    94317203.449       -2526.203          33.000  
R15  21354247.734   114110626.402        3202.664          46.000    21354253.250    88752736.094        2490.957          43.000  
> 2009 12 18 23 07 20.0000000  0 16                     
G03  20218282.898   106247803.492       -1146.688          51.000    20218281.758    82790488.508        -893.527          43.000  
G22  24668404.961   129633348.867        1504.336          42.000    24668402.758   101012998.207        1172.207          35.000  
G13  24399098.023   128218108.238       -2395.367          43.000    24399097.406    99910212.715       -1866.523          31.000  
G06  21125067.148   111012982.656       -1618.148          50.000    21125066.766    86503618.535       -1260.898          43.000  
G07  21865732.906   114905199.465        1822.355          50.000    21865731.320    89536513.066        1420.016          43.000  
G19  20421079.977   107313498.328         175.113          51.000    20421076.422    83620888.359         136.453          47.000  
G11  23642674.648   124243096.613        3693.328          45.000    23642672.961    96812804.848        2877.914          34.000  
G16  22496965.250   118222340.008       -2094.066          48.000    22496964.016    92121290.312       -1631.738          39.000  
G08  24712110.125   129863025.328        3590.086          40.000    24712109.945   101191946.711        2797.469          35.000  
S29  37175518.125   197915676.066           4.973          45.000  
S37  37214022.117   198118036.293           3.328          44.000  
R14  19274981.172   102746496.781        -843.453          50.000    19274989.539    79914042.137        -656.023          46.000  
R17  21108790.758   112957397.914        1832.383          46.000    21108791.953    87855755.539        1425.188          44.000  
R13  21831034.273   116576493.984       -4058.523          45.000    21831040.922    90670705.203       -3156.633          43.000  
R23  22669793.422   121268101.004       -3248.016          38.000    22669796.836    94319729.609       -2526.238          33.000  
R15  21353648.445   114107423.957        3202.336          46.000    21353653.977    88750245.301        2490.703          43.000  
> 2009 12 18 23 07 21.0000000  0 16                     
G03  20218501.141   106248950.324       -1146.809          51.000    20218499.992    82791382.145        -893.621          44.000  
G22  24668118.648   129631844.332        1504.520          42.000    24668116.469   101011825.848        1172.352          32.000  
G13  24399553.852   128220503.570       -2395.234          43.000    24399553.227    99912079.207       -1866.422          31.000  
G06  21125375.078   111014600.855       -1618.152          50.000    21125374.703    86504879.469       -1260.902          43.000  
G07  21865386.141   114903377.281        1821.961          49.000    21865384.570    89535093.184        1419.711          43.000  
G19  20421046.672   107313323.293         175.062          51.000    20421043.109    83620751.969         136.414          47.000  
G11  23641971.844   124239403.438        3693.027          44.000    23641970.148    96809927.055        2877.684          34.000  
G16  22497363.758   118224434.113       -2094.074          48.000    22497362.500    92122922.082       -1631.750          39.000  
G08  24711426.969   129859435.199        3590.137          40.000    24711426.789   101189149.207        2797.508          33.000  
S29  37175517.203   197915671.211           4.707          45.000  
S37  37214021.484   198118032.977           3.102          44.000  
R14  19275139.477   102747340.566        -844.078          49.000    19275147.828    79914698.418        -656.508          46.000  
R17  21108448.352   112955565.582        1832.246          46.000    21108449.539    87854330.395        1425.082          44.000  
R13  21831794.359   116580552.688       -4058.641          45.000    21831800.984    90673861.969       -3156.723          43.000  
R23  22670400.586   121271348.773       -3247.445          37.000    22670403.969    94322255.648       -2525.793          33.000  
R15  21353049.219   114104221.930        3201.926          46.000    21353054.781    88747754.836        2490.383          43.000  
> 2009 12 18 23 07 22.0000000  0 16                     
G03  20218719.398   106250097.289       -1147.293          51.000    20218718.258    82792275.883        -894.000          44.000  
G22  24667832.359   129630339.965        1503.672          43.000    24667830.203   101010653.613        1171.691          32.000  
G13  24400009.672   128222898.941       -2395.617          43.000    24400009.117    99913945.734       -1866.715          31.000  
G06  21125683.016   111016219.094       -1618.406          50.000    21125682.641    86506140.430       -1261.102          43.000  
G07  21865039.461   114901555.488        1821.488          50.000    21865037.898    89533673.598        1419.340          43.000  
G19  20421013.406   107313148.465         174.508          51.000    20421009.836    83620615.738         135.980          47.000  
G11  23641269.016   124235710.230        3692.965          44.000    23641267.344    96807049.242        2877.637          35.000  
G16  22497762.273   118226528.301       -2094.426          49.000    22497761.008    92124553.922       -1632.020          39.000  
G08  24710743.805   129855845.137        3590.125          40.000    24710743.594   101186351.754        2797.500          29.000  
S29  37175516.172   197915665.797           5.195          45.000  
S37  37214020.828   198118029.578           3.219          44.000  
R14  19275297.914   102748185.094        -845.125          50.000    19275306.250    79915355.273        -657.324          46.000  
R17  21108105.984   112953733.465        1831.500          46.000    21108107.172    87852905.418        1424.500          44.000  
R13  21832554.477   116584611.582       -4059.113          46.000    21832561.086    90677018.887       -3157.094          43.000  
R23  22671007.656   121274596.359       -3247.805          37.000    22671011.055    94324781.547       -2526.074          33.000  
R15  21352450.078   114101020.293        3201.156          46.000    21352455.672    88745264.672        2489.785          43.000  
> 2009 12 18 23 07 23.0000000  0 16                     
G03  20218937.719   106251244.508       -1147.219          51.000    20218936.562    82793169.816        -893.941          44.000  
G22  24667546.117   129628835.832        1504.207          43.000    24667543.977   101009481.555        1172.105          35.000  
G13  24400465.516   128225294.492       -2395.332          43.000    24400465.000    99915812.395       -1866.496          32.000  
G06  21125990.977   111017837.406       -1618.297          50.000    21125990.586    86507401.453       -1261.016          43.000  
G07  21864692.875   114899734.230        1821.207          49.000    21864691.320    89532254.434        1419.117          43.000  
G19  20420980.211   107312973.969         174.477          51.000    20420976.633    83620479.770         135.957          47.000  
G11  23640566.211   124232017.141        3693.242          44.000    23640564.594    96804171.520        2877.855          35.000  
G16  22498160.836   118228622.691       -2094.352          48.000    22498159.555    92126185.910       -1631.961          39.000  
G08  24710060.656   129852255.211        3589.773          40.000    24710060.398   101183554.406        2797.223          31.000  
S29  37175515.164   197915660.574           5.516          45.000  
S37  37214020.156   198118026.090           3.578          43.000  
R14  19275456.492   102749030.449        -845.520          50.000    19275464.836    79916012.770        -657.629          46.000  
R17  21107763.664   112951901.691        1831.918          46.000    21107764.859    87851480.699        1424.820          44.000  
R13  21833314.633   116588670.785       -4059.477          46.000    21833321.250    90680176.039       -3157.375          43.000  
R23  22671614.758   121277843.863       -3247.379          37.000    22671618.117    94327307.375       -2525.547          33.000  
R15  21351851.016   114097819.113        3201.168          45.000    21351856.641    88742774.863        2489.793          43.000  
> 2009 12 18 23 07 24.0000000  0 16                     
G03  20219156.070   106252391.961       -1147.590          51.000    20219154.914    82794063.938        -894.227          44.000  
G22  24667259.922   129627331.945        1503.805          43.000    24667257.812   101008309.699        1171.797          33.000  
G13  24400921.398   128227690.176       -2395.680          43.000    24400920.930    99917679.168       -1866.762          32.000  
G06  21126298.953   111019455.848       -1618.543          50.000    21126298.555    86508662.574       -1261.207          43.000  
G07  21864346.391   114897913.473        1820.445          49.000    21864344.844    89530835.664        1418.523          43.000  
G19  20420947.070   107312799.773         174.016          51.000    20420943.484    83620344.035         135.598          46.000  
G11  23639863.422   124228324.133        3692.773          44.000    23639861.820    96801293.852        2877.484          35.000  
G16  22498559.422   118230717.250       -2094.617          48.000    22498558.117    92127818.039       -1632.168          39.000  
G08  24709377.555   129848665.422        3589.316          40.000    24709377.328   101180757.172        2796.871          35.000  
S29  37175514.141   197915655.375           5.117          45.000  
S37  37214019.492   198118022.715           3.156          43.000  
R14  19275615.234   102749876.652        -846.574          50.000    19275623.586    79916670.926        -658.449          46.000  
R17  21107421.430   112950070.234        1831.340          46.000    21107422.602    87850056.234        1424.371          44.000  
R13  21834074.844   116592730.301       -4059.828          46.000    21834081.461    90683333.445       -3157.648          43.000  
R23  22672221.797   121281091.215       -3247.652          37.000    22672225.156    94329833.094       -2525.957          33.000  
R15  21351252.039   114094618.418        3200.391          45.000    21351257.703    88740285.434        2489.188          43.000  
> 2009 12 18 23 07 25.0000000  0 16                     
G03  20219374.508   106253539.824       -1148.074          51.000    20219373.352    82794958.379        -894.602          44.000  
G22  24666973.828   129625828.492        1503.453          43.000    24666971.719   101007138.184        1171.523          34.000  
G13  24401377.352   128230086.203       -2396.379          42.000    24401376.906    99919546.191       -1867.312          33.000  
G06  21126606.984   111021074.570       -1618.770          50.000    21126606.578    86509923.918       -1261.383          43.000  
G07  21864000.039   114896093.391        1819.734          50.000    21863998.492    89529417.422        1417.977          43.000  
G19  20420914.016   107312626.059         173.484          51.000    20420910.422    83620208.672         135.184          47.000  
G11  23639160.680   124224631.367        3692.770          44.000    23639159.094    96798416.367        2877.484          32.000  
G16  22498958.078   118232812.176       -2095.137          49.000    22498956.750    92129450.449       -1632.574          37.000  
G08  24708694.500   129845075.957        3589.141          41.000    24708694.266   101177960.188        2796.734          32.000  
S29  37175513.133   197915650.262           5.285          45.000  
S37  37214018.867   198118019.652           2.699          43.000  
R14  19275774.188   102750723.863        -847.738          50.000    19275782.516    79917329.867        -659.355          46.000  
R17  21107079.273   112948239.305        1830.750          46.000    21107080.445    87848632.176        1423.914          44.000  
R13  21834835.156   116596790.324       -4060.285          46.000    21834841.758    90686491.242       -3158.000          43.000  
R23  22672828.891   121284338.680       -3247.395          37.000    22672832.234    94332358.902       -2525.754          32.000  
R15  21350653.195   114091418.359        3199.902          45.000    21350658.875    88737796.492        2488.809          43.000  
> 2009 12 18 23 07 26.0000000  0 16                     
G03  20219593.016   106254688.066       -1148.160          51.000    20219591.859    82795853.117        -894.672          44.000  
G22  24666687.797   129624325.418        1503.348          43.000    24666685.719   101005966.965        1171.441          33.000  
G13  24401833.359   128232482.512       -2396.324          42.000    24401832.867    99921413.434       -1867.270          33.000  
G06  21126915.047   111022693.516       -1618.867          50.000    21126914.648    86511185.434       -1261.457          43.000  
G07  21863653.797   114894273.957        1819.316          49.000    21863652.273    89527999.684        1417.648          43.000  
G19  20420881.047   107312452.797         173.305          51.000    20420877.453    83620073.664         135.039          47.000  
G11  23638457.992   124220938.852        3692.656          44.000    23638456.422    96795539.086        2877.395          29.000  
G16  22499356.805   118234907.410       -2095.383          48.000    22499355.438    92131083.102       -1632.766          39.000  
G08  24708011.508   129841486.754        3589.406          40.000    24708011.297   101175163.410        2796.941          23.000  
S29  37175512.070   197915644.879           5.895          45.000  
S37  37214018.312   198118016.766           3.277          43.000  
R14  19275933.289   102751572.039        -848.465          50.000    19275941.633    79917989.559        -659.922          46.000  
R17  21106737.195   112946408.820        1830.465          46.000    21106738.375    87847208.473        1423.695          44.000  
R13  21835595.555   116600850.809       -4060.477          46.000    21835602.148    90689649.402       -3158.148          43.000  
R23  22673435.984   121287586.219       -3247.516          37.000    22673439.320    94334884.770       -2525.844          33.000  
R15  21350054.445   114088218.914        3199.461          45.000    21350060.156    88735308.039        2488.465          43.000  
> 2009 12 18 23 07 27.0000000  0 16                     
G03  20219811.586   106255836.680       -1148.738          51.000    20219810.438    82796748.133        -895.121          44.000  
G22  24666401.836   129622822.715        1502.730          43.000    24666399.805   101004796.035        1170.957          33.000  
G13  24402289.406   128234879.090       -2396.668          42.000    24402288.938    99923280.910       -1867.539          34.000  
G06  21127223.172   111024312.746       -1619.332          50.000    21127222.773    86512447.172       -1261.820          43.000  
G07  21863307.688   114892455.152        1818.512          49.000    21863306.172    89526582.430        1417.020          43.000  
G19  20420848.164   107312279.973         172.711          51.000    20420844.562    83619938.996         134.574          47.000  
G11  23637755.336   124217246.531        3692.340          44.000    23637753.750    96792661.957        2877.148          36.000  
G16  22499755.578   118237002.945       -2095.602          48.000    22499754.219    92132715.992       -1632.938          38.000  
G08  24707328.570   129837897.824        3588.645          40.000    24707328.445   101172366.859        2796.352          32.000  
S29  37175510.992   197915639.426           5.379          45.000  
S37  37214017.758   198118013.855           3.129          43.000  
R14  19276092.594   102752421.188        -849.578          50.000    19276100.930    79918650.012        -660.785          46.000  
R17  21106395.203   112944578.816        1829.883          46.000    21106396.391    87845785.137        1423.242          43.000  
R13  21836356.047   116604911.719       -4061.070          45.000    21836362.609    90692807.891       -3158.609          43.000  
R23  22674043.039   121290833.773       -3247.215          37.000    22674046.406    94337410.652       -2525.613          33.000  
R15  21349455.820   114085020.070        3198.617          45.000    21349461.539    88732820.055        2487.812          43.000  
> 2009 12 18 23 07 28.0000000  0 16                     
G03  20220030.234   106256985.699       -1149.227          51.000    20220029.094    82797643.477        -895.500          44.000  
G22  24666115.969   129621320.430        1501.945          43.000    24666113.961   101003625.422        1170.348          36.000  
G13  24402745.531   128237275.980       -2397.020          42.000    24402745.055    99925148.613       -1867.812          32.000  
G06  21127531.367   111025932.297       -1619.816          50.000    21127530.961    86513709.160       -1262.199          43.000  
G07  21862961.703   114890637.016        1817.730          49.000    21862960.203    89525165.699        1416.410          43.000  
G19  20420815.375   107312107.629         172.039          51.000    20420811.773    83619804.699         134.051          47.000  
G11  23637052.734   124213554.484        3691.797          44.000    23637051.125    96789785.043        2876.727          34.000  
G16  22500154.414   118239098.836       -2096.098          48.000    22500153.031    92134349.148       -1633.324          39.000  
G08  24706645.664   129834309.184        3588.492          40.000    24706645.586   101169570.520        2796.230          37.000  
S29  37175510.031   197915634.527           4.914          45.000  
S37  37214017.250   198118010.996           2.613          43.000  
R14  19276252.078   102753271.344        -850.727          50.000    19276260.414    79919311.242        -661.676          46.000  
R17  21106053.305   112942749.316        1829.176          46.000    21106054.508    87844362.195        1422.691          44.000  
R13  21837116.586   116608973.094       -4061.703          45.000    21837123.172    90695966.746       -3159.102          43.000  
R23  22674650.117   121294081.391       -3247.727          38.000    22674653.492    94339936.574       -2526.008          33.000  
R15  21348857.312   114081821.844        3197.812          45.000    21348863.047    88730332.547        2487.188          43.000  
> 2009 12 18 23 07 29.0000000  0 16                     
G03  20220248.977   106258135.133       -1149.613          51.000    20220247.828    82798539.141        -895.805          44.000  
G22  24665830.164   129619818.539        1501.977          43.000    24665828.156   101002455.109        1170.371          33.000  
G13  24403201.719   128239673.227       -2397.488          42.000    24403201.234    99927016.605       -1868.172          31.000  
G06  21127839.609   111027552.109       -1619.980          50.000    21127839.195    86514971.352       -1262.328          43.000  
G07  21862615.852   114888819.551        1817.195          49.000    21862614.359    89523749.492        1415.996          43.000  
G19  20420782.672   107311935.762         171.680          51.000    20420779.062    83619670.777         133.773          47.000  
G11  23636350.188   124209862.684        3691.703          44.000    23636348.602    96786908.312        2876.652          35.000  
G16  22500553.320   118241195.074       -2096.344          48.000    22500551.930    92135982.578       -1633.520          39.000  
G08  24705962.828   129830720.855        3588.164          39.000    24705962.758   101166774.422        2795.973          33.000  
S29  37175509.078   197915629.520           4.992          44.000  
S37  37214016.789   198118008.422           2.250          43.000  
R14  19276411.758   102754122.500        -851.598          50.000    19276420.086    79919973.250        -662.359          46.000  
R17  21105711.508   112940920.332        1828.680          46.000    21105712.711    87842939.652        1422.305          44.000  
R13  21837877.258   116613034.938       -4062.145          45.000    21837883.805    90699125.953       -3159.445          43.000  
R23  22675257.219   121297329.086       -3247.801          38.000    22675260.594    94342462.562       -2526.066          33.000  
R15  21348258.922   114078624.242        3197.324          45.000    21348264.664    88727845.527        2486.809          43.000  
> 2009 12 18 23 07 30.0000000  0 16                     
G03  20220467.742   106259284.785       -1149.609          51.000    20220466.602    82799434.973        -895.805          44.000  
G22  24665544.422   129618316.918        1501.508          43.000    24665542.406   101001285.008        1170.004          34.000  
G13  24403657.906   128242070.582       -2397.406          42.000    24403657.438    99928884.668       -1868.113          32.000  
G06  21128147.883   111029172.051       -1619.895          50.000    21128147.461    86516233.645       -1262.258          42.000  
G07  21862270.086   114887002.586        1816.828          49.000    21862268.609    89522333.680        1415.711          43.000  
G19  20420750.023   107311764.199         171.512          51.000    20420746.414    83619537.094         133.641          47.000  
G11  23635647.648   124206170.957        3691.738          44.000    23635646.070    96784031.645        2876.680          36.000  
G16  22500952.250   118243291.484       -2096.438          48.000    22500950.867    92137616.145       -1633.590          39.000  
G08  24705280.008   129827132.668        3588.098          40.000    24705279.891   101163978.406        2795.918          31.000  
S29  37175508.117   197915624.523           5.020          45.000  
S37  37214016.297   198118005.707           2.996          43.000  
R14  19276571.586   102754974.488        -852.340          50.000    19276579.914    79920635.910        -662.934          46.000  
R17  21105369.766   112939091.668        1828.488          46.000    21105370.984    87841517.363        1422.156          44.000  
R13  21838637.945   116617097.094       -4062.328          45.000    21838644.516    90702285.406       -3159.594          43.000  
R23  22675864.266   121300576.652       -3247.047          38.000    22675867.672    94344988.445       -2525.480          34.000  
R15  21347660.594   114075427.105        3197.012          45.000    21347666.367    88725358.871        2486.566          43.000  
> 2009 12 18 23 07 31.0000000  0 16                     
G03  20220686.578   106260434.742       -1150.121          51.000    20220685.430    82800331.043        -896.203          44.000  
G22  24665258.734   129616815.559        1500.980          43.000    24665256.719   101000115.109        1169.590          31.000  
G13  24404114.133   128244468.141       -2397.520          42.000    24404113.664    99930752.898       -1868.199          33.000  
G06  21128456.172   111030792.145       -1620.367          50.000    21128455.750    86517496.051       -1262.629          43.000  
G07  21861924.430   114885186.172        1816.133          50.000    21861922.977    89520918.293        1415.168          43.000  
G19  20420717.453   107311592.984         170.953          51.000    20420713.828    83619403.680         133.207          46.000  
G11  23634945.141   124202479.379        3691.473          43.000    23634943.586    96781155.094        2876.473          35.000  
G16  22501351.242   118245388.129       -2096.898          48.000    22501349.852    92139249.891       -1633.949          38.000  
G08  24704597.242   129823544.648        3587.855          40.000    24704597.094   101161182.539        2795.727          32.000  
S29  37175507.156   197915619.535           4.762          45.000  
S37  37214015.711   198118002.773           2.832          43.000  
R14  19276731.578   102755827.363        -853.512          50.000    19276739.906    79921299.258        -663.848          46.000  
R17  21105028.102   112937263.375        1828.004          46.000    21105029.328    87840095.355        1421.781          44.000  
R13  21839398.695   116621159.570       -4062.535          44.000    21839405.281    90705445.105       -3159.754          43.000  
R23  22676471.336   121303824.152       -3247.504          37.000    22676474.750    94347514.277       -2525.840          33.000  
R15  21347062.367   114072230.453        3196.328          45.000    21347068.156    88722872.590        2486.031          43.000  
> 2009 12 18 23 07 32.0000000  0 16                     
G03  20220905.453   106261584.941       -1150.379          51.000    20220904.305    82801227.297        -896.402          44.000  
G22  24664973.086   129615314.434        1500.938          43.000    24664971.062   100998945.414        1169.562          35.000  
G13  24404570.406   128246865.859       -2397.961          43.000    24404569.883    99932621.242       -1868.543          34.000  
G06  21128764.492   111032412.379       -1620.426          50.000    21128764.062    86518758.570       -1262.672          43.000  
G07  21861578.867   114883370.277        1815.574          50.000    21861577.438    89519503.309        1414.734          43.000  
G19  20420684.930   107311422.086         170.715          51.000    20420681.305    83619270.512         133.020          47.000  
G11  23634242.641   124198787.871        3691.500          44.000    23634241.070    96778278.586        2876.492          34.000  
G16  22501750.250   118247484.945       -2096.996          48.000    22501748.852    92140883.770       -1634.027          39.000  
G08  24703914.461   129819956.781        3587.758          40.000    24703914.367   101158386.797        2795.652          32.000  
S29  37175506.203   197915614.398           5.004          45.000  
S37  37214015.094   198117999.707           3.090          43.000  
R14  19276891.719   102756681.055        -854.168          50.000    19276900.062    79921963.238        -664.355          46.000  
R17  21104686.508   112935435.434        1827.598          46.000    21104687.727    87838673.621        1421.465          44.000  
R13  21840159.508   116625222.344       -4062.871          45.000    21840166.094    90708605.035       -3160.016          43.000  
R23  22677078.383   121307071.547       -3247.664          37.000    22677081.797    94350040.027       -2525.965          33.000  
R15  21346464.242   114069034.262        3195.750          45.000    21346470.039    88720386.664        2485.582          43.000  
> 2009 12 18 23 07 33.0000000  0 16                     
G03  20221124.414   106262735.582       -1150.727          51.000    20221123.258    82802123.898        -896.676          43.000  
G22  24664687.523   129613813.773        1500.605          43.000    24664685.461   100997776.066        1169.301          36.000  
G13  24405026.750   128249263.953       -2397.973          43.000    24405026.273    99934489.879       -1868.559          35.000  
G06  21129072.867   111034032.902       -1620.484          50.000    21129072.445    86520021.316       -1262.719          43.000  
G07  21861233.445   114881555.078        1814.945          50.000    21861232.039    89518088.867        1414.238          43.000  
G19  20420652.516   107311251.707         170.289          51.000    20420648.883    83619137.750         132.688          47.000  
G11  23633540.203   124195096.668        3691.121          43.000    23633538.680    96775402.344        2876.199          34.000  
G16  22502149.336   118249582.145       -2097.414          48.000    22502147.930    92142517.953       -1634.352          38.000  
G08  24703231.773   129816369.258        3587.383          40.000    24703231.664   101155591.316        2795.359          30.000  
S29  37175505.289   197915609.613           4.691          45.000  
S37  37214014.523   198117996.617           3.219          44.000  
R14  19277052.062   102757535.801        -855.125          49.000    19277060.406    79922628.043        -665.102          46.000  
R17  21104345.000   112933608.000        1827.609          46.000    21104346.227    87837252.285        1421.473          44.000  
R13  21840920.422   116629285.652       -4063.348          44.000    21840927.000    90711765.387       -3160.387          43.000  
R23  22677685.500   121310319.039       -3247.426          37.000    22677688.859    94352565.855       -2525.781          33.000  
R15  21345866.250   114065838.750        3195.258          45.000    21345872.039    88717901.262        2485.199          43.000  
> 2009 12 18 23 07 34.0000000  0 16                     
G03  20221343.438   106263886.547       -1151.078          51.000    20221342.281    82803020.754        -896.949          43.000  
G22  24664402.023   129612313.469        1499.949          43.000    24664399.984   100996607.000        1168.793          34.000  
G13  24405483.148   128251662.277       -2398.480          43.000    24405482.727    99936358.695       -1868.953          32.000  
G06  21129381.281   111035653.602       -1620.746          50.000    21129380.844    86521284.195       -1262.922          43.000  
G07  21860888.133   114879740.484        1814.336          50.000    21860886.758    89516674.902        1413.766          43.000  
G19  20420620.164   107311081.727         169.715          51.000    20420616.531    83619005.297         132.242          47.000  
G11  23632837.781   124191405.629        3691.059          44.000    23632836.219    96772526.207        2876.148          34.000  
G16  22502548.477   118251679.629       -2097.672          48.000    22502547.055    92144152.359       -1634.555          38.000  
G08  24702549.133   129812781.977        3587.070          40.000    24702549.102   101152796.039        2795.117          34.000  
S29  37175504.281   197915604.469           5.055          45.000  
S37  37214014.000   198117993.758           2.770          44.000  
R14  19277212.586   102758391.457        -856.105          49.000    19277220.922    79923293.551        -665.863          46.000  
R17  21104003.594   112931781.016        1826.859          46.000    21104004.805    87835831.297        1420.891          44.000  
R13  21841681.391   116633349.359       -4063.914          44.000    21841687.984    90714926.039       -3160.824          43.000  
R23  22678292.641   121313566.531       -3247.605          37.000    22678295.938    94355091.684       -2525.918          33.000  
R15  21345268.383   114062643.789        3194.594          45.000    21345274.148    88715416.289        2484.684          43.000  
> 2009 12 18 23 07 35.0000000  0 16                     
G03  20221562.523   106265037.801       -1151.242          51.000    20221561.359    82803917.836        -897.074          43.000  
G22  24664116.562   129610813.406        1500.098          43.000    24664114.570   100995438.113        1168.902          33.000  
G13  24405939.586   128254060.805       -2398.734          43.000    24405939.172    99938227.676       -1869.148          26.000  
G06  21129689.727   111037274.484       -1620.715          50.000    21129689.289    86522547.223       -1262.898          42.000  
G07  21860542.930   114877926.434        1813.973          50.000    21860541.570    89515261.352        1413.480          43.000  
G19  20420587.891   107310912.086         169.613          51.000    20420584.250    83618873.109         132.164          46.000  
G11  23632135.398   124187714.738        3691.203          44.000    23632133.828    96769650.195        2876.266          33.000  
G16  22502947.664   118253777.301       -2097.539          48.000    22502946.234    92145786.910       -1634.445          38.000  
G08  24701866.516   129809194.863        3587.059          41.000    24701866.516   101150000.891        2795.105          33.000  
S29  37175503.305   197915599.484           5.129          45.000  
S37  37214013.422   198117990.809           3.305          44.000  
R14  19277373.273   102759247.992        -856.805          49.000    19277381.602    79923959.742        -666.406          46.000  
R17  21103662.219   112929954.395        1826.465          46.000    21103663.453    87834410.594        1420.582          44.000  
R13  21842442.445   116637413.410       -4064.094          44.000    21842449.031    90718086.965       -3160.965          43.000  
R23  22678899.766   121316814.004       -3247.477          37.000    22678903.031    94357617.492       -2525.820          33.000  
R15  21344670.578   114059449.320        3194.340          45.000    21344676.344    88712931.703        2484.488          43.000  
> 2009 12 18 23 07 36.0000000  0 16                     
G03  20221781.656   106266189.340       -1151.660          51.000    20221780.500    82804815.137        -897.402          43.000  
G22  24663831.180   129609313.648        1499.680          43.000    24663829.109   100994269.465        1168.578          33.000  
G13  24406396.047   128256459.520       -2399.113          43.000    24406395.516    99940096.793       -1869.445          32.000  
G06  21129998.203   111038895.543       -1621.184          50.000    21129997.758    86523810.383       -1263.266          42.000  
G07  21860197.828   114876112.938        1813.051          50.000    21860196.492    89513848.238        1412.762          43.000  
G19  20420555.680   107310742.809         169.141          51.000    20420552.031    83618741.207         131.797          46.000  
G11  23631433.039   124184023.992        3690.555          44.000    23631431.484    96766774.297        2875.758          31.000  
G16  22503346.891   118255875.223       -2097.961          48.000    22503345.445    92147421.656       -1634.773          38.000  
G08  24701183.945   129805607.938        3586.766          41.000    24701183.938   101147205.902        2794.883          31.000  
S29  37175502.359   197915594.496           5.121          45.000  
S37  37214012.812   198117987.746           2.762          44.000  
R14  19277534.117   102760105.398        -857.930          49.000    19277542.453    79924626.617        -667.281          46.000  
R17  21103320.938   112928128.168        1825.895          46.000    21103322.172    87832990.195        1420.141          44.000  
R13  21843203.562   116641477.801       -4064.602          45.000    21843210.141    90721248.148       -3161.359          43.000  
R23  22679506.859   121320061.418       -3247.148          37.000    22679510.102    94360143.258       -2525.562          34.000  
R15  21344072.852   114056255.367        3193.723          45.000    21344078.648    88710447.516        2484.008          43.000  
> 2009 12 18 23 07 37.0000000  0 16                     
G03  20222000.852   106267341.156       -1151.945          51.000    20221999.695    82805712.660        -897.625          43.000  
G22  24663545.844   129607814.184        1499.180          43.000    24663543.781   100993101.043        1168.188          34.000  
G13  24406852.547   128258858.430       -2399.172          42.000    24406851.922    99941966.078       -1869.488          32.000  
G06  21130306.719   111040516.797       -1621.387          50.000    21130306.273    86525073.703       -1263.422          42.000  
G07  21859852.828   114874299.988        1812.746          50.000    21859851.531    89512435.547        1412.527          42.000  
G19  20420523.531   107310573.875         168.777          51.000    20420519.891    83618609.566         131.516          46.000  
G11  23630730.703   124180333.352        3690.391          44.000    23630729.133    96763898.477        2875.633          32.000  
G16  22503746.156   118257973.359       -2098.223          48.000    22503744.688    92149056.570       -1634.980          39.000  
G08  24700501.398   129802021.199        3586.668          40.000    24700501.375   101144411.035        2794.805          31.000  
S29  37175501.438   197915589.605           4.520          45.000  
S37  37214012.227   198117984.691           3.266          44.000  
R14  19277695.125   102760963.680        -858.824          49.000    19277703.461    79925294.168        -667.977          46.000  
R17  21102979.727   112926302.309        1825.531          46.000    21102980.961    87831570.082        1419.859          44.000  
R13  21843964.773   116645542.543       -4065.059          45.000    21843971.305    90724409.613       -3161.715          43.000  
R23  22680113.914   121323308.777       -3247.500          37.000    22680117.148    94362668.980       -2526.039          33.000  
R15  21343475.242   114053061.934        3193.062          45.000    21343481.039    88707963.734        2483.492          43.000  
> 2009 12 18 23 07 38.0000000  0 16                     
G03  20222220.109   106268493.355       -1152.309          51.000    20222218.945    82806610.477        -897.906          44.000  
G22  24663260.578   129606315.074        1499.199          43.000    24663258.508   100991932.914        1168.203          33.000  
G13  24407309.094   128261257.605       -2399.188          42.000    24407308.523    99943835.578       -1869.500          33.000  
G06  21130615.273   111042138.320       -1621.582          50.000    21130614.844    86526337.227       -1263.574          43.000  
G07  21859507.961   114872487.676        1812.051          50.000    21859506.672    89511023.355        1411.984          43.000  
G19  20420491.477   107310405.387         168.328          51.000    20420487.828    83618478.277         131.164          46.000  
G11  23630028.414   124176642.941        3690.641          44.000    23630026.859    96761022.836        2875.824          34.000  
G16  22504145.477   118260071.801       -2098.551          48.000    22504144.000    92150691.719       -1635.234          38.000  
G08  24699818.914   129798434.750        3585.949          41.000    24699818.883   101141616.391        2794.242          33.000  
S29  37175500.516   197915584.758           4.504          45.000  
S37  37214011.625   198117981.598           3.051          44.000  
R14  19277856.312   102761822.926        -859.609          49.000    19277864.656    79925962.473        -668.590          46.000  
R17  21102638.602   112924476.891        1825.262          46.000    21102639.836    87830150.312        1419.645          44.000  
R13  21844726.031   116649607.707       -4065.039          45.000    21844732.555    90727571.406       -3161.699          43.000  
R23  22680720.992   121326556.176       -3247.484          37.000    22680724.219    94365194.734       -2525.824          33.000  
R15  21342877.742   114049869.086        3192.438          45.000    21342883.539    88705480.406        2483.004          43.000  
> 2009 12 18 23 07 39.0000000  0 16                     
G03  20222439.422   106269645.855       -1152.613          51.000    20222438.258    82807508.531        -898.145          44.000  
G22  24662975.359   129604816.309        1498.848          43.000    24662973.273   100990765.066        1167.938          33.000  
G13  24407765.664   128263656.988       -2399.359          42.000    24407765.148    99945705.219       -1869.633          34.000  
G06  21130923.875   111043760.039       -1621.801          50.000    21130923.445    86527600.902       -1263.746          42.000  
G07  21859163.188   114870675.941        1811.555          50.000    21859161.930    89509611.613        1411.598          43.000  
G19  20420459.492   107310237.289         167.953          51.000    20420455.836    83618347.293         130.871          46.000  
G11  23629326.180   124172952.703        3690.062          44.000    23629324.594    96758147.309        2875.371          36.000  
G16  22504544.844   118262170.512       -2098.801          48.000    22504543.352    92152327.074       -1635.430          39.000  
G08  24699136.477   129794848.469        3586.211          41.000    24699136.414   101138821.879        2794.445          32.000  
S29  37175499.664   197915580.277           4.660          45.000  
S37  37214011.102   198117978.582           3.359          44.000  
R14  19278017.688   102762683.086        -860.547          50.000    19278026.016    79926631.480        -669.316          46.000  
R17  21102297.555   112922651.918        1824.867          46.000    21102298.789    87828730.891        1419.336          44.000  
R13  21845487.367   116653673.277       -4065.918          45.000    21845493.891    90730733.520       -3162.383          43.000  
R23  22681328.008   121329803.586       -3247.352          37.000    22681331.273    94367720.500       -2525.723          33.000  
R15  21342280.352   114046676.777        3192.230          45.000    21342286.141    88702997.500        2482.844          43.000  
> 2009 12 18 23 07 40.0000000  0 16                     
G03  20222658.781   106270798.621       -1152.840          51.000    20222657.625    82808406.789        -898.320          43.000  
G22  24662690.195   129603317.812        1498.281          43.000    24662688.078   100989597.398        1167.492          29.000  
G13  24408222.289   128266056.562       -2399.824          42.000    24408221.773    99947575.023       -1869.992          35.000  
G06  21131232.508   111045381.930       -1621.883          50.000    21131232.078    86528864.711       -1263.809          43.000  
G07  21858818.531   114868864.730        1811.082          49.000    21858817.281    89508200.273        1411.230          43.000  
G19  20420427.570   107310069.516         167.664          51.000    20420423.906    83618216.562         130.648          46.000  
G11  23628623.945   124169262.527        3690.117          44.000    23628622.352    96755271.840        2875.414          34.000  
G16  22504944.242   118264269.406       -2098.973          48.000    22504942.750    92153962.578       -1635.562          38.000  
G08  24698454.070   129791262.359        3586.086          41.000    24698454.000   101136027.520        2794.352          32.000  
S29  37175498.789   197915575.457           4.820          45.000  
S37  37214010.516   198117975.625           3.074          43.000  
R14  19278179.203   102763544.090        -861.395          50.000    19278187.539    79927301.152        -669.973          46.000  
R17  21101956.570   112920827.297        1824.629          46.000    21101957.805    87827311.742        1419.152          44.000  
R13  21846248.758   116657739.156       -4066.184          45.000    21846255.281    90733895.875       -3162.590          43.000  
R23  22681935.078   121333050.871       -3247.418          37.000    22681938.312    94370246.160       -2525.773          33.000  
R15  21341683.039   114043484.953        3191.637          45.000    21341688.844    88700514.965        2482.379          43.000  
> 2009 12 18 23 07 41.0000000  0 16                     
G03  20222878.195   106271951.641       -1153.148          51.000    20222877.047    82809305.246        -898.559          44.000  
G22  24662405.078   129601819.562        1498.223          43.000    24662402.992   100988429.938        1167.445          34.000  
G13  24408678.930   128268456.305       -2399.875          42.000    24408678.414    99949444.945       -1870.035          33.000  
G06  21131541.172   111047003.941       -1622.098          50.000    21131540.734    86530128.617       -1263.977          42.000  
G07  21858473.961   114867054.039        1810.461          49.000    21858472.727    89506789.352        1410.746          43.000  
G19  20420395.711   107309902.070         167.301          51.000    20420392.039    83618086.086         130.363          46.000  
G11  23627921.750   124165572.500        3689.992          45.000    23627920.172    96752396.512        2875.320          35.000  
G16  22505343.688   118266368.500       -2099.129          48.000    22505342.195    92155598.238       -1635.684          38.000  
G08  24697771.703   129787676.406        3585.898          41.000    24697771.625   101133233.285        2794.211          35.000  
S29  37175497.797   197915570.316           5.422          45.000  
S37  37214009.930   198117972.594           2.980          43.000  
R14  19278340.891   102764405.930        -862.223          49.000    19278349.227    79927971.473        -670.617          46.000  
R17  21101615.648   112919003.039        1824.234          46.000    21101616.891    87825892.875        1418.844          44.000  
R13  21847010.219   116661805.348       -4066.238          45.000    21847016.727    90737058.469       -3162.633          43.000  
R23  22682542.133   121336298.078       -3247.203          37.000    22682545.375    94372771.770       -2525.605          33.000  
R15  21341085.828   114040293.602        3190.969          45.000    21341091.633    88698032.801        2481.859          43.000  
> 2009 12 18 23 07 42.0000000  0 16                     
G03  20223097.672   106273104.969       -1153.586          51.000    20223096.516    82810203.945        -898.898          43.000  
G22  24662120.039   129600321.637        1497.668          43.000    24662117.875   100987262.711        1167.012          32.000  
G13  24409135.609   128270856.250       -2399.973          42.000    24409135.117    99951315.035       -1870.113          35.000  
G06  21131849.859   111048626.121       -1622.133          50.000    21131849.406    86531392.652       -1264.004          42.000  
G07  21858129.500   114865243.918        1809.922          49.000    21858128.289    89505378.867        1410.324          43.000  
G19  20420363.930   107309735.000         166.922          51.000    20420360.242    83617955.902         130.070          46.000  
G11  23627219.578   124161882.609        3689.875          44.000    23627218.016    96749521.270        2875.227          34.000  
G16  22505743.172   118268467.844       -2099.441          48.000    22505741.695    92157234.094       -1635.930          38.000  
G08  24697089.352   129784090.645        3585.875          40.000    24697089.180   101130439.180        2794.188          34.000  
S29  37175496.773   197915564.980           5.531          45.000  
S37  37214009.344   198117969.695           3.031          43.000  
R14  19278502.734   102765268.664        -863.035          49.000    19278511.070    79928642.488        -671.250          46.000  
R17  21101274.805   112917179.152        1823.758          45.000    21101276.039    87824474.293        1418.473          44.000  
R13  21847771.781   116665871.934       -4066.754          45.000    21847778.258    90740221.371       -3163.031          43.000  
R23  22683149.188   121339545.270       -3246.754          36.000    22683152.414    94375297.363       -2525.258          33.000  
R15  21340488.711   114037102.762        3190.742          45.000    21340494.523    88695551.031        2481.684          43.000  
> 2009 12 18 23 07 43.0000000  0 16                     
G03  20223317.180   106274258.480       -1153.719          51.000    20223316.031    82811102.785        -899.000          43.000  
G22  24661835.023   129598823.895        1497.477          43.000    24661832.906   100986095.652        1166.863          35.000  
G13  24409592.305   128273256.281       -2400.297          42.000    24409591.859    99953185.203       -1870.359          34.000  
G06  21132158.555   111050248.324       -1622.344          50.000    21132158.094    86532656.707       -1264.168          43.000  
G07  21857785.133   114863434.250        1809.238          49.000    21857783.922    89503968.738        1409.793          43.000  
G19  20420332.188   107309568.184         166.504          51.000    20420328.500    83617825.914         129.738          46.000  
G11  23626517.398   124158192.742        3689.648          44.000    23626515.875    96746646.047        2875.051          34.000  
G16  22506142.688   118270567.309       -2099.754          48.000    22506141.203    92158870.039       -1636.172          38.000  
G08  24696407.016   129780504.980        3585.555          40.000    24696406.820   101127645.141        2793.934          33.000  
S29  37175495.727   197915559.527           5.277          45.000  
S37  37214008.688   198117966.391           3.711          44.000  
R14  19278664.734   102766132.191        -864.051          49.000    19278673.070    79929314.121        -672.039          46.000  
R17  21100934.023   112915355.570        1823.164          46.000    21100935.250    87823055.949        1418.012          44.000  
R13  21848533.344   116669938.766       -4066.969          45.000    21848539.836    90743384.461       -3163.199          43.000  
R23  22683756.195   121342792.250       -3247.168          37.000    22683759.422    94377822.793       -2525.578          33.000  
R15  21339891.648   114033912.348        3189.992          45.000    21339897.500    88693069.598        2481.102          43.000  
> 2009 12 18 23 07 44.0000000  0 16                     
G03  20223536.758   106275412.402       -1154.055          51.000    20223535.609    82812001.945        -899.266          43.000  
G22  24661550.078   129597326.566        1496.711          42.000    24661548.000   100984928.898        1166.266          33.000  
G13  24410049.078   128275656.633       -2400.293          42.000    24410048.664    99955055.605       -1870.359          33.000  
G06  21132467.312   111051870.871       -1622.609          50.000    21132466.852    86533921.031       -1264.375          42.000  
G07  21857440.898   114861625.266        1808.668          50.000    21857439.680    89502559.141        1409.352          42.000  
G19  20420300.539   107309401.848         166.184          51.000    20420296.836    83617696.305         129.488          46.000  
G11  23625815.281   124154503.148        3689.637          44.000    23625813.789    96743771.035        2875.039          36.000  
G16  22506542.273   118272667.133       -2099.883          48.000    22506540.773    92160506.266       -1636.273          39.000  
G08  24695724.750   129776919.629        3585.570          40.000    24695724.492   101124851.359        2793.945          34.000  
S29  37175494.742   197915554.312           5.020          45.000  
S37  37214008.086   198117963.105           3.617          43.000  
R14  19278826.914   102766996.719        -864.898          49.000    19278835.250    79929986.527        -672.699          46.000  
R17  21100593.320   112913532.480        1822.898          45.000    21100594.555    87821637.992        1417.805          44.000  
R13  21849295.016   116674006.074       -4067.375          45.000    21849301.508    90746547.922       -3163.516          43.000  
R23  22684363.164   121346039.363       -3246.207          36.000    22684366.484    94380348.320       -2524.832          34.000  
R15  21339294.727   114030722.590        3189.375          45.000    21339300.609    88690588.680        2480.621          43.000  
> 2009 12 18 23 07 45.0000000  0 16                     
G03  20223756.430   106276566.770       -1154.613          51.000    20223755.281    82812901.453        -899.703          44.000  
G22  24661265.211   129595829.668        1496.559          43.000    24661263.117   100983762.469        1166.145          34.000  
G13  24410505.914   128278057.340       -2400.844          42.000    24410505.586    99956926.281       -1870.789          34.000  
G06  21132776.148   111053493.789       -1623.207          50.000    21132775.680    86535185.641       -1264.840          43.000  
G07  21857096.789   114859816.980        1807.953          50.000    21857095.578    89501150.090        1408.793          43.000  
G19  20420268.992   107309236.023         165.629          51.000    20420265.289    83617567.090         129.059          46.000  
G11  23625113.211   124150813.855        3689.102          44.000    23625111.773    96740896.266        2874.625          35.000  
G16  22506941.922   118274767.336       -2100.328          48.000    22506940.414    92162142.793       -1636.621          38.000  
G08  24695042.547   129773334.625        3584.848          41.000    24695042.352   101122057.852        2793.383          34.000  
S29  37175493.891   197915549.699           4.457          45.000  
S37  37214007.469   198117959.828           3.133          43.000  
R14  19278989.289   102767862.266        -866.059          49.000    19278997.625    79930659.730        -673.602          46.000  
R17  21100252.727   112911709.930        1822.230          45.000    21100253.961    87820220.453        1417.285          44.000  
R13  21850056.773   116678073.879       -4068.023          45.000    21850063.289    90749711.770       -3164.020          43.000  
R23  22684970.188   121349286.586       -3247.180          37.000    22684973.555    94382873.934       -2525.590          33.000  
R15  21338697.945   114027533.516        3188.723          45.000    21338703.844    88688108.293        2480.117          43.000  
