     3.04           OBSERVATION DATA    M: Mixed            RINEX VERSION / TYPE
CONVBIN demo5 b34f.1                    20220527 015938 UTC PGM / RUN BY / DATE 
log: /home/igor/git/flutter_rtklib/test/data/rcvraw/testglo.COMMENT             
format: RTCM 3                                              COMMENT             
format: RTCM 3                                              COMMENT             
log: /home/igor/git/flutter_rtklib/test/data/rcvraw/testglo.COMMENT             
0000                                                        MARKER NAME         
                                                            MARKER NUMBER       
                                                            MARKER TYPE         
                                                            OBSERVER / AGENCY   
                                                            REC # / TYPE / VERS 
                                                            ANT # / TYPE        
 -3869297.5138  3436571.3345  3717369.3757                  APPROX POSITION XYZ 
        0.0000        0.0000        0.0000                  ANTENNA: DELTA H/E/N
G    6 C1C L1C S1C C2W L2W S2W                              SYS / # / OBS TYPES 
R    6 C1C L1C S1C C2C L2C S2C                              SYS / # / OBS TYPES 
S    3 C1C L1C S1C                                          SYS / # / OBS TYPES 
  2009    12    18    23    07   00.0000000     GPS         TIME OF FIRST OBS   
  2009    12    18    23    10   05.0000000     GPS         TIME OF LAST OBS    
G L1C                                                       SYS / PHASE SHIFT   
G L2W  0.00000                                              SYS / PHASE SHIFT   
R L1C                                                       SYS / PHASE SHIFT   
R L2C                                                       SYS / PHASE SHIFT   
S L1C                                                       SYS / PHASE SHIFT   
  6 R08  6 R13 -2 R14 -7 R15  0 R17  4 R23  3               GLONASS SLOT / FRQ #
 C1C    0.000 C1P    0.000 C2C    0.000 C2P    0.000        GLONASS COD/PHS/BIS 
                                                            END OF HEADER       
> 2009 12 18 23 07 00.0000000  0 17                     
G03  20213931.126   106224925.3811         50.000    20213930.686    82772669.6791         42.250  
G22  24674143.136   129663497.5121         43.250    24674142.116   101036491.4041         35.250  
G07  21872691.096   114941768.4411         48.500    21872690.096    89565014.2791         41.750  
G06  21118916.980   110980657.8691         49.000    21118916.600    86478434.7481         41.250  
G13  24389990.178   128170263.2011         41.000    24389990.218    99872931.6211         31.000  
G19  20421761.464   107317080.9551         49.750    20421758.664    83623698.4831         45.500  
G11  23656735.484   124316983.9651         44.500    23656735.464    96870376.6291         31.500  
G16  22489005.270   118180519.3801         47.750    22489004.490    92088716.2911         38.500  
G08  24725783.236   129934868.0481         43.000    24725782.436   101247948.7111         33.750  
S29  37175538.352   195358771.5861         44.000  
S37  37214033.392   195561065.1041         41.750  
R14  19271851.392   102729811.6971         49.000    19271859.552    79900966.2851         43.000  
R17  21115654.940   112994134.1251         44.750    21115656.260    87884326.2691         41.250  
R13  21815847.816   116495409.3601         44.250    21815853.636    90607541.7561         41.000  
R23  22657649.972   121203148.6361         38.250    22657653.892    94269116.6651         33.750  
R15  21365654.620   114171579.6121         43.750    21365660.060    88800118.1061         39.750  
R08  23736508.824   127107926.6051         33.250    23736508.824    98861720.9661                 
> 2009 12 18 23 07 01.0000000  0 17                     
G03  20214148.146   106226065.803          50.000    20214147.706    82773558.319          42.500  
G22  24673855.596   129661986.563          43.750    24673854.516   101035314.039          34.000  
G07  21872342.136   114939934.646          48.500    21872341.136    89563585.350          41.250  
G06  21119224.160   110982272.011          49.000    21119223.780    86479692.521          41.500  
G13  24390445.118   128172653.892          41.250    24390445.098    99874794.494          31.750  
G19  20421726.664   107316898.146          49.750    20421723.864    83623556.034          45.750  
G11  23656032.084   124313287.510          44.750    23656032.024    96867496.276          33.000  
G16  22489402.790   118182608.325          47.750    22489402.010    92090344.039          38.750  
G08  24725099.236   129931273.620          42.750    24725098.496   101245147.853          33.750  
S29  37175537.312   195358766.124          44.000  
S37  37214032.732   195561061.599          41.750  
R14  19272006.252   102730637.199          48.750    19272014.412    79901608.344          43.000  
R17  21115310.940   112992293.472          44.750    21115312.280    87882894.648          41.000  
R13  21816606.416   116499460.301          44.250    21816612.276    90610692.483          40.750  
R23  22658257.212   121206396.830          37.750    22658261.092    94271643.038          34.000  
R15  21365053.380   114168366.709          43.500    21365058.820    88797619.181          40.000  
R08  23736249.604   127106538.906          33.250    23736249.604    98860641.3231                 
> 2009 12 18 23 07 02.0000000  0 17                     
G03  20214365.246   106227206.786          50.000    20214364.806    82774447.393          42.000  
G22  24673568.216   129660476.190          44.000    24673567.136   101034137.113          33.250  
G07  21871993.336   114938101.674          48.750    21871992.356    89562157.063          41.000  
G06  21119531.400   110983886.608          49.250    21119531.020    86480950.648          41.250  
G13  24390900.158   128175045.073          41.500    24390900.138    99876657.755          31.750  
G19  20421691.984   107316715.967          49.750    20421689.184    83623414.075          45.500  
G11  23655328.764   124309591.465          44.750    23655328.644    96864616.241          32.000  
G16  22489800.390   118184697.777          47.750    22489799.610    92091972.185          38.750  
G08  24724415.336   129927679.659          42.750    24724414.576   101242347.362          30.750  
S29  37175536.332   195358761.221          44.000  
S37  37214032.152   195561058.459          42.000  
R14  19272161.332   102731463.879          49.000    19272169.492    79902251.319          43.000  
R17  21114967.080   112990453.499          44.750    21114968.440    87881463.562          41.250  
R13  21817365.156   116503511.893          44.250    21817371.016    90613843.715          41.000  
R23  22658864.472   121209645.227          37.500    22658868.332    94274169.564          34.500  
R15  21364452.280   114165154.605          43.500    21364457.720    88795120.882          40.250  
R08  23735990.644   127105152.147          33.750    23735990.644    98859562.7641                 
> 2009 12 18 23 07 03.0000000  0 17                     
G03  20214582.466   106228348.183          50.000    20214582.026    82775336.793          42.250  
G22  24673280.876   129658966.240          44.000    24673279.776   101032960.524          33.500  
G07  21871644.676   114936269.372          48.750    21871643.696    89560729.295          41.250  
G06  21119838.700   110985501.491          49.250    21119838.320    86482208.997          41.750  
G13  24391355.238   128177436.579          41.500    24391355.198    99878521.268          35.250  
G19  20421657.424   107316534.269          49.750    20421654.624    83623272.496          45.250  
G11  23654625.504   124305895.667          44.750    23654625.384    96861736.390          32.500  
G16  22490198.070   118186787.565          47.500    22490197.290    92093600.596          38.250  
G08  24723731.516   129924086.014          42.750    24723730.696   101239547.127          32.500  
S29  37175535.432   195358756.478          44.000  
S37  37214031.652   195561055.616          41.750  
R14  19272316.612   102732291.547          49.000    19272324.772    79902895.061          43.000  
R17  21114623.340   112988614.042          44.750    21114624.700    87880032.873          41.250  
R13  21818123.976   116507563.957          44.250    21818129.856    90616995.312          41.000  
R23  22659471.732   121212893.736          38.000    22659475.612    94276696.174          34.000  
R15  21363851.300   114161943.102          43.500    21363856.760    88792623.051          40.000  
R08  23735731.884   127103766.084          33.250    23735731.884    98858485.0381                 
> 2009 12 18 23 07 04.0000000  0 17                     
G03  20214799.726   106229489.936          50.000    20214799.286    82776226.473          42.000  
G22  24672993.616   129657456.620          44.000    24672992.476   101031784.191          33.500  
G07  21871296.116   114934437.677          48.750    21871295.136    89559302.002          41.000  
G06  21120146.060   110987116.620          49.250    21120145.700    86483467.537          41.500  
G13  24391810.378   128179828.356          42.000    24391810.318    99880384.982          29.250  
G19  20421622.924   107316352.991          49.750    20421620.144    83623131.241          45.000  
G11  23653922.264   124302200.069          45.000    23653922.104    96858856.701          32.500  
G16  22490595.810   118188877.648          47.750    22490595.030    92095229.231          38.750  
G08  24723047.716   129920492.615          42.750    24723046.836   101236747.085          34.500  
S29  37175534.492   195358751.546          44.000  
S37  37214031.152   195561052.844          42.000  
R14  19272472.072   102733120.162          49.000    19272480.212    79903539.537          43.000  
R17  21114279.680   112986774.997          44.750    21114281.060    87878602.503          41.250  
R13  21818882.856   116511616.457          44.500    21818888.776    90620147.248          41.250  
R23  22660078.992   121216142.215          38.000    22660082.872    94279222.765          34.500  
R15  21363250.380   114158732.211          43.750    21363255.900    88790125.695          40.000  
R08  23735473.264   127102380.792          32.000    23735473.264    98857407.8951                 
> 2009 12 18 23 07 05.0000000  0 17                     
G03  20215017.046   106230632.026          50.000    20215016.606    82777116.413          42.000  
G22  24672706.436   129655947.343          44.250    24672705.236   101030608.127          33.250  
G07  21870947.656   114932606.591          48.750    21870946.696    89557875.180          40.750  
G06  21120453.440   110988731.963          49.250    21120453.060    86484726.252          41.000  
G13  24392265.558   128182220.388          42.000    24392265.458    99882248.887          30.750  
G19  20421588.504   107316172.123          49.750    20421585.724    83622990.307          45.000  
G11  23653219.064   124298504.652          44.750    23653218.844    96855977.147          33.500  
G16  22490993.590   118190968.019          48.000    22490992.810    92096858.088          38.000  
G08  24722363.956   129916899.435          42.500    24722363.056   101233947.196          33.750  
S29  37175533.612   195358746.861          44.000  
S37  37214030.612   195561050.172          42.000  
R14  19272627.692   102733949.715          49.000    19272635.812    79904184.745          42.750  
R17  21113936.100   112984936.428          44.750    21113937.460    87877172.507          41.250  
R13  21819641.836   116515669.349          44.750    21819647.756    90623299.492          41.000  
R23  22660686.272   121219390.719          38.000    22660690.172    94281749.375          34.000  
R15  21362649.620   114155521.881          44.000    21362655.160    88787628.778          40.250  
R08  23735214.664   127100996.150          31.750    23735214.664    98856330.8351                 
> 2009 12 18 23 07 06.0000000  0 17                     
G03  20215234.446   106231774.487          50.000    20215234.006    82778006.640          41.500  
G22  24672419.316   129654438.446          44.250    24672418.096   101029432.355          34.000  
G07  21870599.336   114930776.141          48.500    21870598.376    89556448.851          41.000  
G06  21120760.880   110990347.542          49.250    21120760.500    86485985.143          41.500  
G13  24392720.818   128184612.677          42.250    24392720.698    99884113.029          31.750  
G19  20421554.164   107315991.700          49.750    20421551.384    83622849.715          45.250  
G11  23652515.904   124294809.447          44.750    23652515.644    96853097.775          31.500  
G16  22491391.430   118193058.696          48.000    22491390.650    92098487.181          38.000  
G08  24721680.256   129913306.530          42.500    24721679.376   101231147.524          31.250  
S29  37175532.752   195358742.216          44.250  
S37  37214030.172   195561047.594          41.750  
R14  19272783.492   102734780.232          49.000    19272791.612    79904830.703          43.000  
R17  21113592.600   112983098.320          44.750    21113593.980    87875742.871          41.250  
R13  21820400.896   116519722.676          45.250    21820406.836    90626452.080          41.000  
R23  22661293.512   121222639.234          38.250    22661297.432    94284276.000          34.000  
R15  21362048.960   114152312.166          44.000    21362054.540    88785132.335          40.250  
R08  23734956.224   127099612.251          32.000    23734956.224    98855254.4411                 
> 2009 12 18 23 07 07.0000000  0 17                     
G03  20215451.946   106232917.418          50.000    20215451.506    82778897.240          42.000  
G22  24672132.276   129652930.004          44.250    24672130.996   101028256.931          34.500  
G07  21870251.156   114928946.412          48.500    21870250.196    89555023.088          41.250  
G06  21121068.400   110991963.495          49.250    21121068.000    86487244.325          41.750  
G13  24393176.118   128187005.363          42.250    24393175.938    99885977.459          30.500  
G19  20421519.944   107315811.814          49.750    20421517.164    83622709.547          45.250  
G11  23651812.804   124291114.553          44.750    23651812.524    96850218.645          33.750  
G16  22491789.370   118195149.780          47.750    22491788.570    92100116.597          38.500  
G08  24720996.616   129909713.996          42.500    24720995.716   101228348.147          30.750  
S29  37175531.912   195358737.883          44.250  
S37  37214029.752   195561045.166          42.000  
R14  19272939.492   102735611.821          49.000    19272947.592    79905477.495          43.250  
R17  21113249.220   112981260.760          44.750    21113250.600    87874313.660          41.000  
R13  21821160.056   116523776.554          45.500    21821165.996    90629605.093          41.000  
R23  22661900.872   121225887.890          38.000    22661904.772    94286802.728          34.250  
R15  21361448.440   114149103.142          44.250    21361454.020    88782636.430          40.500  
R08  23734697.944   127098229.165          32.500    23734697.944    98854178.7141                 
> 2009 12 18 23 07 08.0000000  0 17                     
G03  20215669.486   106234060.619          50.000    20215669.046    82779788.044          42.500  
G22  24671845.296   129651421.848          44.000    24671843.956   101027081.743          35.750  
G07  21869903.076   114927117.220          48.500    21869902.116    89553597.738          41.500  
G06  21121375.940   110993579.557          49.250    21121375.520    86488503.600          41.500  
G13  24393631.478   128189398.238          42.000    24393631.278    99887842.044          32.500  
G19  20421485.764   107315632.271          49.750    20421483.004    83622569.642          45.750  
G11  23651109.744   124287419.785          44.750    23651109.424    96847339.599          31.000  
G16  22492187.330   118197241.076          47.750    22492186.530    92101746.182          38.500  
G08  24720313.016   129906121.607          42.500    24720312.096   101225548.878          32.750  
S29  37175531.072   195358733.311          44.000  
S37  37214029.272   195561042.781          42.000  
R14  19273095.652   102736444.269          49.000    19273103.752    79906124.952          43.000  
R17  21112905.880   112979423.561          44.750    21112907.280    87872884.728          41.250  
R13  21821919.296   116527830.784          45.250    21821925.216    90632758.383          40.750  
R23  22662508.172   121229136.434          38.750    22662512.052    94289329.371          34.750  
R15  21360847.980   114145894.605          44.250    21360853.620    88780140.901          40.250  
R08  23734439.804   127096846.634          31.000    23734439.804    98853103.5701                 
> 2009 12 18 23 07 09.0000000  0 17                     
G03  20215887.046   106235203.918          50.250    20215886.606    82780678.928          42.250  
G22  24671558.336   129649913.797          44.250    24671556.936   101025906.644          33.750  
G07  21869555.056   114925288.381          48.250    21869554.116    89552172.673          41.000  
G06  21121683.460   110995195.667          49.250    21121683.040    86489762.905          41.750  
G13  24394086.818   128191791.113          41.750    24394086.678    99889706.620          31.250  
G19  20421451.644   107315452.890          49.750    20421448.884    83622429.861          45.250  
G11  23650406.644   124283724.943          45.000    23650406.324    96844460.503          32.250  
G16  22492585.290   118199332.399          47.750    22492584.470    92103375.783          38.250  
G08  24719629.416   129902529.222          42.000    24719628.536   101222749.622          32.750  
S29  37175530.192   195358728.637          44.250  
S37  37214028.812   195561040.148          42.250  
R14  19273251.952   102737277.409          49.000    19273260.052    79906772.950          42.750  
R17  21112562.580   112977586.563          44.750    21112564.020    87871455.953          41.250  
R13  21822678.556   116531885.174          45.250    21822684.496    90635911.802          40.750  
R23  22663115.432   121232384.809          38.750    22663119.312    94291855.881          34.250  
R15  21360247.620   114142686.377          44.250    21360253.260    88777645.609          40.250  
R08  23734181.744   127095464.595          30.500    23734181.744    98852028.7601                 
> 2009 12 18 23 07 10.0000000  0 17                     
G03  20216104.606   106236347.219          50.250    20216104.166    82781569.812          42.000  
G22  24671271.376   129648405.723          44.250    24671269.956   101024731.525          34.750  
G07  21869207.076   114923459.800          48.500    21869206.136    89550747.806          41.250  
G06  21121990.960   110996811.585          49.250    21121990.540    86491022.060          41.500  
G13  24394542.158   128194183.899          42.000    24394542.058    99891571.128          31.250  
G19  20421417.504   107315273.567          49.750    20421414.744    83622290.129          45.250  
G11  23649703.524   124280029.949          45.250    23649703.204    96841581.279          30.750  
G16  22492983.250   118201423.661          48.000    22492982.430    92105005.342          38.750  
G08  24718945.796   129898936.693          42.000    24718944.896   101219950.257          29.750  
S29  37175529.252   195358723.912          44.250  
S37  37214028.192   195561036.958          42.250  
R14  19273408.352   102738111.125          49.000    19273416.452    79907421.393          42.750  
R17  21112219.300   112975749.642          44.750    21112220.740    87870027.235          41.000  
R13  21823437.796   116535939.604          45.250    21823443.756    90639065.247          40.750  
R23  22663722.592   121235632.772          38.500    22663726.492    94294382.073          33.750  
R15  21359647.280   114139478.377          44.250    21359652.940    88775150.495          40.000  
R08  23733923.684   127094082.805          31.500    23733923.684    98850953.9491                 
> 2009 12 18 23 07 11.0000000  0 17                     
G03  20216322.226   106237490.786          50.250    20216321.786    82782460.903          42.000  
G22  24670984.476   129646897.938          44.500    24670983.056   101023556.630          33.000  
G07  21868859.196   114921631.749          48.500    21868858.276    89549323.357          41.250  
G06  21122298.500   110998427.659          49.250    21122298.080    86492281.335          41.500  
G13  24394997.518   128196576.884          41.750    24394997.398    99893435.772          27.500  
G19  20421383.444   107315094.584          49.750    20421380.684    83622150.663          45.250  
G11  23649000.424   124276335.073          45.250    23649000.144    96838702.157          31.500  
G16  22493381.250   118203515.126          48.000    22493380.430    92106635.055          38.000  
G08  24718262.176   129895344.351          42.000    24718261.356   101217151.027          31.000  
S29  37175528.312   195358719.136          44.250  
S37  37214027.532   195561033.537          42.250  
R14  19273564.912   102738945.702          49.250    19273573.012    79908070.511          43.000  
R17  21111876.100   112973913.083          44.750    21111877.540    87868598.798          41.000  
R13  21824197.136   116539994.360          45.500    21824203.076    90642218.946          40.750  
R23  22664329.732   121238880.653          38.250    22664333.652    94296908.204          33.250  
R15  21359047.020   114136270.861          44.000    21359052.680    88772655.758          40.000  
R08  23733665.824   127092701.687          29.750    23733665.824    98849879.9711                 
> 2009 12 18 23 07 12.0000000  0 17                     
G03  20216539.906   106238634.726          50.250    20216539.466    82783352.285          41.750  
G22  24670697.636   129645390.491          44.250    24670696.236   101022381.984          33.750  
G07  21868511.456   114919804.334          48.500    21868510.536    89547899.395          40.750  
G06  21122606.080   111000044.055          49.250    21122605.660    86493540.863          41.250  
G13  24395452.938   128198970.114          42.000    24395452.758    99895300.624          31.250  
G19  20421349.464   107314916.041          49.750    20421346.724    83622011.541          45.000  
G11  23648297.364   124272640.400          45.500    23648297.024    96835823.184          30.250  
G16  22493779.290   118205606.893          48.000    22493778.470    92108265.003          38.500  
G08  24717578.636   129891752.277          42.250    24717577.796   101214352.018          34.750  
S29  37175527.372   195358714.220          44.500  
S37  37214026.972   195561030.379          42.250  
R14  19273721.652   102739781.254          49.000    19273729.752    79908720.385          43.000  
R17  21111533.020   112972077.005          44.750    21111534.440    87867170.736          41.250  
R13  21824956.536   116544049.567          45.250    21824962.516    90645372.996          40.500  
R23  22664936.912   121242128.616          38.750    22664940.832    94299434.402          34.500  
R15  21358446.900   114133063.945          43.750    21358452.540    88770161.493          39.500  
R08  23733408.004   127091321.193          31.000    23733408.004    98848806.1601                 
> 2009 12 18 23 07 13.0000000  0 17                     
G03  20216757.626   106239778.865          50.250    20216757.186    82784243.818          41.750  
G22  24670410.856   129643883.292          44.500    24670409.456   101021207.541          35.000  
G07  21868163.776   114917977.363          48.500    21868162.856    89546475.783          40.750  
G06  21122913.680   111001660.504          49.250    21122913.260    86494800.436          41.500  
G13  24395908.378   128201363.460          42.000    24395908.118    99897165.556          33.500  
G19  20421315.544   107314737.761          49.750    20421312.804    83621872.620          45.250  
G11  23647594.304   124268945.781          45.250    23647593.904    96832944.269          29.750  
G16  22494177.390   118207698.802          48.000    22494176.570    92109895.062          38.750  
G08  24716895.116   129888160.300          42.500    24716894.356   101211553.061          33.500  
S29  37175526.412   195358709.340          44.500  
S37  37214026.372   195561027.184          42.500  
R14  19273878.572   102740617.593          49.000    19273886.652    79909370.872          43.000  
R17  21111189.960   112970241.190          44.500    21111191.380    87865742.879          41.250  
R13  21825715.996   116548105.014          45.500    21825721.976    90648527.235          40.750  
R23  22665544.092   121245376.443          38.250    22665548.012    94301960.490          34.250  
R15  21357846.840   114129857.420          43.500    21357852.460    88767667.520          40.000  
R08  23733150.164   127089941.334          29.750    23733150.164    98847732.2651                 
> 2009 12 18 23 07 14.0000000  0 16                     
G03  20216975.406   106240923.330          50.250    20216974.966    82785135.613          42.250  
G22  24670124.116   129642376.379          44.500    24670122.696   101020033.329          34.750  
G07  21867816.236   114916150.994          48.500    21867815.316    89545052.641          40.750  
G06  21123221.320   111003277.142          49.250    21123220.900    86496060.154          41.500  
G13  24396363.878   128203757.050          42.000    24396363.518    99899030.681          32.250  
G19  20421281.684   107314559.886          50.000    20421278.944    83621734.016          45.250  
G11  23646891.284   124265251.342          45.250    23646890.864    96830065.491          29.000  
G16  22494575.510   118209790.973          48.000    22494574.690    92111525.325          38.500  
G08  24716211.636   129884568.546          42.250    24716210.836   101208754.283          29.000  
S29  37175525.352   195358703.920          44.250  
S37  37214025.792   195561024.146          42.250  
R14  19274035.632   102741454.848          49.000    19274043.712    79910022.069          42.750  
R17  21110846.980   112968405.811          44.500    21110848.400    87864315.360          41.250  
R13  21826475.516   116552160.862          45.500    21826481.516    90651681.781          41.000  
R23  22666151.212   121248624.249          38.500    22666155.172    94304486.555          34.500  
R15  21357246.880   114126651.440          43.250    21357252.480    88765173.978          39.500  
> 2009 12 18 23 07 15.0000000  0 16                     
G03  20217193.266   106242068.271          50.250    20217192.826    82786027.775          42.500  
G22  24669837.476   129640869.971          44.750    24669836.056   101018859.515          35.750  
G07  21867468.836   114914325.358          48.500    21867467.916    89543630.069          41.000  
G06  21123529.020   111004894.098          49.250    21123528.620    86497320.121          41.750  
G13  24396819.438   128206151.020          42.500    24396819.118    99900896.113          32.000  
G19  20421247.944   107314382.550          50.000    20421245.204    83621595.832          45.250  
G11  23646188.344   124261557.196          45.250    23646187.844    96827186.926          31.500  
G16  22494973.710   118211883.568          48.000    22494972.910    92113155.916          39.250  
G08  24715528.216   129880977.153          41.750    24715527.456   101205955.793          31.250  
S29  37175524.332   195358698.728          44.250  
S37  37214025.312   195561021.351          42.250  
R14  19274192.912   102742293.178          49.000    19274200.972    79910674.105          43.000  
R17  21110504.080   112966570.990          44.750    21110505.500    87862888.280          41.250  
R13  21827235.136   116556217.254          45.250    21827241.156    90654836.753          41.000  
R23  22666758.412   121251872.180          38.500    22666762.372    94307012.726          34.500  
R15  21356647.060   114123446.125          43.500    21356652.620    88762680.955          40.000  
> 2009 12 18 23 07 16.0000000  0 16                     
G03  20217411.186   106243213.427          50.250    20217410.746    82786920.109          41.500  
G22  24669550.876   129639363.770          44.500    24669549.456   101017685.846          35.000  
G07  21867121.516   114912500.208          48.750    21867120.576    89542207.874          40.500  
G06  21123836.740   111006511.167          49.250    21123836.320    86498580.177          40.750  
G13  24397275.018   128208545.117          42.500    24397274.718    99902761.647          33.750  
G19  20421214.244   107314205.497          49.750    20421211.524    83621457.867          44.500  
G11  23645485.384   124257863.116          45.250    23645484.804    96824308.410          32.750  
G16  22495371.970   118213976.309          47.750    22495371.170    92114786.622          38.000  
G08  24714844.816   129877385.846          42.250    24714843.996   101203157.378          32.000  
S29  37175523.312   195358693.407          44.250  
S37  37214024.792   195561018.655          42.250  
R14  19274350.332   102743132.310          49.000    19274358.392    79911326.761          42.500  
R17  21110161.260   112964736.465          44.750    21110162.680    87861461.424          40.750  
R13  21827994.816   116560273.935          45.250    21828000.856    90657991.952          40.500  
R23  22667365.572   121255120.016          38.750    22667369.532    94309538.820          33.000  
R15  21356047.300   114120241.280          43.500    21356052.860    88760188.300          39.000  
> 2009 12 18 23 07 17.0000000  0 16                     
G03  20217629.166   106244358.839          50.250    20217628.706    82787812.631          41.250  
G22  24669264.316   129637857.821          44.500    24669262.896   101016512.381          33.750  
G07  21866774.296   114910675.573          48.750    21866773.356    89540786.081          40.000  
G06  21124144.480   111008128.402          49.250    21124144.060    86499840.360          40.500  
G13  24397730.618   128210939.374          42.750    24397730.318    99904627.304          31.000  
G19  20421180.604   107314028.776          49.750    20421177.864    83621320.162          44.500  
G11  23644782.464   124254169.150          45.250    23644781.864    96821429.994          32.250  
G16  22495770.250   118216069.253          47.750    22495769.430    92116417.489          38.750  
G08  24714161.436   129873794.730          42.250    24714160.636   101200359.106          29.500  
S29  37175522.252   195358687.845          44.250  
S37  37214024.252   195561015.746          42.250  
R14  19274507.912   102743972.295          49.250    19274515.952    79911980.083          42.500  
R17  21109818.500   112962902.308          44.500    21109819.920    87860034.856          40.500  
R13  21828754.556   116564330.963          45.250    21828760.616    90661147.414          40.500  
R23  22667972.752   121258367.749          39.000    22667976.692    94312064.830          33.250  
R15  21355447.680   114117036.879          43.500    21355453.180    88757695.988          39.250  
> 2009 12 18 23 07 18.0000000  0 16                     
G03  20217847.186   106245504.557          50.250    20217846.726    82788705.398          41.250  
G22  24668977.816   129636352.188          44.250    24668976.376   101015339.162          34.000  
G07  21866427.196   114908851.500          48.750    21866426.236    89539364.727          40.500  
G06  21124452.260   111009745.794          49.250    21124451.840    86501100.661          41.250  
G13  24398186.298   128213333.852          43.000    24398186.018    99906493.151          31.500  
G19  20421147.044   107313852.419          49.750    20421144.324    83621182.741          44.750  
G11  23644079.564   124250475.320          44.750    23644078.904    96818551.693          33.750  
G16  22496168.570   118218162.439          47.750    22496167.770    92118048.539          37.750  
G08  24713478.096   129870203.812          42.000    24713477.296   101197560.984          31.000  
S29  37175521.272   195358682.808          44.250  
S37  37214023.672   195561012.782          42.250  
R14  19274665.652   102744813.167          49.000    19274673.692    79912634.095          42.750  
R17  21109475.820   112961068.523          44.250    21109477.240    87858608.581          40.750  
R13  21829514.396   116568388.351          45.500    21829520.456    90664303.156          40.750  
R23  22668579.872   121261615.424          38.750    22668583.812    94314590.802          33.500  
R15  21354848.100   114113833.020          43.750    21354853.600    88755204.100          39.500  
> 2009 12 18 23 07 19.0000000  0 16                     
G03  20218065.266   106246650.578          50.250    20218064.806    82789598.402          41.750  
G22  24668691.356   129634846.865          44.500    24668689.896   101014166.181          35.000  
G07  21866080.196   114907027.984          48.750    21866079.236    89537943.806          41.000  
G06  21124760.080   111011363.409          49.250    21124759.640    86502361.141          41.500  
G13  24398641.978   128215728.556          42.750    24398641.758    99908359.165          30.750  
G19  20421113.564   107313676.439          49.750    20421110.844    83621045.615          45.000  
G11  23643376.704   124246781.650          45.500    23643376.004    96815673.513          31.000  
G16  22496566.930   118220255.880          47.750    22496566.150    92119679.792          38.500  
G08  24712794.836   129866613.094          41.500    24712794.016   101194763.026          33.750  
S29  37175520.252   195358677.547          44.000  
S37  37214023.052   195561009.269          42.500  
R14  19274823.572   102745654.956          49.000    19274831.612    79913288.822          42.750  
R17  21109133.220   112959235.191          44.250    21109134.620    87857182.658          40.750  
R13  21830274.276   116572446.132          45.250    21830280.376    90667459.208          40.500  
R23  22669186.972   121264863.095          38.750    22669190.932    94317116.767          33.750  
R15  21354248.640   114110629.711          44.000    21354254.160    88752712.640          39.500  
> 2009 12 18 23 07 20.0000000  0 16                     
G03  20218283.386   106247796.825          50.250    20218282.926    82790491.579          41.750  
G22  24668404.956   129633341.767          44.250    24668403.496   101012993.384          33.500  
G07  21865733.296   114905204.950          49.000    21865732.316    89536523.255          40.250  
G06  21125067.940   111012981.127          49.250    21125067.500    86503621.701          41.500  
G13  24399097.718   128218123.389          42.750    24399097.458    99910225.266          31.750  
G19  20421080.144   107313500.755          49.750    20421077.424    83620908.721          44.250  
G11  23642673.864   124243088.046          45.750    23642673.084    96812795.378          32.000  
G16  22496965.330   118222349.459          47.750    22496964.530    92121311.150          37.250  
G08  24712111.556   129863022.483          41.750    24712110.796   101191965.152          32.250  
S29  37175519.252   195358672.274          44.000  
S37  37214022.352   195561005.528          42.250  
R14  19274981.652   102746497.561          49.000    19274989.672    79913944.177          42.500  
R17  21108790.660   112957402.174          44.500    21108792.080    87855756.976          40.750  
R13  21831034.216   116576504.186          45.500    21831040.316    90670615.463          40.750  
R23  22669794.112   121268110.620          38.500    22669798.072    94319642.621          33.250  
R15  21353649.260   114107426.852          43.750    21353654.780    88750221.523          39.500  
> 2009 12 18 23 07 21.0000000  0 16                     
G03  20218501.586   106248943.487          50.250    20218501.146    82791385.086          41.500  
G22  24668118.636   129631837.069          44.250    24668117.156   101011820.892          33.500  
G07  21865386.516   114903382.593          49.000    21865385.516    89535103.239          40.250  
G06  21125375.820   111014599.166          49.250    21125375.380    86504882.506          41.250  
G13  24399553.518   128220518.534          42.500    24399553.238    99912091.625          32.500  
G19  20421046.784   107313325.555          49.750    20421044.064    83620772.203          44.500  
G11  23641971.064   124239394.717          45.750    23641970.304    96809917.464          30.750  
G16  22497363.790   118224443.402          47.750    22497362.990    92122942.790          38.500  
G08  24711428.336   129859432.211          41.750    24711427.576   101189167.533          30.750  
S29  37175518.292   195358667.247          44.250  
S37  37214021.752   195561002.033          42.500  
R14  19275139.912   102747341.178          49.000    19275147.932    79914600.324          42.500  
R17  21108448.200   112955569.658          44.250    21108449.620    87854331.687          40.500  
R13  21831794.236   116580562.709          45.500    21831800.376    90673772.092          40.750  
R23  22670401.232   121271358.228          38.750    22670405.192    94322168.534          33.250  
R15  21353050.040   114104224.671          43.500    21353055.560    88747730.938          39.500  
> 2009 12 18 23 07 22.0000000  0 16                     
G03  20218719.866   106250090.503          50.250    20218719.406    82792278.861          41.000  
G22  24667832.396   129630332.760          44.750    24667830.896   101010648.697          33.250  
G07  21865039.856   114901560.861          49.000    21865038.856    89533683.708          40.250  
G06  21125683.780   111016217.454          49.250    21125683.340    86506143.512          40.750  
G13  24400009.358   128222913.971          42.750    24400009.098    99913958.195          31.500  
G19  20421013.524   107313150.783          49.750    20421010.804    83620636.019          44.750  
G11  23641268.304   124235701.576          45.750    23641267.484    96807039.683          31.000  
G16  22497762.310   118226537.649          48.000    22497761.510    92124574.671          37.500  
G08  24710745.156   129855842.184          41.500    24710744.376   101186370.109          30.000  
S29  37175517.252   195358661.887          44.250  
S37  37214021.132   195560998.699          42.500  
R14  19275298.352   102748185.742          49.000    19275306.372    79915257.204          42.500  
R17  21108105.840   112953737.604          44.500    21108107.260    87852906.755          40.750  
R13  21832554.376   116584621.662          45.500    21832560.516    90676929.051          40.500  
R23  22671008.352   121274605.825          39.250    22671012.332    94324694.443          33.000  
R15  21352450.920   114101023.070          44.000    21352456.420    88745240.803          39.500  
> 2009 12 18 23 07 23.0000000  0 16                     
G03  20218938.186   106251237.856          50.250    20218937.726    82793172.902          41.250  
G22  24667546.196   129628828.774          44.500    24667544.696   101009476.764          33.500  
G07  21864693.296   114899739.726          49.000    21864692.276    89532264.637          40.000  
G06  21125991.760   111017835.895          49.250    21125991.320    86507404.636          40.750  
G13  24400465.238   128225309.642          42.500    24400465.018    99915824.958          32.500  
G19  20420980.364   107312976.413          49.750    20420977.644    83620500.143          45.000  
G11  23640565.564   124232008.628          45.750    23640564.704    96804162.066          29.250  
G16  22498160.890   118228632.167          47.750    22498160.090    92126206.763          37.500  
G08  24710062.036   129852252.390          41.500    24710061.316   101183572.871          31.750  
S29  37175516.272   195358656.792          44.250  
S37  37214020.512   195560995.346          42.250  
R14  19275456.952   102749031.241          49.000    19275464.952    79915914.817          42.500  
R17  21107763.540   112951905.949          44.250    21107764.980    87851482.132          40.750  
R13  21833314.576   116588680.991          45.750    21833320.716    90680086.306          41.000  
R23  22671615.472   121277853.451          39.000    22671619.412    94327220.375          33.250  
R15  21351851.880   114097822.032          44.000    21351857.420    88742751.108          40.000  
> 2009 12 18 23 07 24.0000000  0 16                     
G03  20219156.606   106252385.661          50.250    20219156.146    82794067.295          41.250  
G22  24667260.096   129627325.248          44.500    24667258.556   101008305.188          32.750  
G07  21864346.896   114897919.326          49.000    21864345.856    89530846.144          40.000  
G06  21126299.800   111019454.690          49.250    21126299.340    86508666.029          41.250  
G13  24400921.198   128227705.702          42.500    24400920.998    99917692.013          31.250  
G19  20420947.264   107312802.574          50.000    20420944.544    83620364.681          44.750  
G11  23639862.904   124228315.960          45.750    23639862.024    96801284.658          32.000  
G16  22498559.530   118230727.076          47.750    22498558.750    92127839.160          38.250  
G08  24709378.976   129848662.952          41.750    24709378.316   101180775.908          28.250  
S29  37175515.372   195358651.958          44.250  
S37  37214019.932   195560992.319          42.250  
R14  19275615.792   102749877.804          49.000    19275623.772    79916573.253          42.500  
R17  21107421.360   112950074.861          44.500    21107422.800    87850057.957          40.500  
R13  21834074.856   116592740.892          46.000    21834081.016    90683244.004          40.750  
R23  22672222.592   121281101.222          39.250    22672226.572    94329746.421          33.500  
R15  21351252.980   114094621.690          44.250    21351258.520    88740261.952          39.250  
> 2009 12 18 23 07 25.0000000  0 16                     
G03  20219375.106   106253533.873          50.250    20219374.646    82794962.006          41.250  
G22  24666974.076   129625822.145          44.500    24666972.536   101007133.936          33.500  
G07  21864000.616   114896099.592          49.000    21863999.576    89529428.165          40.250  
G06  21126607.900   111021073.764          49.250    21126607.440    86509927.651          40.500  
G13  24401377.238   128230102.066          42.500    24401377.058    99919559.304          32.000  
G19  20420914.284   107312629.205          50.000    20420911.564    83620229.591          44.500  
G11  23639160.264   124224623.561          45.750    23639159.384    96798407.454          31.500  
G16  22498958.250   118232822.354          48.000    22498957.470    92129471.841          37.500  
G08  24708695.976   129845073.820          42.000    24708695.336   101177979.189          29.750  
S29  37175514.432   195358647.178          44.500  
S37  37214019.392   195560989.581          42.500  
R14  19275774.792   102750725.363          49.000    19275782.772    79917232.463          42.500  
R17  21107079.280   112948244.285          44.500    21107080.720    87848634.179          40.500  
R13  21834835.236   116596801.252          46.000    21834841.396    90686402.064          40.500  
R23  22672829.752   121284349.047          39.000    22672833.732    94332272.506          32.750  
R15  21350654.200   114091421.996          44.250    21350659.740    88737773.302          39.250  
> 2009 12 18 23 07 26.0000000  0 16                     
G03  20219593.646   106254682.314          50.250    20219593.186    82795856.897          41.250  
G22  24666688.096   129624319.268          44.500    24666686.536   101005962.859          33.750  
G07  21863654.436   114894280.364          49.250    21863653.396    89528010.587          39.750  
G06  21126916.000   111022692.911          49.500    21126915.540    86511189.324          41.250  
G13  24401833.278   128232498.567          43.000    24401833.098    99921426.693          33.750  
G19  20420881.364   107312456.148          50.000    20420878.644    83620094.740          44.250  
G11  23638457.664   124220931.240          45.500    23638456.764    96795530.322          31.500  
G16  22499357.010   118234917.789          48.000    22499356.230    92131104.643          38.000  
G08  24708013.016   129841484.815          41.750    24708012.316   101175182.575          31.250  
S29  37175513.432   195358642.002          44.250  
S37  37214018.872   195560986.925          42.500  
R14  19275933.952   102751573.744          49.000    19275941.932    79917892.317          42.750  
R17  21106737.260   112946414.013          44.500    21106738.700    87847210.631          40.250  
R13  21835595.716   116600861.935          45.750    21835601.856    90689560.373          40.500  
R23  22673436.872   121287596.769          39.000    22673440.872    94334798.511          33.250  
R15  21350055.500   114088222.741          44.250    21350061.080    88735284.990          39.250  
> 2009 12 18 23 07 27.0000000  0 16                     
G03  20219812.226   106255830.975          50.250    20219811.766    82796751.960          41.250  
G22  24666402.136   129622816.606          44.500    24666400.536   101004791.946          33.250  
G07  21863308.336   114892461.596          49.000    21863307.276    89526593.364          40.500  
G06  21127224.140   111024312.187          49.250    21127223.680    86512451.098          41.250  
G13  24402289.358   128234895.200          43.000    24402289.198    99923294.199          33.500  
G19  20420848.464   107312283.366          50.000    20420845.764    83619960.106          44.500  
G11  23637755.084   124217238.975          45.250    23637754.144    96792653.239          33.500  
G16  22499755.770   118237013.373          48.000    22499755.010    92132737.569          38.000  
G08  24707330.076   129837895.941          41.250    24707329.456   101172386.042          33.250  
S29  37175512.372   195358636.603          44.250  
S37  37214018.352   195560984.053          42.250  
R14  19276093.252   102752422.937          49.000    19276101.232    79918552.798          42.250  
R17  21106395.300   112944584.047          44.500    21106396.720    87845787.325          40.500  
R13  21836356.216   116604922.885          45.750    21836362.336    90692718.892          40.500  
R23  22674043.992   121290844.372          38.750    22674047.992    94337324.422          33.500  
R15  21349456.880   114085023.943          44.250    21349462.440    88732797.036          39.500  
> 2009 12 18 23 07 28.0000000  0 16                     
G03  20220030.866   106256979.878          50.250    20220030.426    82797647.209          41.250  
G22  24666116.256   129621314.200          44.500    24666114.616   101003621.235          34.000  
G07  21862962.336   114890643.343          49.000    21862961.276    89525176.547          40.500  
G06  21127532.300   111025931.616          49.250    21127531.840    86513712.986          41.250  
G13  24402745.438   128237291.961          42.750    24402745.258    99925161.789          33.250  
G19  20420815.644   107312110.903          50.000    20420812.944    83619825.722          44.750  
G11  23637052.504   124213546.798          45.250    23637051.504    96789776.212          32.250  
G16  22500154.590   118239109.131          48.000    22500153.810    92134370.629          37.750  
G08  24706647.136   129834307.183          41.250    24706646.596   101169589.609          27.000  
S29  37175511.412   195358631.584          44.250  
S37  37214017.772   195560981.055          42.250  
R14  19276252.712   102753272.964          49.000    19276260.692    79919213.933          43.250  
R17  21106053.380   112942754.428          44.500    21106054.800    87844364.289          41.250  
R13  21837116.756   116608984.127          45.500    21837122.896    90695877.637          41.000  
R23  22674651.052   121294091.875          39.250    22674655.112    94339850.256          34.000  
R15  21348858.340   114081825.612          44.500    21348863.940    88730309.443          40.000  
> 2009 12 18 23 07 29.0000000  0 16                     
G03  20220249.546   106258129.118          50.250    20220249.106    82798542.714          42.000  
G22  24665830.416   129619812.124          44.250    24665828.756   101002450.780          32.250  
G07  21862616.456   114888825.687          48.750    21862615.396    89523760.192          40.750  
G06  21127840.520   111027551.241          49.250    21127840.060    86514975.028          41.500  
G13  24403201.598   128239688.998          43.000    24403201.458    99927029.602          31.500  
G19  20420782.904   107311938.845          49.750    20420780.204    83619691.653          45.250  
G11  23636349.944   124209854.805          45.250    23636348.944    96786899.340          33.500  
G16  22500553.470   118241205.181          48.000    22500552.690    92136003.916          38.500  
G08  24705964.276   129830718.653          41.250    24705963.656   101166793.362          31.000  
S29  37175510.452   195358626.397          44.250  
S37  37214017.232   195560978.283          42.250  
R14  19276412.352   102754123.928          49.000    19276420.332    79919875.795          43.000  
R17  21105711.560   112940925.259          44.500    21105712.980    87842941.606          41.250  
R13  21837877.356   116613045.782          45.250    21837883.516    90699036.698          41.250  
R23  22675258.152   121297339.360          38.750    22675262.232    94342376.075          34.250  
R15  21348259.900   114078627.823          44.250    21348265.500    88727822.274          40.250  
> 2009 12 18 23 07 30.0000000  0 17                     
G03  20220468.286   106259278.623          50.250    20220467.846    82799438.432          42.000  
G22  24665544.656   129618310.316          44.250    24665542.956   101001280.535          32.250  
G07  21862270.676   114887008.564          49.000    21862269.616    89522344.252          40.750  
G06  21128148.740   111029171.027          49.250    21128148.300    86516237.201          41.750  
G13  24403657.758   128242086.193          43.250    24403657.618    99928897.548          31.250  
G19  20420750.224   107311767.119          49.750    20420747.524    83619557.840          45.000  
G11  23635647.424   124206162.935          45.500    23635646.444    96784022.566          32.000  
G16  22500952.370   118243301.441          48.000    22500951.610    92137637.364          38.250  
G08  24705281.436   129827130.310          41.500    24705280.856   101163997.241          31.750  
S29  37175509.412   195358621.234          44.000  
S37  37214016.752   195560975.437          42.000  
R14  19276572.152   102754975.751          49.000    19276580.132    79920538.323          43.250  
R17  21105369.820   112939096.442          44.500    21105371.240    87841519.195          41.500  
R13  21838638.036   116617107.778          45.000    21838644.196    90702196.029          41.000  
R23  22675865.212   121300586.754          39.250    22675869.252    94344901.828          33.750  
R15  21347661.580   114075430.524          44.000    21347667.180    88725335.484          40.000  
R08  23728788.024   127066581.4021         33.250    23728788.024    98829564.1061                 
> 2009 12 18 23 07 31.0000000  0 17                     
G03  20220687.146   106260428.635          50.250    20220686.706    82800334.546          42.000  
G22  24665258.976   129616809.021          44.000    24665257.256   101000110.700          34.250  
G07  21861925.036   114885192.214          48.750    21861923.976    89520928.916          41.250  
G06  21128457.040   111030791.173          49.250    21128456.600    86517499.652          41.750  
G13  24404114.018   128244483.816          43.250    24404113.858    99930765.824          30.250  
G19  20420717.644   107311595.962          49.750    20420714.944    83619424.469          45.250  
G11  23634944.964   124202471.417          45.000    23634944.004    96781146.061          32.750  
G16  22501351.370   118245398.129          48.250    22501350.610    92139271.147          38.750  
G08  24704598.656   129823542.387          41.250    24704598.096   101161201.444          32.750  
S29  37175508.432   195358616.287          44.250  
S37  37214016.172   195560972.539          42.000  
R14  19276732.152   102755828.679          49.000    19276740.132    79921201.711          43.250  
R17  21105028.160   112937268.220          44.250    21105029.600    87840097.245          41.500  
R13  21839398.836   116621170.322          45.000    21839405.016    90705355.781          41.250  
R23  22676472.332   121303834.321          38.500    22676476.352    94347427.707          34.000  
R15  21347063.360   114072233.938          44.000    21347068.980    88722849.248          40.250  
R08  23728532.644   127065213.527          33.500    23728532.644    98828500.4581                 
> 2009 12 18 23 07 32.0000000  0 17                     
G03  20220906.046   106261578.980          50.250    20220905.606    82801230.921          42.250  
G22  24664973.336   129615308.065          44.000    24664971.596   100998941.130          33.500  
G07  21861579.516   114883376.465          48.750    21861578.456    89519514.043          40.750  
G06  21128765.400   111032411.553          49.250    21128764.940    86518762.286          42.000  
G13  24404570.318   128246881.681          43.250    24404570.158    99932634.294          34.500  
G19  20420685.164   107311425.223          49.750    20420682.464    83619291.426          45.250  
G11  23634242.524   124198780.067          45.000    23634241.584    96778269.686          35.000  
G16  22501750.410   118247495.098          48.000    22501749.650    92140905.149          38.500  
G08  24703915.936   129819954.643          41.250    24703915.396   101158405.793          31.500  
S29  37175507.492   195358611.321          44.250  
S37  37214015.572   195560969.623          42.000  
R14  19276892.332   102756682.542          49.000    19276900.332    79921865.822          43.250  
R17  21104686.580   112935440.410          44.500    21104688.040    87838675.610          41.250  
R13  21840159.676   116625233.267          44.750    21840165.856    90708515.843          41.000  
R23  22677079.492   121307081.868          38.500    22677083.452    94349953.577          34.250  
R15  21346465.280   114069037.886          44.000    21346470.900    88720363.428          40.500  
R08  23728277.284   127063846.306          33.500    23728277.284    98827436.8921                 
> 2009 12 18 23 07 33.0000000  0 17                     
G03  20221124.986   106262729.581          50.250    20221124.546    82802127.493          41.500  
G22  24664687.776   129613807.366          43.750    24664685.996   100997771.762          32.500  
G07  21861234.076   114881561.229          48.500    21861233.016    89518099.573          41.000  
G06  21129073.760   111034032.037          49.250    21129073.300    86520025.001          41.000  
G13  24405026.658   128249279.738          43.000    24405026.458    99934502.918          30.500  
G19  20420652.724   107311254.808          49.750    20420650.024    83619158.632          44.500  
G11  23633540.124   124195088.830          45.000    23633539.184    96775393.394          32.250  
G16  22502149.490   118249592.257          48.000    22502148.710    92142539.298          37.750  
G08  24703233.256   129816367.083          41.250    24703232.676   101155610.294          32.750  
S29  37175506.632   195358606.481          44.250  
S37  37214014.952   195560966.501          42.000  
R14  19277052.672   102757537.241          49.000    19277060.652    79922530.591          42.250  
R17  21104345.060   112933612.959          44.250    21104346.560    87837254.255          40.750  
R13  21840920.596   116629296.532          44.750    21840926.776    90711676.156          40.250  
R23  22677686.532   121310329.326          38.500    22677690.512    94352479.375          33.250  
R15  21345867.300   114065842.337          43.750    21345872.920    88717877.999          39.750  
R08  23728022.124   127062479.708          32.750    23728022.124    98826374.1601                 
> 2009 12 18 23 07 34.0000000  0 17                     
G03  20221344.046   106263880.712          50.250    20221343.586    82803024.478          41.750  
G22  24664402.296   129612307.205          43.500    24664400.516   100996602.794          33.500  
G07  21860888.816   114879746.794          48.500    21860887.756    89516685.729          40.750  
G06  21129382.200   111035652.908          49.250    21129381.740    86521288.015          41.250  
G13  24405483.098   128251678.236          42.750    24405482.898    99936371.873          30.500  
G19  20420620.404   107311084.984          49.750    20420617.704    83619026.304          44.750  
G11  23632837.764   124191397.974          44.500    23632836.784    96772517.403          31.750  
G16  22502548.670   118251689.907          48.000    22502547.890    92144173.829          37.750  
G08  24702550.636   129812779.964          41.250    24702550.036   101152815.145          30.750  
S29  37175505.672   195358601.499          44.000  
S37  37214014.452   195560963.816          42.250  
R14  19277213.212   102758393.066          48.750    19277221.192    79923196.230          42.250  
R17  21104003.660   112931786.131          44.250    21104005.180    87835833.391          40.500  
R13  21841681.636   116633360.401          44.750    21841687.836    90714836.937          40.500  
R23  22678293.652   121313576.987          39.000    22678297.612    94355005.334          33.000  
R15  21345269.460   114062647.538          43.250    21345275.060    88715393.155          39.500  
R08  23727767.084   127061113.967          33.750    23727767.084    98825311.9271                 
> 2009 12 18 23 07 35.0000000  0 17                     
G03  20221563.166   106265032.164          50.250    20221562.726    82803921.711          41.750  
G22  24664116.876   129610807.353          43.250    24664115.096   100995434.088          33.250  
G07  21860543.656   114877932.937          48.500    21860542.596    89515272.334          41.000  
G06  21129690.680   111037273.995          49.250    21129690.240    86522551.202          41.000  
G13  24405939.538   128254076.939          43.000    24405939.318    99938240.982          34.000  
G19  20420588.164   107310915.553          49.750    20420585.464    83618894.280          44.750  
G11  23632135.464   124187707.289          44.500    23632134.464    96769641.538          30.500  
G16  22502947.890   118253787.791          48.000    22502947.090    92145808.543          38.500  
G08  24701868.076   129809193.058          41.000    24701867.516   101150020.149          34.750  
S29  37175504.732   195358596.717          44.000  
S37  37214013.892   195560961.081          42.000  
R14  19277373.932   102759249.807          48.750    19277381.932    79923862.584          42.500  
R17  21103662.320   112929959.707          44.250    21103663.880    87834412.839          40.750  
R13  21842442.736   116637424.643          45.250    21842448.936    90717998.010          40.500  
R23  22678900.812   121316824.643          38.750    22678904.752    94357531.284          33.000  
R15  21344671.700   114059453.290          43.500    21344677.320    88712908.742          39.500  
R08  23727512.224   127059748.898          33.750    23727512.224    98824250.4441                 
> 2009 12 18 23 07 36.0000000  0 17                     
G03  20221782.306   106266183.808          50.250    20221781.866    82804819.096          41.500  
G22  24663831.496   129609307.705          43.250    24663829.736   100994265.533          33.500  
G07  21860198.576   114876119.540          48.500    21860197.516    89513859.300          41.250  
G06  21129999.180   111038895.150          49.250    21129998.740    86523814.439          41.000  
G13  24406396.038   128256475.773          43.250    24406395.818    99940110.212          30.500  
G19  20420555.984   107310746.381          49.750    20420553.284    83618762.457          44.750  
G11  23631433.144   124184016.639          44.250    23631432.144    96766765.710          33.250  
G16  22503347.130   118255885.811          47.750    22503346.330    92147443.360          37.250  
G08  24701185.496   129805606.223          41.000    24701184.976   101147225.200          33.250  
S29  37175503.792   195358591.830          44.250  
S37  37214013.312   195560958.106          42.000  
R14  19277534.792   102760107.316          49.000    19277542.772    79924529.534          42.500  
R17  21103321.060   112928133.582          44.250    21103322.640    87832992.522          40.750  
R13  21843203.876   116641489.141          45.250    21843210.096    90721159.282          40.500  
R23  22679507.872   121320072.205          38.250    22679511.852    94360057.162          34.000  
R15  21344073.980   114056259.432          43.500    21344079.620    88710424.632          39.750  
R08  23727257.324   127058384.362          33.750    23727257.324    98823188.7951                 
> 2009 12 18 23 07 37.0000000  0 17                     
G03  20222001.466   106267335.572          50.250    20222001.026    82805716.575          42.250  
G22  24663546.156   129607808.183          43.500    24663544.376   100993097.083          34.250  
G07  21859853.576   114874306.537          48.500    21859852.536    89512446.574          41.250  
G06  21130307.680   111040516.360          49.250    21130307.240    86525077.724          42.000  
G13  24406852.538   128258874.610          43.000    24406852.338    99941979.446          31.750  
G19  20420523.824   107310577.392          49.750    20420521.124    83618630.780          45.500  
G11  23630730.804   124180325.943          44.000    23630729.864    96763889.844          34.000  
G16  22503746.390   118257983.889          47.750    22503745.590    92149078.228          38.750  
G08  24700502.956   129802019.427          40.750    24700502.356   101144430.299          33.250  
S29  37175502.872   195358586.893          44.250  
S37  37214012.692   195560954.995          42.250  
R14  19277695.792   102760965.548          49.000    19277703.792    79925197.049          43.000  
R17  21102979.860   112926307.661          44.250    21102981.460    87831572.361          41.500  
R13  21843965.056   116645553.829          45.250    21843971.296    90724320.702          41.250  
R23  22680114.912   121323319.481          38.500    22680118.892    94362582.819          34.250  
R15  21343476.360   114053065.942          43.250    21343482.020    88707940.809          40.000  
R08  23727002.584   127057020.294          34.250    23727002.584    98822127.8121                 
> 2009 12 18 23 07 38.0000000  0 17                     
G03  20222220.746   106268487.841          50.250    20222220.326    82806614.449          42.000  
G22  24663260.896   129606309.163          43.750    24663259.156   100991929.022          34.000  
G07  21859508.716   114872494.288          48.500    21859507.676    89511034.432          41.500  
G06  21130616.260   111042137.951          49.250    21130615.820    86526341.299          41.500  
G13  24407309.118   128261273.852          43.000    24407308.958    99943848.991          32.250  
G19  20420491.764   107310408.978          49.750    20420489.084    83618499.549          45.250  
G11  23630028.544   124176635.602          44.250    23630027.644    96761014.270          33.500  
G16  22504145.750   118260082.417          48.000    22504144.930    92150713.451          39.000  
G08  24699820.476   129798433.034          40.750    24699819.896   101141635.715          30.750  
S29  37175501.972   195358582.108          44.250  
S37  37214012.112   195560951.987          42.000  
R14  19277856.992   102761824.861          48.750    19277864.992    79925865.402          43.250  
R17  21102638.760   112924482.350          44.000    21102640.360    87830152.672          41.250  
R13  21844726.336   116649619.065          45.000    21844732.576    90727482.550          40.750  
R23  22680722.012   121326566.976          38.250    22680725.992    94365108.647          34.000  
R15  21342878.860   114049873.129          43.500    21342884.520    88705457.514          39.750  
R08  23726748.024   127055657.075          33.500    23726748.024    98821067.5781                 
> 2009 12 18 23 07 39.0000000  0 17                     
G03  20222440.066   106269640.386          50.250    20222439.646    82807512.534          42.000  
G22  24662975.716   129604810.443          44.000    24662973.976   100990761.192          34.250  
G07  21859163.956   114870682.588          48.750    21859162.916    89509622.722          41.000  
G06  21130924.860   111043759.707          49.250    21130924.420    86527605.005          41.750  
G13  24407765.698   128263673.288          42.750    24407765.558    99945718.675          33.500  
G19  20420459.784   107310240.920          49.750    20420457.104    83618368.596          45.500  
G11  23629326.304   124172945.393          44.000    23629325.424    96758138.796          33.750  
G16  22504545.130   118262181.160          48.000    22504544.330    92152348.829          38.500  
G08  24699138.036   129794846.811          41.000    24699137.476   101138841.260          28.500  
S29  37175501.092   195358577.662          44.250  
S37  37214011.512   195560949.026          42.250  
R14  19278018.352   102762685.056          48.750    19278026.352    79926534.441          43.000  
R17  21102297.700   112922657.413          44.000    21102299.320    87828733.280          41.500  
R13  21845487.676   116653684.669          45.000    21845493.936    90730644.688          40.750  
R23  22681329.092   121329814.408          38.000    22681333.072    94367634.422          33.750  
R15  21342281.460   114046680.893          43.500    21342287.120    88702974.666          39.750  
R08  23726493.604   127054294.480          33.500    23726493.604    98820007.9281                 
> 2009 12 18 23 07 40.0000000  0 17                     
G03  20222659.426   106270793.165          50.250    20222659.006    82808410.805          41.500  
G22  24662690.556   129603311.933          44.000    24662688.836   100989593.523          32.250  
G07  21858819.316   114868871.403          48.750    21858818.276    89508211.411          40.250  
G06  21131233.500   111045381.616          49.250    21131233.060    86528868.831          41.000  
G13  24408222.318   128266072.871          42.750    24408222.178    99947588.478          32.000  
G19  20420427.864   107310073.166          49.750    20420425.184    83618237.876          44.750  
G11  23628624.084   124169255.254          44.000    23628623.224    96755263.364          33.750  
G16  22504944.530   118264280.073          48.000    22504943.730    92153984.346          38.000  
G08  24698455.656   129791260.725          41.000    24698455.136   101136046.917          30.250  
S29  37175500.212   195358572.875          44.250  
S37  37214010.972   195560946.059          42.000  
R14  19278179.892   102763546.078          48.750    19278187.912    79927204.126          42.250  
R17  21101956.740   112920832.814          44.000    21101958.360    87827314.147          40.750  
R13  21846249.116   116657750.572          45.000    21846255.356    90733807.053          40.250  
R23  22681936.132   121333061.713          38.000    22681940.092    94370160.107          33.000  
R15  21341684.160   114043489.065          43.750    21341689.800    88700492.129          39.250  
R08  23726239.204   127052932.431          33.250    23726239.204    98818948.3611                 
> 2009 12 18 23 07 41.0000000  0 17                     
G03  20222878.846   106271946.169          50.250    20222878.426    82809309.250          41.500  
G22  24662405.456   129601813.688          43.750    24662403.716   100988426.056          34.750  
G07  21858474.756   114867060.694          49.000    21858473.716    89506800.467          40.250  
G06  21131542.160   111047003.606          49.250    21131541.720    86530132.719          41.000  
G13  24408678.958   128268472.583          43.000    24408678.858    99949458.388          33.250  
G19  20420396.004   107309905.698          49.500    20420393.324    83618107.382          44.750  
G11  23627921.884   124165565.203          44.000    23627921.084    96752388.011          31.750  
G16  22505343.990   118266379.142          48.000    22505343.170    92155619.982          37.250  
G08  24697773.276   129787674.778          40.750    24697772.716   101133252.666          29.250  
S29  37175499.212   195358567.704          44.000  
S37  37214010.372   195560943.024          42.250  
R14  19278341.552   102764407.902          48.750    19278349.572    79927874.432          42.250  
R17  21101615.800   112919008.512          44.000    21101617.440    87825895.249          40.500  
R13  21847010.576   116661816.750          45.250    21847016.816    90736969.634          40.250  
R23  22682543.212   121336308.901          37.750    22682547.112    94372685.695          33.500  
R15  21341086.920   114040297.692          43.750    21341092.580    88698009.952          39.250  
R08  23725984.944   127051570.993          32.750    23725984.944    98817889.3771                 
> 2009 12 18 23 07 42.0000000  0 17                     
G03  20223098.306   106273099.466          50.000    20223097.886    82810207.923          41.750  
G22  24662120.396   129600315.709          43.750    24662118.656   100987258.801          34.000  
G07  21858130.296   114865250.534          49.000    21858129.256    89505389.951          40.000  
G06  21131850.840   111048625.752          49.250    21131850.400    86531396.726          41.250  
G13  24409135.658   128270872.494          43.250    24409135.558    99951328.444          29.750  
G19  20420364.204   107309738.596          49.750    20420361.504    83617977.175          44.750  
G11  23627219.724   124161875.264          43.750    23627218.904    96749512.730          32.000  
G16  22505743.470   118268478.450          48.000    22505742.630    92157255.802          37.500  
G08  24697090.916   129784088.965          40.250    24697090.336   101130458.527          31.250  
S29  37175498.192   195358562.349          44.250  
S37  37214009.772   195560940.081          42.250  
R14  19278503.392   102765270.601          48.750    19278511.432    79928545.422          42.500  
R17  21101274.960   112917184.600          44.250    21101276.620    87824476.651          40.500  
R13  21847772.096   116665883.299          45.000    21847778.336    90740132.503          39.750  
R23  22683150.272   121339556.051          37.750    22683154.152    94375211.256          32.750  
R15  21340489.800   114037106.832          44.000    21340495.460    88695528.170          39.250  
R08  23725730.884   127050210.173          32.500    23725730.884    98816831.2261                 
> 2009 12 18 23 07 43.0000000  0 17                     
G03  20223317.826   106274253.020          50.000    20223317.386    82811106.798          41.750  
G22  24661835.396   129598818.002          43.750    24661833.636   100986091.741          32.750  
G07  21857785.936   114863440.918          48.750    21857784.876    89503979.856          40.250  
G06  21132159.540   111050248.007          49.250    21132159.100    86532660.822          40.750  
G13  24409592.398   128273272.564          43.250    24409592.338    99953198.639          30.000  
G19  20420332.464   107309571.817          49.750    20420329.764    83617847.219          44.750  
G11  23626517.564   124158185.451          44.000    23626516.724    96746637.555          30.750  
G16  22506143.010   118270577.965          48.000    22506142.170    92158891.786          38.000  
G08  24696408.596   129780503.355          40.500    24696408.096   101127664.550          29.250  
S29  37175497.152   195358556.934          44.250  
S37  37214009.172   195560936.813          42.000  
R14  19278665.392   102766134.168          48.750    19278673.432    79929217.081          42.500  
R17  21100934.160   112915361.058          44.000    21100935.840    87823058.340          40.500  
R13  21848533.716   116669950.173          45.250    21848539.896    90743295.630          40.000  
R23  22683757.312   121342803.121          37.750    22683761.152    94377736.755          33.250  
R15  21339892.760   114033916.471          43.750    21339898.420    88693046.780          39.500  
R08  23725476.944   127048849.961          32.250    23725476.944    98815773.5751                 
> 2009 12 18 23 07 44.0000000  0 17                     
G03  20223537.366   106275406.771          50.000    20223536.926    82812005.824          41.750  
G22  24661550.436   129597320.514          43.500    24661548.696   100984924.867          32.250  
G07  21857441.676   114861631.767          48.750    21857440.596    89502570.122          40.500  
G06  21132468.280   111051870.379          49.250    21132467.840    86533925.005          41.250  
G13  24410049.118   128275672.759          43.500    24410049.118    99955068.919          32.250  
G19  20420300.784   107309405.317          49.750    20420298.084    83617717.472          45.250  
G11  23625815.404   124154495.694          44.000    23625814.564    96743762.430          33.750  
G16  22506542.550   118272677.609          48.000    22506541.710    92160527.876          37.500  
G08  24695726.296   129776917.815          40.750    24695725.836   101124870.613          32.250  
S29  37175496.132   195358551.542          44.000  
S37  37214008.552   195560933.379          42.250  
R14  19278827.532   102766998.529          48.750    19278835.552    79929889.362          43.000  
R17  21100593.440   112913537.804          44.000    21100595.140    87821640.258          41.000  
R13  21849295.376   116674017.307          45.250    21849301.536    90746458.956          40.250  
R23  22684364.272   121346050.058          37.500    22684368.112    94380262.144          33.500  
R15  21339295.820   114030726.530          43.500    21339301.480    88690565.710          40.250  
R08  23725222.964   127047490.282          32.250    23725222.964    98814715.7571                 
> 2009 12 18 23 07 45.0000000  0 17                     
G03  20223757.026   106276561.021          50.000    20223756.586    82812905.238          41.500  
G22  24661265.556   129595823.520          43.500    24661263.856   100983758.385          34.500  
G07  21857097.556   114859823.380          48.750    21857096.476    89501160.987          41.000  
G06  21132777.080   111053493.178          49.250    21132776.620    86535189.524          41.000  
G13  24410505.938   128278073.359          43.500    24410505.918    99956939.500          29.500  
G19  20420269.204   107309239.384          49.750    20420266.504    83617588.176          44.750  
G11  23625113.324   124150806.278          44.000    23625112.444    96740887.552          32.750  
G16  22506942.190   118274777.713          48.000    22506941.330    92162164.323          37.500  
G08  24695044.096   129773332.730          40.000    24695043.636   101122077.032          31.250  
S29  37175495.212   195358546.834          44.000  
S37  37214007.912   195560929.947          42.000  
R14  19278989.892   102767863.965          48.750    19278997.912    79930562.476          42.500  
R17  21100252.820   112911715.150          44.000    21100254.520    87820222.640          40.500  
R13  21850057.116   116678084.996          45.250    21850063.256    90749622.711          40.000  
R23  22684971.292   121349297.163          37.500    22684975.112    94382787.666          33.500  
R15  21338699.000   114027537.347          43.750    21338704.660    88688085.233          40.000  
R08  23724969.184   127046131.406          32.500    23724969.184    98813658.7721                 
> 2009 12 18 23 07 46.0000000  0 17                     
G03  20223976.746   106277715.673          50.250    20223976.306    82813804.965          41.750  
G22  24660980.756   129594326.936          43.750    24660979.016   100982592.217          33.000  
G07  21856753.576   114858015.651          48.750    21856752.476    89499752.367          40.750  
G06  21133085.940   111055116.264          49.250    21133085.480    86536454.263          41.250  
G13  24410962.818   128280474.253          43.500    24410962.738    99958810.333          29.000  
G19  20420237.724   107309073.926          49.750    20420235.004    83617459.250          44.750  
G11  23624411.304   124147117.125          44.000    23624410.404    96738012.896          33.250  
G16  22507341.890   118276878.138          48.000    22507341.010    92163801.015          37.750  
G08  24694361.936   129769747.903          39.750    24694361.476   101119283.632          33.500  
S29  37175494.272   195358542.009          44.000  
S37  37214007.272   195560926.678          42.250  
R14  19279152.432   102768730.413          48.750    19279160.452    79931236.381          42.000  
R17  21099912.300   112909892.977          44.000    21099914.020    87818805.395          40.250  
R13  21850818.956   116682153.172          45.000    21850825.076    90752786.847          39.750  
R23  22685578.312   121352544.300          37.750    22685582.132    94385313.213          32.250  
R15  21338102.300   114024348.806          43.250    21338107.960    88685605.255          39.250  
R08  23724715.624   127044773.384          33.500    23724715.624    98812602.7041                 
> 2009 12 18 23 07 47.0000000  0 17                     
G03  20224196.526   106278870.593          50.250    20224196.086    82814704.903          41.750  
G22  24660696.016   129592830.630          43.750    24660694.256   100981426.267          34.500  
G07  21856409.676   114856208.460          48.500    21856408.576    89498344.170          41.250  
G06  21133394.820   111056739.434          49.250    21133394.380    86537719.073          41.000  
G13  24411419.738   128282875.347          43.500    24411419.638    99960681.309          31.250  
G19  20420206.304   107308908.792          49.750    20420203.604    83617330.572          44.750  
G11  23623709.304   124143428.082          44.250    23623708.364    96735138.321          31.750  
G16  22507741.630   118278978.783          48.000    22507740.730    92165437.888          37.750  
G08  24693679.796   129766163.235          39.000    24693679.376   101116490.378          27.750  
S29  37175493.352   195358537.099          44.000  
S37  37214006.672   195560923.447          42.250  
R14  19279315.132   102769597.720          48.750    19279323.152    79931910.952          42.250  
R17  21099571.840   112908071.182          44.000    21099573.560    87817388.447          40.250  
R13  21851580.856   116686221.659          45.250    21851586.936    90755951.230          39.500  
R23  22686185.312   121355791.324          37.250    22686189.092    94387838.674          32.750  
R15  21337505.720   114021160.754          43.500    21337511.400    88683125.659          39.750  
R08  23724462.064   127043415.786          33.500    23724465.224    98811547.414          29.250  
> 2009 12 18 23 07 48.0000000  0 17                     
G03  20224416.286   106280025.553          50.250    20224415.846    82815604.871          41.500  
G22  24660411.276   129591334.359          43.750    24660409.516   100980260.341          33.500  
G07  21856065.836   114854401.584          48.750    21856064.716    89496936.217          41.000  
G06  21133703.680   111058362.492          49.250    21133703.220    86538983.792          40.250  
G13  24411876.658   128285276.410          43.500    24411876.558    99962552.244          33.000  
G19  20420174.884   107308743.779          49.750    20420172.184    83617201.992          44.500  
G11  23623007.284   124139738.945          44.500    23623006.284    96732263.666          32.250  
G16  22508141.370   118281079.421          48.000    22508140.470    92167074.746          37.250  
G08  24692997.656   129762578.523          38.750    24692997.276   101113697.096          33.500  
S29  37175492.372   195358531.957          44.250  
S37  37214006.072   195560920.338          42.250  
R14  19279477.952   102770465.671          48.750    19279485.992    79932586.028          42.250  
R17  21099231.400   112906249.537          44.000    21099233.120    87815971.610          40.500  
R13  21852342.776   116690290.280          45.000    21852348.836    90759115.715          39.750  
R23  22686792.232   121359038.073          37.500    22686796.012    94390363.926          32.750  
R15  21336909.160   114017972.937          43.500    21336914.880    88680646.249          39.250  
R08  23724208.704   127042058.773          33.000    23724211.824    98810491.964          29.500  
> 2009 12 18 23 07 49.0000000  0 17                     
G03  20224636.106   106281180.628          50.250    20224635.666    82816504.928          41.750  
G22  24660126.556   129589838.200          43.500    24660124.776   100979094.499          34.250  
G07  21855722.076   114852595.076          48.750    21855720.956    89495528.553          40.750  
G06  21134012.560   111059985.546          49.250    21134012.120    86540248.516          41.250  
G13  24412333.578   128287677.462          43.250    24412333.478    99964423.179          28.750  
G19  20420143.524   107308578.941          49.750    20420140.824    83617073.550          44.500  
G11  23622305.244   124136049.749          44.500    23622304.224    96729388.967          31.750  
G16  22508541.130   118283180.097          48.000    22508540.210    92168711.641          37.750  
G08  24692315.476   129758993.798          38.500    24692315.116   101110903.810          31.750  
S29  37175491.312   195358526.436          44.250  
S37  37214005.412   195560916.854          42.250  
R14  19279640.912   102771334.321          48.750    19279648.952    79933261.644          42.250  
R17  21098891.020   112904428.092          44.250    21098892.760    87814554.929          40.250  
R13  21853104.736   116694359.045          45.250    21853110.756    90762280.310          39.250  
R23  22687399.152   121362284.627          37.750    22687402.892    94392889.019          32.000  
R15  21336312.660   114014785.443          43.250    21336318.400    88678167.090          39.250  
R08  23723955.404   127040702.160          32.750    23723958.524    98809436.816          29.500  
> 2009 12 18 23 07 50.0000000  0 17                     
G03  20224855.966   106282336.071          50.250    20224855.526    82817405.273          41.250  
G22  24659841.936   129588342.436          43.500    24659840.116   100977928.974          34.500  
G07  21855378.456   114850789.210          49.000    21855377.336    89494121.386          40.250  
G06  21134321.460   111061608.863          49.250    21134321.020    86541513.439          41.000  
G13  24412790.538   128290078.834          43.250    24412790.438    99966294.381          31.000  
G19  20420112.244   107308414.548          49.750    20420109.544    83616945.451          44.750  
G11  23621603.244   124132360.791          44.500    23621602.224    96726514.439          29.750  
G16  22508940.950   118285281.089          48.000    22508940.010    92170348.778          38.000  
G08  24691633.356   129755409.391          38.750    24691632.996   101108110.788          31.000  
S29  37175490.272   195358520.947          44.250  
S37  37214004.752   195560913.286          42.250  
R14  19279804.052   102772203.936          48.750    19279812.092    79933938.011          42.250  
R17  21098550.720   112902607.086          44.250    21098552.460    87813138.595          40.500  
R13  21853866.756   116698428.253          45.250    21853872.756    90765445.246          39.750  
R23  22688006.052   121365531.192          37.500    22688009.772    94395414.121          32.500  
R15  21335716.280   114011598.567          43.500    21335722.020    88675688.408          39.500  
R08  23723702.244   127039346.216          32.750    23723705.304    98808382.185          29.000  
> 2009 12 18 23 07 51.0000000  0 17                     
G03  20225075.946   106283492.005          50.250    20225075.506    82818305.999          41.500  
G22  24659557.396   129586847.158          43.500    24659555.596   100976763.839          33.000  
G07  21855034.956   114848984.108          49.000    21855033.836    89492714.813          40.750  
G06  21134630.420   111063232.530          49.250    21134629.980    86542778.636          41.000  
G13  24413247.598   128292480.575          43.250    24413247.518    99968165.873          31.500  
G19  20420081.064   107308250.712          50.000    20420078.364    83616817.784          44.500  
G11  23620901.324   124128672.153          44.500    23620900.304    96723640.174          30.250  
G16  22509340.830   118287382.510          47.750    22509339.890    92171986.248          37.000  
G08  24690951.336   129751825.344          38.750    24690950.976   101105318.030          28.000  
S29  37175489.232   195358515.629          44.250  
S37  37214004.172   195560910.125          42.250  
R14  19279967.392   102773074.638          48.750    19279975.452    79934615.220          42.000  
R17  21098210.520   112900786.682          44.000    21098212.260    87811722.727          40.000  
R13  21854628.896   116702497.993          45.000    21854634.876    90768610.599          39.500  
R23  22688613.012   121368777.906          37.250    22688616.712    94397939.347          32.250  
R15  21335120.000   114008412.347          43.000    21335125.780    88673210.237          39.500  
R08  23723449.204   127037991.099          33.000    23723452.284    98807328.203          28.750  
> 2009 12 18 23 07 52.0000000  0 17                     
G03  20225296.006   106284648.418          50.250    20225295.566    82819207.098          41.750  
G22  24659272.956   129585352.373          43.750    24659271.196   100975599.070          32.500  
G07  21854691.616   114847179.749          49.000    21854690.476    89491308.818          40.750  
G06  21134939.480   111064856.607          49.250    21134939.040    86544044.146          41.250  
G13  24413704.738   128294882.733          43.000    24413704.598    99970037.693          32.500  
G19  20420049.984   107308087.430          50.000    20420047.264    83616690.550          44.500  
G11  23620199.464   124124983.890          44.250    23620198.464    96720766.203          33.000  
G16  22509740.810   118289484.366          47.750    22509739.850    92173624.055          37.750  
G08  24690269.336   129748241.665          38.750    24690269.016   101102525.555          33.000  
S29  37175488.252   195358510.618          44.250  
S37  37214003.652   195560907.243          42.500  
R14  19280130.932   102773946.422          48.750    19280138.992    79935293.276          42.250  
R17  21097870.420   112898966.856          44.000    21097872.180    87810307.305          40.250  
R13  21855391.136   116706568.323          45.250    21855397.096    90771776.413          39.250  
R23  22689219.912   121372024.757          37.500    22689223.672    94400464.674          32.750  
R15  21334523.880   114005226.852          43.000    21334529.660    88670732.634          39.750  
R08  23723196.324   127036636.799          32.250    23723199.344    98806274.850          28.750  
> 2009 12 18 23 07 53.0000000  0 17                     
G03  20225516.146   106285805.272          50.000    20225515.706    82820108.547          41.500  
G22  24658988.576   129583858.028          44.000    24658986.856   100974434.643          34.000  
G07  21854348.396   114845376.087          49.000    21854347.256    89489903.365          40.500  
G06  21135248.580   111066481.051          49.250    21135248.160    86545309.945          41.250  
G13  24414161.898   128297285.199          43.000    24414161.758    99971909.752          29.750  
G19  20420019.004   107307924.642          50.000    20420016.284    83616563.706          44.500  
G11  23619497.644   124121295.862          44.500    23619496.644    96717892.427          30.750  
G16  22510140.850   118291586.583          47.750    22510139.870    92175262.143          37.000  
G08  24689587.456   129744658.374          39.000    24689587.076   101099733.378          32.250  
S29  37175487.392   195358505.941          44.250  
S37  37214003.132   195560904.373          42.000  
R14  19280294.672   102774819.230          48.750    19280302.732    79935972.127          42.000  
R17  21097530.420   112897147.546          43.750    21097532.180    87808892.286          40.250  
R13  21856153.476   116710639.125          45.250    21856159.416    90774942.593          39.500  
R23  22689826.872   121375271.755          38.000    22689830.652    94402990.112          32.750  
R15  21333927.900   114002042.014          42.750    21333933.680    88668255.538          39.500  
R08  23722943.544   127035283.345          33.000    23722946.644    98805222.176          29.000  
> 2009 12 18 23 07 54.0000000  0 17                     
G03  20225736.326   106286962.354          50.250    20225735.886    82821010.171          41.250  
G22  24658704.276   129582363.937          44.000    24658702.556   100973270.420          34.000  
G07  21854005.276   114843572.921          49.000    21854004.136    89488498.296          40.000  
G06  21135557.720   111068105.577          49.250    21135557.320    86546575.805          41.250  
G13  24414619.098   128299687.840          43.250    24414618.918    99973781.948          32.250  
G19  20419988.104   107307762.167          50.000    20419985.384    83616437.100          44.500  
G11  23618795.864   124117607.938          44.500    23618794.844    96715018.716          31.750  
G16  22510540.910   118293688.978          48.000    22510539.930    92176900.373          36.750  
G08  24688905.576   129741075.163          38.750    24688905.136   101096941.267          35.000  
S29  37175486.452   195358500.894          44.000  
S37  37214002.532   195560901.389          42.250  
R14  19280458.552   102775692.869          48.750    19280466.612    79936651.624          42.000  
R17  21097190.480   112895328.587          44.250    21097192.240    87807477.538          40.250  
R13  21856915.876   116714710.219          45.500    21856921.796    90778108.997          39.500  
R23  22690433.852   121378518.590          38.250    22690437.572    94405515.430          32.500  
R15  21333332.000   113998857.689          43.000    21333337.780    88665778.843          39.250  
R08  23722690.864   127033930.402          34.000    23722694.044    98804169.894          28.250  
> 2009 12 18 23 07 55.0000000  0 17                     
G03  20225956.586   106288119.716          50.250    20225956.146    82821912.009          41.250  
G22  24658419.996   129580870.094          44.000    24658418.276   100972106.390          35.000  
G07  21853662.256   114841770.302          48.750    21853661.116    89487093.654          40.500  
G06  21135866.880   111069730.211          49.250    21135866.460    86547841.753          41.000  
G13  24415076.358   128302090.650          43.000    24415076.178    99975654.278          31.750  
G19  20419957.244   107307600.025          49.750    20419954.524    83616310.758          44.250  
G11  23618094.084   124113920.120          44.250    23618093.124    96712145.087          29.250  
G16  22510941.030   118295791.581          47.750    22510940.030    92178538.761          37.500  
G08  24688223.716   129737492.172          39.000    24688223.316   101094149.341          33.500  
S29  37175485.472   195358495.878          44.250  
S37  37214001.872   195560898.325          42.000  
R14  19280622.612   102776567.390          48.750    19280630.672    79937331.809          42.000  
R17  21096850.640   112893509.967          44.250    21096852.400    87806063.058          40.250  
R13  21857678.336   116718781.654          45.500    21857684.256    90781275.666          40.000  
R23  22691040.812   121381765.374          37.750    22691044.512    94408040.704          32.500  
R15  21332736.180   113995673.893          43.000    21332741.980    88663302.559          39.500  
R08  23722438.264   127032578.059          34.000    23722441.484    98803118.069          29.250  
> 2009 12 18 23 07 56.0000000  0 17                     
G03  20226176.886   106289277.458          50.250    20226176.426    82822814.146          41.250  
G22  24658135.836   129579376.681          44.000    24658134.096   100970942.694          33.500  
G07  21853319.356   114839968.340          48.750    21853318.216    89485689.532          40.000  
G06  21136176.100   111071355.175          49.250    21136175.700    86549107.960          40.750  
G13  24415533.658   128304493.738          42.750    24415533.518    99977526.821          29.250  
G19  20419926.484   107307438.344          50.000    20419923.764    83616184.772          44.250  
G11  23617392.384   124110232.548          44.500    23617391.364    96709271.655          32.500  
G16  22511341.190   118297894.515          48.000    22511340.190    92180177.409          37.500  
G08  24687541.936   129733909.428          39.000    24687541.556   101091357.590          25.000  
S29  37175484.532   195358491.049          44.250  
S37  37214001.292   195560895.395          42.000  
R14  19280786.852   102777442.887          48.750    19280794.892    79938012.749          41.500  
R17  21096510.880   112891691.843          44.250    21096512.640    87804648.959          39.500  
R13  21858440.876   116722853.529          45.750    21858446.796    90784442.681          39.500  
R23  22691647.732   121385012.176          37.750    22691651.452    94410565.998          31.750  
R15  21332140.460   113992490.731          43.250    21332146.280    88660826.766          38.750  
R08  23722185.964   127031226.578          32.750    23722189.144    98802066.916          28.500  
> 2009 12 18 23 07 57.0000000  0 17                     
G03  20226397.266   106290435.528          50.250    20226396.826    82823716.537          41.250  
G22  24657851.696   129577883.591          44.000    24657849.956   100969779.244          34.500  
G07  21852976.576   114838166.956          48.750    21852975.416    89484285.856          40.500  
G06  21136485.360   111072980.327          49.250    21136484.960    86550374.311          40.750  
G13  24415991.018   128306897.071          42.750    24415990.878    99979399.555          33.250  
G19  20419895.784   107307277.046          50.000    20419893.064    83616059.086          44.500  
G11  23616690.684   124106545.143          44.500    23616689.624    96706398.352          32.250  
G16  22511741.410   118299997.685          47.750    22511740.390    92181816.245          37.250  
G08  24686860.176   129730326.949          39.000    24686859.776   101088566.061          23.500  
S29  37175483.632   195358486.361          44.250  
S37  37214000.792   195560892.579          42.250  
R14  19280951.272   102778319.306          48.750    19280959.312    79938694.409          41.500  
R17  21096171.180   112889874.096          44.000    21096172.940    87803235.156          40.000  
R13  21859203.496   116726925.792          45.750    21859209.396    90787609.996          39.250  
R23  22692254.712   121388258.974          37.500    22692258.412    94413091.280          32.250  
R15  21331544.860   113989308.113          43.750    21331550.680    88658351.399          39.000  
R08  23721933.704   127029875.609          33.250    23721936.864    98801016.162          27.750  
> 2009 12 18 23 07 58.0000000  0 17                     
G03  20226617.706   106291593.927          50.250    20226617.266    82824619.189          41.250  
G22  24657567.656   129576390.827          43.750    24657565.916   100968616.055          33.250  
G07  21852633.896   114836366.182          48.750    21852632.736    89482882.653          40.500  
G06  21136794.660   111074605.743          49.250    21136794.260    86551640.876          41.000  
G13  24416448.398   128309300.635          42.500    24416448.258    99981272.458          33.000  
G19  20419865.164   107307116.163          49.750    20419862.444    83615933.720          44.250  
G11  23615989.024   124102857.942          44.500    23615987.984    96703525.206          30.500  
G16  22512141.690   118302101.152          47.750    22512140.650    92183455.308          37.500  
G08  24686178.456   129726744.689          38.750    24686178.096   101085774.685          30.750  
S29  37175482.752   195358481.608          44.000  
S37  37214000.192   195560889.712          42.250  
R14  19281115.852   102779196.661          48.750    19281123.872    79939376.796          41.500  
R17  21095831.580   112888056.804          44.250    21095833.340    87801821.702          39.750  
R13  21859966.196   116730998.464          45.750    21859972.096    90790777.631          39.500  
R23  22692861.672   121391505.763          38.000    22692865.332    94415616.559          31.750  
R15  21330949.400   113986126.038          43.750    21330955.200    88655876.456          39.000  
R08  23721681.564   127028525.397          33.500    23721684.704    98799966.005          28.250  
> 2009 12 18 23 07 59.0000000  0 17                     
G03  20226838.206   106292752.733          50.250    20226837.766    82825522.155          41.250  
G22  24657283.676   129574898.450          43.750    24657281.916   100967453.168          34.250  
G07  21852291.356   114834566.074          48.500    21852290.216    89481479.972          40.500  
G06  21137104.000   111076231.370          49.250    21137103.600    86552907.598          40.750  
G13  24416905.858   128311704.514          42.500    24416905.758    99983145.590          32.000  
G19  20419834.644   107306955.740          49.750    20419831.924    83615808.715          44.500  
G11  23615287.424   124099170.977          44.750    23615286.364    96700652.245          32.750  
G16  22512542.010   118304204.940          47.750    22512540.950    92185094.625          36.500  
G08  24685496.816   129723162.720          39.250    24685496.476   101082983.538          30.250  
S29  37175481.772   195358476.666          44.250  
S37  37213999.632   195560886.740          42.250  
R14  19281280.632   102780075.010          48.750    19281288.652    79940059.956          42.250  
R17  21095492.060   112886239.998          44.250    21095493.820    87800408.632          40.500  
R13  21860728.956   116735071.613          45.500    21860734.876    90793945.634          40.250  
R23  22693468.652   121394752.640          38.250    22693472.292    94418141.906          32.500  
R15  21330354.020   113982944.617          44.000    21330359.820    88653402.015          39.250  
R08  23721429.584   127027175.941          34.250    23721432.704    98798916.428          29.250  
> 2009 12 18 23 08 00.0000000  0 17                     
G03  20227058.826   106293912.123          50.250    20227058.386    82826425.574          41.000  
G22  24656999.816   129573406.692          43.750    24656998.076   100966290.757          34.500  
G07  21851948.976   114832766.816          48.750    21851947.816    89480077.952          40.500  
G06  21137413.440   111077857.420          49.250    21137413.040    86554174.652          41.000  
G13  24417363.398   128314108.874          42.500    24417363.298    99985019.110          28.500  
G19  20419804.244   107306795.984          50.000    20419801.524    83615684.230          44.250  
G11  23614585.904   124095484.462          44.750    23614584.824    96697779.634          32.250  
G16  22512942.450   118306309.287          47.750    22512941.370    92186734.372          37.250  
G08  24684815.276   129719581.253          39.750    24684814.916   101080192.797          27.750  
S29  37175480.832   195358471.794          44.250  
S37  37213999.052   195560883.931          42.250  
R14  19281445.632   102780954.561          48.750    19281453.652    79940744.053          42.250  
R17  21095152.660   112884423.891          44.250    21095154.440    87798996.104          40.500  
R13  21861491.856   116739145.422          45.250    21861497.796    90797114.152          40.000  
R23  22694075.652   121397999.791          38.500    22694079.292    94420667.463          32.750  
R15  21329758.840   113979764.011          44.000    21329764.620    88650928.207          39.500  
R08  23721177.864   127025827.435          34.250    23721180.904    98797867.590          28.500  
> 2009 12 18 23 08 01.0000000  0 17                     
G03  20227279.506   106295071.773          50.250    20227279.046    82827329.199          41.250  
G22  24656715.976   129571915.195          43.500    24656714.256   100965128.556          33.000  
G07  21851606.696   114830968.072          48.500    21851605.556    89478676.334          40.750  
G06  21137722.880   111079483.593          49.250    21137722.480    86555441.798          40.750  
G13  24417820.958   128316513.397          42.750    24417820.878    99986892.766          32.500  
G19  20419773.904   107306636.538          49.750    20419771.164    83615559.985          44.500  
G11  23613884.404   124091798.039          44.750    23613883.284    96694907.090          32.750  
G16  22513342.930   118308413.803          47.750    22513341.830    92188374.259          37.750  
G08  24684133.716   129715999.962          40.250    24684133.356   101077402.179          29.000  
S29  37175479.872   195358466.707          44.250  
S37  37213998.472   195560880.983          42.000  
R14  19281610.792   102781834.959          48.750    19281618.792    79941428.805          42.000  
R17  21094813.320   112882608.137          44.500    21094815.120    87797583.851          40.500  
R13  21862254.816   116743219.535          45.500    21862260.736    90800282.903          40.250  
R23  22694682.632   121401246.791          38.500    22694686.272    94423192.902          32.500  
R15  21329163.740   113976583.895          44.000    21329169.500    88648454.774          39.500  
R08  23720926.164   127024479.485          34.500    23720929.164    98796819.181          28.250  
> 2009 12 18 23 08 02.0000000  0 17                     
G03  20227500.206   106296231.562          50.250    20227499.746    82828232.928          41.250  
G22  24656432.176   129570423.834          43.250    24656430.456   100963966.456          33.750  
G07  21851264.476   114829169.742          48.500    21851263.336    89477275.037          40.500  
G06  21138032.340   111081109.761          49.250    21138031.940    86556708.940          40.250  
G13  24418278.538   128318917.975          42.500    24418278.458    99988766.453          31.500  
G19  20419743.604   107306477.311          49.750    20419740.864    83615435.909          44.250  
G11  23613182.904   124088111.611          44.250    23613181.784    96692034.544          33.750  
G16  22513743.410   118310518.400          48.000    22513742.330    92190014.202          37.250  
G08  24683452.236   129712418.690          40.250    24683451.936   101074611.573          33.500  
S29  37175478.912   195358461.620          44.250  
S37  37213997.852   195560877.828          42.000  
R14  19281776.092   102782716.090          48.750    19281784.112    79942114.130          41.500  
R17  21094474.080   112880792.654          44.500    21094475.880    87796171.810          40.000  
R13  21863017.816   116747293.832          45.250    21863023.736    90803451.797          39.750  
R23  22695289.612   121404493.650          38.250    22695293.252    94425718.234          32.000  
R15  21328568.680   113973404.096          44.000    21328574.420    88645981.595          38.750  
R08  23720674.524   127023132.061          34.500    23720677.484    98795771.180          27.750  
> 2009 12 18 23 08 03.0000000  0 17                     
G03  20227720.926   106297391.411          50.250    20227720.446    82829136.707          41.250  
G22  24656148.416   129568932.574          43.750    24656146.656   100962804.439          34.250  
G07  21850922.336   114827371.742          48.500    21850921.196    89475874.000          40.500  
G06  21138341.780   111082735.877          49.250    21138341.380    86557976.043          40.750  
G13  24418736.098   128321322.495          42.500    24418735.998    99990640.113          31.500  
G19  20419713.324   107306318.220          49.750    20419710.584    83615311.944          44.250  
G11  23612481.384   124084425.098          44.250    23612480.264    96689161.941          31.250  
G16  22514143.910   118312623.005          48.000    22514142.790    92191654.148          37.250  
G08  24682770.736   129708837.401          40.500    24682770.476   101071820.963          33.500  
S29  37175477.932   195358456.478          44.250  
S37  37213997.152   195560874.362          42.000  
R14  19281941.512   102783597.877          48.750    19281949.532    79942799.962          42.000  
R17  21094134.840   112878977.309          44.500    21094136.640    87794759.874          40.500  
R13  21863780.816   116751368.228          45.250    21863786.756    90806620.765          40.000  
R23  22695896.532   121407740.185          38.250    22695900.132    94428243.315          32.750  
R15  21327973.700   113970224.623          43.750    21327979.420    88643508.668          39.500  
R08  23720423.084   127021785.030          34.250    23720425.944    98794723.485          28.750  
> 2009 12 18 23 08 04.0000000  0 17                     
G03  20227941.686   106298551.544          50.250    20227941.206    82830040.707          41.250  
G22  24655864.676   129567441.597          43.500    24655862.896   100961642.637          34.500  
G07  21850580.276   114825574.294          48.250    21850579.156    89474473.396          40.500  
G06  21138651.240   111084362.134          49.250    21138650.840    86559243.254          41.000  
G13  24419193.718   128323727.231          42.000    24419193.658    99992513.941          30.000  
G19  20419683.124   107306159.476          49.750    20419680.384    83615188.250          44.750  
G11  23611779.864   124080738.722          44.000    23611778.744    96686289.451          31.750  
G16  22514544.450   118314727.841          47.750    22514543.330    92193294.282          38.000  
G08  24682089.276   129705256.302          41.000    24682089.056   101069030.498          31.500  
S29  37175476.972   195358451.518          44.250  
S37  37213996.512   195560870.894          42.000  
R14  19282107.092   102784480.541          48.750    19282115.092    79943486.478          43.000  
R17  21093795.660   112877162.337          44.500    21093797.480    87793348.226          41.250  
R13  21864543.876   116755442.990          45.500    21864549.836    90809790.020          41.250  
R23  22696503.432   121410986.694          38.250    22696507.032    94430768.379          33.750  
R15  21327378.820   113967045.634          43.500    21327384.540    88641036.116          40.250  
R08  23720171.644   127020438.621          34.000    23720174.484    98793676.276          29.750  
> 2009 12 18 23 08 05.0000000  0 17                     
G03  20228162.506   106299711.961          50.000    20228162.026    82830944.928          41.750  
G22  24655581.016   129565950.882          43.500    24655579.196   100960481.041          32.500  
G07  21850238.356   114823777.389          48.500    21850237.236    89473073.213          41.500  
G06  21138960.740   111085988.612          49.250    21138960.340    86560510.638          41.250  
G13  24419651.378   128326132.140          42.000    24419651.318    99994387.897          32.250  
G19  20419652.984   107306001.086          49.750    20419650.244    83615064.829          45.000  
G11  23611078.384   124077052.473          43.750    23611077.284    96683417.046          33.250  
G16  22514945.030   118316832.898          47.750    22514943.890    92194934.590          38.000  
G08  24681407.836   129701675.363          40.500    24681407.616   101066240.174          28.750  
S29  37175475.952   195358446.278          44.250  
S37  37213995.952   195560867.714          42.000  
R14  19282272.832   102785364.074          48.750    19282280.832    79944173.666          43.000  
R17  21093456.560   112875347.739          44.500    21093458.400    87791936.874          41.250  
R13  21865306.996   116759518.062          45.250    21865312.976    90812959.516          41.000  
R23  22697110.372   121414233.125          38.750    22697113.912    94433293.381          33.500  
R15  21326783.980   113963867.176          43.750    21326789.740    88638563.987          40.500  
R08  23719920.404   127019092.835          34.250    23719923.124    98792629.541          29.250  
> 2009 12 18 23 08 06.0000000  0 17                     
G03  20228383.386   106300872.620          50.250    20228382.906    82831849.339          42.250  
G22  24655297.396   129564460.460          43.500    24655295.536   100959319.671          32.250  
G07  21849896.516   114821981.011          48.500    21849895.396    89471673.441          41.250  
G06  21139270.280   111087615.204          49.250    21139269.880    86561778.111          41.500  
G13  24420109.058   128328537.199          41.750    24420108.958    99996261.975          33.750  
G19  20419622.904   107305843.020          49.750    20419620.164    83614941.663          45.500  
G11  23610376.924   124073366.336          43.750    23610375.864    96680544.740          33.500  
G16  22515345.650   118318938.139          47.750    22515344.530    92196575.040          37.250  
G08  24680726.456   129698094.593          40.750    24680726.196   101063449.961          34.000  
S29  37175475.052   195358441.270          44.000  
S37  37213995.352   195560864.745          42.250  
R14  19282438.732   102786248.444          48.750    19282446.732    79944861.509          43.250  
R17  21093117.520   112873533.473          44.250    21093119.380    87790525.781          41.500  
R13  21866070.196   116763593.454          45.250    21866076.176    90816129.263          41.000  
R23  22697717.252   121417479.457          38.000    22697720.792    94435818.306          33.750  
R15  21326189.280   113960689.199          43.250    21326195.040    88636092.231          40.500  
R08  23719669.244   127017747.643          33.750    23719671.904    98791583.275          30.000  
> 2009 12 18 23 08 07.0000000  0 17                     
G03  20228604.306   106302033.568          50.000    20228603.826    82832753.972          41.750  
G22  24655013.816   129562970.284          43.250    24655012.016   100958158.493          33.500  
G07  21849554.776   114820185.171          48.500    21849553.656    89470274.085          40.750  
G06  21139579.840   111089241.992          49.250    21139579.440    86563045.741          41.500  
G13  24420566.778   128330942.495          41.750    24420566.598    99998136.206          32.250  
G19  20419592.884   107305685.290          49.750    20419590.144    83614818.755          45.000  
G11  23609675.484   124069680.302          43.750    23609674.504    96677672.520          33.250  
G16  22515746.290   118321043.597          47.750    22515745.150    92198215.651          37.500  
G08  24680045.076   129694514.017          40.750    24680044.876   101060659.896          33.750  
S29  37175474.032   195358435.776          44.000  
S37  37213994.792   195560861.944          42.000  
R14  19282604.792   102787133.688          48.750    19282612.792    79945550.032          43.000  
R17  21092778.560   112871719.600          44.500    21092780.440    87789114.991          41.250  
R13  21866833.456   116767669.198          45.500    21866839.436    90819299.283          40.750  
R23  22698324.112   121420725.773          38.000    22698327.632    94438343.214          33.500  
R15  21325594.680   113957511.738          43.250    21325600.420    88633620.877          40.500  
R08  23719418.064   127016403.060          33.250    23719420.804    98790537.475          29.750  
> 2009 12 18 23 08 08.0000000  0 17                     
G03  20228825.326   106303195.012          50.000    20228824.866    82833658.991          41.750  
G22  24654730.336   129561480.663          43.000    24654728.536   100956997.737          30.250  
G07  21849213.196   114818390.100          48.500    21849212.076    89468875.329          41.250  
G06  21139889.500   111090869.206          49.250    21139889.080    86564313.699          41.250  
G13  24421024.558   128333348.142          41.500    24421024.418   100000010.745          30.250  
G19  20419562.984   107305528.138          49.750    20419560.264    83614696.303          44.750  
G11  23608974.124   124065994.643          43.750    23608973.204    96674800.591          35.000  
G16  22516147.050   118323149.503          47.750    22516145.890    92199856.616          38.000  
G08  24679363.776   129690933.842          41.000    24679363.556   101057870.150          31.000  
S29  37175473.072   195358430.737          44.000  
S37  37213994.252   195560859.227          42.000  
R14  19282771.072   102788020.030          48.750    19282779.052    79946239.410          43.000  
R17  21092439.700   112869906.308          44.250    21092441.580    87787704.656          41.000  
R13  21867596.796   116771745.511          45.250    21867602.816    90822469.744          41.000  
R23  22698931.052   121423972.233          37.750    22698934.532    94440868.243          33.500  
R15  21325000.180   113954335.036          43.000    21325005.960    88631150.108          40.250  
R08  23719167.184   127015059.397          33.750    23719169.904    98789492.402          29.750  
> 2009 12 18 23 08 09.0000000  0 17                     
G03  20229046.426   106304356.890          50.000    20229045.966    82834564.349          42.250  
G22  24654446.936   129559991.441          43.250    24654445.156   100955837.308          33.750  
G07  21848871.736   114816595.726          48.500    21848870.636    89467477.118          41.250  
G06  21140199.200   111092496.743          49.000    21140198.800    86565581.912          41.250  
G13  24421482.418   128335754.168          41.500    24421482.338   100001885.579          33.500  
G19  20419533.164   107305371.483          49.750    20419530.424    83614574.232          45.000  
G11  23608272.804   124062309.252          44.000    23608271.944    96671928.856          34.000  
G16  22516547.850   118325255.771          48.000    22516546.710    92201497.864          37.250  
G08  24678682.556   129687354.004          41.250    24678682.356   101055080.680          33.000  
S29  37175472.092   195358425.668          44.000  
S37  37213993.652   195560856.232          42.000  
R14  19282937.532   102788907.392          48.750    19282945.512    79946929.581          42.750  
R17  21092100.920   112868093.521          44.250    21092102.820    87786294.711          41.250  
R13  21868360.236   116775822.326          45.250    21868366.256    90825640.599          40.750  
R23  22699537.972   121427218.800          38.250    22699541.472    94443393.353          33.500  
R15  21324405.820   113951158.965          42.750    21324411.600    88628679.831          40.250  
R08  23718916.464   127013716.522          33.000    23718919.104    98788447.939          29.500  
> 2009 12 18 23 08 10.0000000  0 17                     
G03  20229267.566   106305519.062          50.000    20229267.106    82835469.939          42.000  
G22  24654163.616   129558502.545          43.250    24654161.796   100954677.134          34.750  
G07  21848530.376   114814801.923          48.500    21848529.276    89466079.343          41.250  
G06  21140508.940   111094124.477          49.000    21140508.540    86566850.276          41.750  
G13  24421940.298   128338160.404          41.500    24421940.278   100003760.566          33.000  
G19  20419503.444   107305215.185          49.750    20419500.704    83614452.441          45.250  
G11  23607571.504   124058624.006          44.000    23607570.684    96669057.246          34.500  
G16  22516948.710   118327362.284          48.000    22516947.550    92203139.303          38.750  
G08  24678001.376   129683774.343          41.000    24678001.156   101052291.325          33.000  
S29  37175471.092   195358420.361          44.000  
S37  37213993.032   195560853.061          42.250  
R14  19283104.172   102789795.648          48.750    19283112.132    79947620.444          43.000  
R17  21091762.240   112866281.149          44.250    21091764.160    87784885.089          41.250  
R13  21869123.776   116779899.529          45.250    21869129.776    90828811.754          40.750  
R23  22700144.872   121430465.260          38.000    22700148.352    94445918.378          33.500  
R15  21323811.580   113947983.411          42.750    21323817.360    88626209.958          40.500  
R08  23718665.844   127012374.217          33.250    23718668.404    98787403.916          29.500  
> 2009 12 18 23 08 11.0000000  0 17                     
G03  20229488.766   106306681.507          50.000    20229488.306    82836375.739          41.750  
G22  24653880.336   129557013.925          43.000    24653878.556   100953517.172          34.250  
G07  21848189.136   114813008.660          48.500    21848188.056    89464681.993          41.250  
G06  21140818.700   111095752.326          49.000    21140818.300    86568118.731          41.750  
G13  24422398.218   128340566.801          41.500    24422398.138   100005635.684          32.250  
G19  20419473.764   107305059.237          49.750    20419471.024    83614330.923          45.000  
G11  23606870.224   124054938.894          44.000    23606869.424    96666185.736          34.000  
G16  22517349.610   118329468.993          47.750    22517348.430    92204780.897          37.250  
G08  24677320.216   129680194.852          41.000    24677320.056   101049502.111          34.000  
S29  37175470.152   195358415.310          43.750  
S37  37213992.372   195560849.737          41.750  
R14  19283270.972   102790684.767          48.750    19283278.932    79948311.981          42.750  
R17  21091423.600   112864469.155          44.250    21091425.540    87783475.764          41.000  
R13  21869887.376   116783977.057          45.500    21869893.376    90831983.166          40.500  
R23  22700751.772   121433711.723          37.750    22700755.232    94448443.408          33.000  
R15  21323217.400   113944808.416          43.250    21323223.220    88623740.522          40.000  
R08  23718415.304   127011032.568          33.500    23718417.864    98786360.413          28.750  
> 2009 12 18 23 08 12.0000000  0 17                     
G03  20229710.026   106307844.189          50.000    20229709.546    82837281.727          41.750  
G22  24653597.096   129555525.541          43.250    24653595.336   100952357.396          32.000  
G07  21847847.976   114811215.889          48.500    21847846.896    89463285.033          41.000  
G06  21141128.480   111097380.260          49.000    21141128.100    86569387.249          41.500  
G13  24422856.158   128342973.336          41.250    24422856.078   100007510.908          32.500  
G19  20419444.144   107304903.588          49.750    20419441.404    83614209.638          45.000  
G11  23606168.984   124051253.872          43.750    23606168.184    96663314.292          33.500  
G16  22517750.550   118331575.887          47.750    22517749.370    92206422.630          37.750  
G08  24676639.076   129676615.505          41.000    24676638.976   101046713.006          30.750  
S29  37175469.232   195358410.381          44.000  
S37  37213991.692   195560846.227          41.750  
R14  19283437.932   102791574.707          48.750    19283445.892    79949004.161          42.750  
R17  21091085.040   112862657.484          44.250    21091086.980    87782066.684          41.250  
R13  21870651.036   116788054.884          45.500    21870657.016    90835154.808          40.500  
R23  22701358.632   121436958.047          38.250    22701362.112    94450968.317          33.500  
R15  21322623.300   113941633.868          43.500    21322629.160    88621271.432          40.500  
R08  23718164.964   127009691.398          32.750    23718167.404    98785317.277          29.000  
> 2009 12 18 23 08 13.0000000  0 17                     
G03  20229931.346   106309007.157          50.000    20229930.866    82838187.932          42.000  
G22  24653313.916   129554037.441          43.250    24653312.156   100951197.836          34.000  
G07  21847506.936   114809423.672          48.500    21847505.856    89461888.500          41.250  
G06  21141438.320   111099008.373          49.000    21141437.920    86570655.908          41.250  
G13  24423314.118   128345380.050          41.250    24423314.058   100009386.262          32.000  
G19  20419414.584   107304748.286          49.750    20419411.844    83614088.621          45.000  
G11  23605467.744   124047568.946          44.000    23605466.944    96660442.915          33.250  
G16  22518151.510   118333683.006          47.750    22518150.330    92208064.541          38.250  
G08  24675957.976   129673036.363          41.000    24675957.936   101043924.068          32.000  
S29  37175468.292   195358405.342          44.000  
S37  37213991.152   195560843.134          41.750  
R14  19283605.032   102792465.546          48.750    19283612.992    79949697.035          42.750  
R17  21090746.560   112860846.193          44.250    21090748.500    87780657.904          41.250  
R13  21871414.756   116792133.066          45.500    21871420.716    90838326.723          40.500  
R23  22701965.512   121440204.350          38.000    22701969.012    94453493.216          33.500  
R15  21322029.320   113938459.848          43.500    21322035.200    88618802.748          40.250  
R08  23717914.564   127008350.855          33.500    23717917.004    98784274.634          29.500  
> 2009 12 18 23 08 14.0000000  0 17                     
G03  20230152.706   106310170.425          50.000    20230152.226    82839094.376          42.250  
G22  24653030.796   129552549.672          43.000    24653028.996   100950038.525          33.000  
G07  21847165.996   114807632.036          48.500    21847164.916    89460492.418          40.750  
G06  21141748.160   111100636.645          49.000    21141747.760    86571924.690          41.500  
G13  24423772.138   128347786.980          41.000    24423772.078   100011261.771          32.250  
G19  20419385.124   107304593.365          49.500    20419382.384    83613967.906          45.250  
G11  23604766.564   124043884.228          43.750    23604765.784    96657571.710          32.750  
G16  22518552.550   118335790.373          47.500    22518551.370    92209706.645          38.000  
G08  24675276.916   129669457.393          41.000    24675276.956   101041135.248          32.750  
S29  37175467.292   195358400.105          43.750  
S37  37213990.552   195560840.028          41.500  
R14  19283772.332   102793357.272          48.750    19283780.292    79950390.598          42.750  
R17  21090408.120   112859035.287          44.000    21090410.100    87779249.424          41.250  
R13  21872178.536   116796211.579          45.500    21872184.456    90841498.904          40.500  
R23  22702572.352   121443450.585          38.250    22702575.852    94456018.066          33.500  
R15  21321435.440   113935286.325          43.500    21321441.340    88616334.457          40.250  
R08  23717664.324   127007011.067          32.500    23717666.784    98783232.577          29.000  
> 2009 12 18 23 08 15.0000000  0 17                     
G03  20230374.086   106311333.806          50.000    20230373.606    82840000.907          42.500  
G22  24652747.676   129551062.019          43.000    24652745.936   100948879.321          32.250  
G07  21846825.116   114805840.774          48.500    21846824.036    89459096.627          41.500  
G06  21142058.020   111102264.921          48.750    21142057.620    86573193.478          41.750  
G13  24424230.138   128350193.923          40.500    24424230.078   100013137.315          31.500  
G19  20419355.684   107304438.620          49.500    20419352.944    83613847.329          45.250  
G11  23604065.384   124040199.461          43.500    23604064.644    96654700.461          35.500  
G16  22518953.590   118337897.802          47.500    22518952.410    92211348.802          38.500  
G08  24674595.876   129665878.459          41.250    24674595.916   101038346.470          31.000  
S29  37175466.312   195358394.863          43.750  
S37  37213989.872   195560836.379          41.750  
R14  19283939.752   102794249.698          48.750    19283947.712    79951084.707          42.750  
R17  21090069.740   112857224.601          44.250    21090071.720    87777841.113          41.250  
R13  21872942.356   116800290.250          45.500    21872948.236    90844671.204          40.500  
R23  22703179.172   121446696.575          38.500    22703182.672    94458542.721          33.500  
R15  21320841.620   113932113.161          43.750    21320847.520    88613866.440          40.500  
R08  23717414.164   127005671.699          33.000    23717416.584    98782190.855          29.500  
> 2009 12 18 23 08 16.0000000  0 17                     
G03  20230595.546   106312497.554          50.000    20230595.046    82840907.724          42.500  
G22  24652464.656   129549574.731          43.250    24652462.916   100947720.398          34.250  
G07  21846484.376   114804050.165          48.500    21846483.276    89457701.349          41.750  
G06  21142367.920   111103893.451          49.000    21142367.520    86574462.458          41.500  
G13  24424688.238   128352601.158          40.250    24424688.218   100015013.054          30.750  
G19  20419326.324   107304284.313          49.500    20419323.564    83613727.091          45.250  
G11  23603364.224   124036514.895          43.750    23603363.524    96651829.369          32.500  
G16  22519354.690   118340005.550          47.750    22519353.510    92212991.200          39.000  
G08  24673914.856   129662299.827          41.250    24673914.936   101035557.915          34.500  
S29  37175465.352   195358389.711          43.750  
S37  37213989.252   195560832.934          41.750  
R14  19284107.352   102795143.103          48.750    19284115.312    79951779.576          43.000  
R17  21089731.440   112855414.375          44.000    21089733.440    87776433.159          41.250  
R13  21873706.236   116804369.350          45.500    21873712.096    90847843.837          40.500  
R23  22703785.992   121449942.556          38.250    22703789.512    94461067.377          33.750  
R15  21320247.920   113928940.608          43.750    21320253.820    88611398.901          40.250  
R08  23717164.244   127004333.070          31.250    23717166.564    98781149.699          28.750  
> 2009 12 18 23 08 17.0000000  0 17                     
G03  20230817.086   106313661.708          50.000    20230816.586    82841814.856          42.000  
G22  24652181.716   129548087.897          43.500    24652179.956   100946561.826          33.500  
G07  21846143.756   114802260.226          48.500    21846142.676    89456306.590          41.250  
G06  21142677.860   111105522.231          49.000    21142677.460    86575731.635          41.750  
G13  24425146.378   128355008.692          40.500    24425146.358   100016889.056          32.000  
G19  20419297.044   107304130.496          49.500    20419294.304    83613607.233          45.500  
G11  23602663.124   124032830.619          43.750    23602662.424    96648958.512          32.500  
G16  22519755.850   118342113.652          47.500    22519754.670    92214633.875          38.500  
G08  24673233.916   129658721.489          41.000    24673234.036   101032769.607          31.500  
S29  37175464.392   195358384.595          43.750  
S37  37213988.632   195560829.826          41.750  
R14  19284275.132   102796037.505          48.750    19284283.092    79952475.222          42.750  
R17  21089393.220   112853604.663          44.250    21089395.260    87775025.607          41.000  
R13  21874470.236   116808448.908          45.750    21874476.056    90851016.824          40.250  
R23  22704392.812   121453188.704          38.250    22704396.372    94463592.159          33.250  
R15  21319654.340   113925768.683          43.750    21319660.260    88608931.844          40.500  
R08  23716914.304   127002995.239          31.000    23716916.724    98780109.161          28.750  
> 2009 12 18 23 08 18.0000000  0 17                     
G03  20231038.706   106314826.358          50.000    20231038.206    82842722.376          42.000  
G22  24651898.876   129546601.563          43.500    24651897.076   100945403.639          34.000  
G07  21845803.296   114800471.057          48.500    21845802.196    89454912.428          41.250  
G06  21142987.880   111107151.418          49.000    21142987.480    86577001.134          41.750  
G13  24425604.578   128357416.625          40.500    24425604.578   100018765.378          33.750  
G19  20419267.884   107303977.238          49.500    20419265.144    83613487.811          45.250  
G11  23601962.104   124029146.694          43.500    23601961.384    96646087.922          34.000  
G16  22520157.110   118344222.187          47.500    22520155.910    92216276.890          37.750  
G08  24672553.036   129655143.546          40.750    24672553.096   101029981.601          32.000  
S29  37175463.452   195358379.773          44.000  
S37  37213988.092   195560826.962          41.750  
R14  19284443.112   102796933.008          48.750    19284451.072    79953171.724          42.750  
R17  21089055.140   112851795.552          44.000    21089057.180    87773618.522          41.250  
R13  21875234.336   116812529.055          45.750    21875240.116    90854190.274          40.250  
R23  22704999.692   121456434.934          38.500    22705003.252    94466117.008          33.500  
R15  21319060.880   113922597.482          43.500    21319066.800    88606465.351          40.250  
R08  23716664.584   127001658.238          31.000    23716667.044    98779069.255          29.500  
> 2009 12 18 23 08 19.0000000  0 17                     
G03  20231260.386   106315991.257          50.000    20231259.886    82843630.089          42.000  
G22  24651616.096   129545115.486          43.750    24651614.276   100944245.662          31.250  
G07  21845462.936   114798682.398          48.500    21845461.836    89453518.664          41.000  
G06  21143297.940   111108780.692          49.000    21143297.540    86578270.698          41.250  
G13  24426062.838   128359824.727          40.500    24426062.858   100020641.827          32.000  
G19  20419238.764   107303824.282          49.500    20419236.024    83613368.625          45.250  
G11  23601261.084   124025462.836          43.750    23601260.364    96643217.382          33.500  
G16  22520558.390   118346330.902          47.500    22520557.190    92217920.044          38.000  
G08  24671872.216   129651565.744          40.750    24671872.296   101027193.701          29.500  
S29  37175462.492   195358374.594          43.750  
S37  37213987.572   195560824.345          41.750  
R14  19284611.272   102797829.355          48.750    19284619.212    79953868.881          42.250  
R17  21088717.140   112849986.785          43.750    21088719.160    87772211.700          40.500  
R13  21875998.496   116816609.504          46.000    21876004.256    90857363.955          39.750  
R23  22705606.512   121459681.087          38.750    22705610.112    94468641.794          33.000  
R15  21318467.520   113919426.781          43.500    21318473.460    88603999.252          39.500  
R08  23716415.104   127000321.797          30.250    23716417.464    98778029.794          29.250  
> 2009 12 18 23 08 20.0000000  0 17                     
G03  20231482.166   106317156.672          50.000    20231481.666    82844538.207          42.250  
G22  24651333.396   129543629.914          43.750    24651331.576   100943088.073          33.750  
G07  21845122.716   114796894.528          48.250    21845121.596    89452125.520          41.500  
G06  21143608.060   111110410.399          49.000    21143607.640    86579540.597          41.000  
G13  24426521.158   128362233.225          40.500    24426521.158   100022518.583          33.250  
G19  20419209.784   107303671.931          49.500    20419207.044    83613249.909          45.000  
G11  23600560.124   124021779.376          43.750    23600559.444    96640347.152          35.000  
G16  22520959.750   118348440.081          47.500    22520958.550    92219563.556          37.500  
G08  24671191.476   129647988.397          41.000    24671191.536   101024406.160          31.500  
S29  37175461.512   195358369.471          44.000  
S37  37213987.092   195560821.796          41.750  
R14  19284779.632   102798726.814          48.750    19284787.572    79954566.906          42.000  
R17  21088379.260   112848178.640          43.750    21088381.280    87770805.368          40.500  
R13  21876762.736   116820690.564          45.750    21876768.476    90860538.113          40.000  
R23  22706213.412   121462927.413          38.500    22706217.012    94471166.710          33.250  
R15  21317874.300   113916256.868          43.250    21317880.220    88601533.764          39.250  
R08  23716165.584   126998986.182          31.000    23716168.064    98776990.988          29.000  
> 2009 12 18 23 08 21.0000000  0 17                     
G03  20231704.046   106318322.656          50.000    20231703.546    82845446.764          42.500  
G22  24651050.816   129542144.925          43.500    24651048.976   100941930.939          32.000  
G07  21844782.636   114795107.490          48.250    21844781.516    89450733.021          41.500  
G06  21143918.280   111112040.593          48.750    21143917.860    86580810.880          41.750  
G13  24426979.578   128364642.220          40.750    24426979.538   100024395.718          31.250  
G19  20419180.904   107303520.208          49.500    20419178.144    83613131.683          45.250  
G11  23599859.264   124018096.329          43.500    23599858.564    96637477.248          33.250  
G16  22521361.230   118350549.757          47.500    22521360.010    92221207.458          38.250  
G08  24670510.796   129644411.491          41.250    24670510.796   101021618.971          31.750  
S29  37175460.592   195358364.875          43.750  
S37  37213986.612   195560819.365          41.750  
R14  19284948.212   102799625.438          48.750    19284956.152    79955265.836          42.750  
R17  21088041.460   112846371.141          44.000    21088043.480    87769399.531          41.250  
R13  21877527.116   116824772.263          45.500    21877532.856    90863712.771          40.500  
R23  22706820.332   121466173.935          38.500    22706823.912    94473691.785          33.250  
R15  21317281.220   113913087.749          43.250    21317287.140    88599068.893          40.000  
R08  23715916.384   126997651.607          31.250    23715918.904    98775952.991          29.750  
> 2009 12 18 23 08 22.0000000  0 17                     
G03  20231925.966   106319488.904          50.000    20231925.466    82846355.528          42.250  
G22  24650768.296   129540660.244          43.750    24650766.436   100940774.048          33.250  
G07  21844442.656   114793320.972          48.000    21844441.536    89449340.931          41.500  
G06  21144228.520   111113670.936          49.000    21144228.100    86582081.279          42.000  
G13  24427438.018   128367051.346          40.500    24427438.058   100026272.939          33.250  
G19  20419152.104   107303368.813          49.500    20419149.344    83613013.713          45.500  
G11  23599158.424   124014413.372          43.250    23599157.764    96634607.409          34.250  
G16  22521762.730   118352659.636          47.750    22521761.490    92222851.515          38.250  
G08  24669830.176   129640834.762          41.000    24669830.156   101018831.899          34.750  
S29  37175459.772   195358360.548          43.750  
S37  37213986.192   195560816.940          41.750  
R14  19285116.932   102800524.917          48.750    19285124.892    79955965.431          42.750  
R17  21087703.740   112844564.024          44.000    21087705.780    87767993.997          41.000  
R13  21878291.556   116828854.271          45.500    21878297.276    90866887.666          40.500  
R23  22707427.292   121469420.414          38.500    22707430.832    94476216.824          33.750  
R15  21316688.260   113909919.121          43.250    21316694.180    88596604.407          40.000  
R08  23715667.104   126996317.527          30.500    23715669.764    98774915.390          30.000  
> 2009 12 18 23 08 23.0000000  0 17                     
G03  20232147.926   106320655.353          50.000    20232147.426    82847264.450          42.250  
G22  24650485.816   129539175.751          43.750    24650483.916   100939617.305          33.750  
G07  21844102.796   114791534.943          48.000    21844101.676    89447949.224          41.250  
G06  21144538.760   111115301.332          49.000    21144538.360    86583351.716          41.750  
G13  24427896.478   128369460.607          40.500    24427896.398   100028150.266          29.250  
G19  20419123.344   107303217.701          49.500    20419120.584    83612895.966          45.250  
G11  23598457.584   124010730.514          43.250    23598456.904    96631737.656          33.750  
G16  22522164.250   118354769.661          47.750    22522163.010    92224495.692          38.500  
G08  24669149.576   129637258.138          41.000    24669149.496   101016044.905          32.750  
S29  37175458.912   195358356.110          43.750  
S37  37213985.792   195560814.644          41.750  
R14  19285285.852   102801425.222          49.000    19285293.792    79956665.668          42.750  
R17  21087366.100   112842757.196          43.750    21087368.120    87766588.691          41.000  
R13  21879056.036   116832936.554          45.750    21879061.756    90870062.771          40.500  
R23  22708034.132   121472666.738          38.250    22708037.712    94478741.741          34.000  
R15  21316095.380   113906750.966          43.250    21316101.280    88594140.286          39.750  
R08  23715418.084   126994984.117          30.250    23715420.804    98773878.312          30.250  
> 2009 12 18 23 08 24.0000000  0 17                     
G03  20232369.946   106321822.003          50.000    20232369.446    82848173.530          42.000  
G22  24650203.396   129537691.472          43.750    24650201.516   100938460.725          31.000  
G07  21843762.996   114789749.385          48.000    21843761.896    89446557.878          41.250  
G06  21144849.020   111116931.825          49.000    21144848.600    86584622.232          41.250  
G13  24428354.958   128371869.967          40.750    24428354.958   100030027.684          32.000  
G19  20419094.664   107303066.866          49.500    20419091.884    83612778.430          45.250  
G11  23597756.744   124007047.688          43.000    23597756.144    96628867.931          33.750  
G16  22522565.810   118356879.831          47.750    22522564.570    92226139.979          38.250  
G08  24668468.976   129633681.637          41.250    24668468.996   101013258.025          35.250  
S29  37175458.092   195358351.667          43.750  
S37  37213985.312   195560812.140          41.750  
R14  19285454.892   102802326.309          48.750    19285462.832    79957366.515          42.750  
R17  21087028.500   112840950.654          44.000    21087030.520    87765183.603          41.000  
R13  21879820.596   116837019.080          45.750    21879826.296    90873238.070          40.500  
R23  22708640.992   121475912.944          37.750    22708644.592    94481266.559          32.750  
R15  21315502.580   113903583.228          43.250    21315508.460    88591676.492          39.750  
R08  23715169.144   126993651.207          31.750    23715171.984    98772841.610          30.250  
> 2009 12 18 23 08 25.0000000  0 17                     
G03  20232591.986   106322988.894          50.000    20232591.486    82849082.797          42.250  
G22  24649921.016   129536207.447          43.750    24649919.076   100937304.338          32.250  
G07  21843423.316   114787964.336          48.000    21843422.216    89445166.935          41.750  
G06  21145159.300   111118562.399          49.000    21145158.900    86585892.809          41.750  
G13  24428813.458   128374279.472          40.500    24428813.478   100031905.228          31.000  
G19  20419066.004   107302916.325          49.750    20419063.244    83612661.124          45.500  
G11  23597055.944   124003364.957          43.000    23597055.364    96625998.268          32.500  
G16  22522967.410   118358990.198          47.750    22522966.150    92227784.418          38.750  
G08  24667788.396   129630105.257          41.500    24667788.396   101010471.239          29.250  
S29  37175457.192   195358347.100          44.000  
S37  37213984.752   195560809.268          42.000  
R14  19285624.112   102803228.245          48.750    19285632.032    79958068.021          42.750  
R17  21086690.960   112839144.441          44.000    21086693.000    87763778.773          41.000  
R13  21880585.156   116841101.863          45.750    21880590.856    90876413.565          40.500  
R23  22709247.872   121479159.078          38.000    22709251.432    94483791.332          33.500  
R15  21314909.880   113900415.949          43.500    21314915.740    88589213.051          39.750  
R08  23714920.384   126992318.795          30.500    23714923.184    98771805.292          30.250  
> 2009 12 18 23 08 26.0000000  0 17                     
G03  20232814.066   106324155.924          50.000    20232813.546    82849992.172          42.500  
G22  24649638.656   129534723.562          44.000    24649636.716   100936148.056          34.000  
G07  21843083.716   114786179.705          48.000    21843082.616    89443776.313          41.500  
G06  21145469.600   111120192.989          49.000    21145469.200    86587163.399          41.750  
G13  24429271.958   128376689.045          40.750    24429272.038   100033782.826          30.250  
G19  20419037.404   107302766.000          49.500    20419034.624    83612543.991          45.250  
G11  23596355.124   123999682.215          43.000    23596354.524    96623128.595          35.500  
G16  22523369.010   118361100.620          47.750    22523367.770    92229428.911          37.750  
G08  24667107.856   129626528.937          41.500    24667107.856   101007684.501          32.500  
S29  37175456.312   195358342.449          43.750  
S37  37213984.172   195560806.023          42.000  
R14  19285793.452   102804130.909          49.000    19285801.372    79958770.094          43.000  
R17  21086353.480   112837338.435          44.000    21086355.520    87762374.101          41.000  
R13  21881349.796   116845184.851          46.000    21881355.476    90879589.222          40.750  
R23  22709854.652   121482404.990          38.000    22709858.252    94486315.931          33.500  
R15  21314317.220   113897249.026          43.500    21314323.080    88586749.887          39.750  
R08  23714671.564   126990986.954          30.500    23714674.504    98770769.416          29.500  
> 2009 12 18 23 08 27.0000000  0 17                     
G03  20233036.206   106325323.270          50.000    20233035.686    82850901.790          42.000  
G22  24649356.356   129533240.008          44.000    24649354.356   100934992.029          31.500  
G07  21842744.216   114784395.649          48.000    21842743.116    89442386.138          41.500  
G06  21145779.920   111121823.795          49.000    21145779.520    86588434.153          42.250  
G13  24429730.498   128379098.794          40.250    24429730.658   100035660.538          28.250  
G19  20419008.864   107302616.045          49.500    20419006.084    83612427.143          45.250  
G11  23595654.344   123995999.644          43.000    23595653.744    96620259.072          35.750  
G16  22523770.670   118363211.300          47.750    22523769.430    92231073.601          38.250  
G08  24666427.356   129622952.820          41.750    24666427.396   101004897.922          32.750  
S29  37175455.332   195358337.370          44.000  
S37  37213983.532   195560802.536          42.000  
R14  19285962.952   102805034.472          49.000    19285970.872    79959472.862          42.750  
R17  21086016.040   112835532.822          44.250    21086018.100    87760969.737          41.250  
R13  21882114.456   116849268.202          46.000    21882120.156    90882765.158          40.250  
R23  22710461.372   121485650.843          38.250    22710465.032    94488840.481          33.750  
R15  21313724.660   113894082.626          43.500    21313730.500    88584287.129          39.750  
R08  23714422.964   126989655.806          31.250    23714425.924    98769734.074          30.000  
> 2009 12 18 23 08 28.0000000  0 17                     
G03  20233258.406   106326490.876          50.000    20233257.886    82851811.610          42.250  
G22  24649074.096   129531756.734          43.750    24649072.056   100933836.242          29.000  
G07  21842404.816   114782612.124          48.000    21842403.736    89440996.385          41.750  
G06  21146090.280   111123454.729          49.000    21146089.880    86589705.013          41.250  
G13  24430189.058   128381508.716          40.500    24430189.258   100037538.395          31.250  
G19  20418980.404   107302466.431          49.500    20418977.624    83612310.559          45.250  
G11  23594953.564   123992317.188          43.250    23594953.024    96617389.642          33.750  
G16  22524172.370   118365322.193          47.750    22524171.130    92232718.454          38.000  
G08  24665746.856   129619376.878          41.500    24665746.936   101002111.485          34.000  
S29  37175454.332   195358332.055          43.750  
S37  37213982.872   195560799.013          41.750  
R14  19286132.632   102805938.890          49.000    19286140.552    79960176.296          42.750  
R17  21085678.700   112833727.591          44.000    21085680.740    87759565.669          41.250  
R13  21882879.216   116853351.900          46.000    21882884.916    90885941.370          40.750  
R23  22711068.152   121488896.630          38.000    22711071.812    94491364.975          33.500  
R15  21313132.200   113890916.689          43.500    21313138.040    88581824.738          39.750  
R08  23714174.484   126988325.236          30.000    23714177.504    98768699.184          30.500  
> 2009 12 18 23 08 29.0000000  0 17                     
G03  20233480.646   106327658.797          50.000    20233480.126    82852721.681          42.000  
G22  24648791.916   129530273.779          44.000    24648789.836   100932680.699          32.250  
G07  21842065.536   114780829.201          48.000    21842064.476    89439607.098          41.250  
G06  21146400.680   111125085.866          49.000    21146400.280    86590976.028          41.750  
G13  24430647.678   128383918.899          40.750    24430647.938   100039416.464          25.750  
G19  20418952.024   107302317.196          49.500    20418949.244    83612194.270          45.250  
G11  23594252.844   123988634.930          43.500    23594252.304    96614520.352          33.000  
G16  22524574.110   118367433.340          47.750    22524572.870    92234363.504          37.000  
G08  24665066.436   129615801.150          41.750    24665066.536   100999325.203          34.500  
S29  37175453.332   195358326.834          43.750  
S37  37213982.292   195560796.017          42.000  
R14  19286302.452   102806844.208          49.000    19286310.392    79960880.433          42.750  
R17  21085341.440   112831922.783          44.000    21085343.460    87758161.929          41.000  
R13  21883644.036   116857435.986          45.750    21883649.736    90889117.881          40.250  
R23  22711674.932   121492142.397          37.750    22711678.612    94493889.455          33.500  
R15  21312539.860   113887751.334          43.250    21312545.680    88579362.795          39.750  
R08  23713926.164   126986995.309          31.000    23713929.164    98767664.797          30.250  
> 2009 12 18 23 08 30.0000000  0 17                     
G03  20233702.926   106328826.849          50.000    20233702.386    82853631.850          42.250  
G22  24648509.756   129528790.968          43.500    24648507.656   100931525.260          33.000  
G07  21841726.316   114779046.669          48.000    21841725.256    89438218.112          41.750  
G06  21146711.080   111126717.021          49.000    21146710.680    86592247.056          41.750  
G13  24431106.318   128386329.068          40.500    24431106.638   100041294.526          29.750  
G19  20418923.664   107302168.155          49.750    20418920.884    83612078.134          45.250  
G11  23593552.124   123984952.645          43.500    23593551.604    96611651.049          33.750  
G16  22524975.870   118369544.558          47.500    22524974.610    92236008.610          37.250  
G08  24664386.016   129612225.461          41.750    24664386.176   100996538.952          32.500  
S29  37175452.352   195358321.703          44.000  
S37  37213981.732   195560792.961          42.000  
R14  19286472.432   102807750.239          49.000    19286480.372    79961585.126          42.750  
R17  21085004.220   112830118.232          44.000    21085006.260    87756758.388          41.000  
R13  21884408.876   116861520.272          45.750    21884414.596    90892294.545          40.250  
R23  22712281.632   121495387.962          38.000    22712285.352    94496413.781          33.750  
R15  21311947.580   113884586.321          43.500    21311953.380    88576901.118          39.750  
R08  23713677.924   126985665.856          30.500    23713680.924    98766630.786          30.000  
> 2009 12 18 23 08 31.0000000  0 17                     
G03  20233925.246   106329995.094          50.250    20233924.706    82854542.168          42.250  
G22  24648227.636   129527308.368          43.750    24648225.516   100930369.977          31.500  
G07  21841387.196   114777264.611          48.250    21841386.156    89436829.495          41.250  
G06  21147021.500   111128348.266          49.000    21147021.100    86593518.158          41.500  
G13  24431564.958   128388739.348          40.750    24431565.278   100043172.679          32.250  
G19  20418895.344   107302019.377          49.750    20418892.544    83611962.201          45.250  
G11  23592851.404   123981270.399          43.500    23592850.884    96608781.765          33.250  
G16  22525377.650   118371655.927          47.500    22525376.390    92237653.832          38.250  
G08  24663705.616   129608649.861          41.500    24663705.736   100993752.756          34.000  
S29  37175451.312   195358316.392          44.000  
S37  37213981.112   195560789.995          42.000  
R14  19286642.552   102808657.058          49.000    19286650.492    79962290.429          42.750  
R17  21084667.020   112828313.970          44.250    21084669.100    87755355.075          41.000  
R13  21885173.796   116865604.811          45.500    21885179.496    90895471.409          40.250  
R23  22712888.292   121498633.371          38.250    22712892.052    94498937.990          32.500  
R15  21311355.380   113881421.784          43.500    21311361.200    88574439.814          39.750  
R08  23713429.744   126984336.981          31.000    23713432.824    98765597.223          30.000  
> 2009 12 18 23 08 32.0000000  0 17                     
G03  20234147.646   106331163.824          50.000    20234147.106    82855452.867          42.000  
G22  24647945.596   129525826.243          43.500    24647943.476   100929215.078          32.500  
G07  21841048.216   114775483.290          48.250    21841047.196    89435441.453          41.000  
G06  21147331.980   111129979.889          49.000    21147331.580    86594789.550          41.000  
G13  24432023.698   128391150.014          40.750    24432023.918   100045051.109          27.500  
G19  20418867.144   107301871.154          49.750    20418864.344    83611846.700          45.000  
G11  23592150.764   123977588.496          43.750    23592150.284    96605912.757          34.000  
G16  22525779.510   118373767.702          47.500    22525778.250    92239299.367          38.250  
G08  24663025.276   129605074.669          41.750    24663025.396   100990966.898          30.000  
S29  37175450.312   195358311.090          44.000  
S37  37213980.572   195560787.000          41.750  
R14  19286812.852   102809564.946          49.000    19286820.812    79962996.565          42.500  
R17  21084329.960   112826510.275          44.250    21084332.040    87753952.199          41.000  
R13  21885938.796   116869689.871          45.500    21885944.496    90898648.676          40.250  
R23  22713495.012   121501878.932          37.750    22713498.812    94501462.313          33.500  
R15  21310763.320   113878257.982          43.750    21310769.120    88571979.079          39.500  
R08  23713181.804   126983008.926          30.750    23713184.864    98764564.295          29.500  
> 2009 12 18 23 08 33.0000000  0 17                     
G03  20234370.126   106332332.954          50.000    20234369.586    82856363.877          42.000  
G22  24647663.636   129524344.549          43.500    24647661.496   100928060.505          31.500  
G07  21840709.376   114773702.648          48.250    21840708.376    89434053.940          41.000  
G06  21147642.520   111131611.785          49.000    21147642.120    86596061.155          41.000  
G13  24432482.458   128393560.985          40.750    24432482.778   100046929.778          26.250  
G19  20418839.024   107301723.406          49.750    20418836.224    83611731.576          45.000  
G11  23591450.164   123973906.862          43.750    23591449.624    96603043.946          33.500  
G16  22526181.430   118375879.835          47.500    22526180.170    92240945.182          37.500  
G08  24662345.036   129601499.770          42.000    24662345.096   100988181.259          35.500  
S29  37175449.312   195358305.848          43.750  
S37  37213980.052   195560784.154          42.000  
R14  19286983.372   102810473.839          49.000    19286991.312    79963703.481          42.250  
R17  21083992.980   112824707.104          44.000    21083995.080    87752549.733          41.000  
R13  21886703.896   116873775.409          45.500    21886709.596    90901826.317          40.500  
R23  22714101.712   121505124.558          37.500    22714105.572    94503986.687          33.500  
R15  21310171.380   113875094.828          44.250    21310177.200    88569518.848          39.750  
R08  23712934.004   126981681.604          32.000    23712937.024    98763531.940          28.750  
> 2009 12 18 23 08 34.0000000  0 17                     
G03  20234592.666   106333502.359          50.000    20234592.106    82857275.106          42.250  
G22  24647381.716   129522863.160          43.000    24647379.556   100926906.151          31.500  
G07  21840370.616   114771922.552          48.250    21840369.656    89432666.852          40.750  
G06  21147953.080   111133243.836          49.000    21147952.680    86597332.882          41.000  
G13  24432941.298   128395972.137          40.750    24432941.638   100048808.587          27.250  
G19  20418810.984   107301576.002          49.750    20418808.204    83611616.716          44.750  
G11  23590749.584   123970225.353          43.750    23590749.044    96600175.237          32.250  
G16  22526583.410   118377992.175          47.500    22526582.150    92242591.158          37.750  
G08  24661664.816   129597925.077          42.000    24661664.876   100985395.798          33.750  
S29  37175448.432   195358300.956          43.750  
S37  37213979.472   195560781.216          42.000  
R14  19287154.032   102811383.598          49.000    19287161.992    79964411.072          42.750  
R17  21083656.080   112822904.260          44.000    21083658.180    87751147.521          41.000  
R13  21887469.056   116877861.283          45.500    21887474.756    90905004.215          40.750  
R23  22714708.432   121508370.128          37.250    22714712.312    94506511.015          33.750  
R15  21309579.540   113871932.191          44.000    21309585.360    88567059.019          40.000  
R08  23712686.164   126980354.906          31.750    23712689.304    98762500.064          29.750  
> 2009 12 18 23 08 35.0000000  0 17                     
G03  20234815.226   106334671.949          50.000    20234814.666    82858186.473          41.750  
G22  24647099.836   129521381.941          43.000    24647097.616   100925751.941          30.500  
G07  21840031.956   114770142.918          48.500    21840030.996    89431280.124          41.250  
G06  21148263.660   111134875.926          49.000    21148263.260    86598604.642          41.250  
G13  24433400.138   128398383.389          41.000    24433400.398   100050687.489          28.000  
G19  20418782.984   107301428.845          49.750    20418780.184    83611502.050          45.000  
G11  23590049.044   123966543.888          44.000    23590048.484    96597306.557          34.750  
G16  22526985.390   118380104.644          47.500    22526984.130    92244237.236          37.500  
G08  24660984.596   129594350.468          42.000    24660984.636   100982610.402          33.750  
S29  37175447.412   195358295.567          44.000  
S37  37213978.772   195560777.751          42.000  
R14  19287324.852   102812294.146          49.000    19287332.792    79965119.276          41.750  
R17  21083319.220   112821101.711          44.000    21083321.340    87749745.536          40.500  
R13  21888234.236   116881947.382          45.250    21888239.936    90908182.290          39.750  
R23  22715315.132   121511615.550          37.250    22715319.012    94509035.232          32.500  
R15  21308987.800   113868769.967          44.250    21308993.620    88564599.510          39.000  
R08  23712438.544   126979028.730          31.750    23712441.644    98761468.595          28.500  
> 2009 12 18 23 08 36.0000000  0 17                     
G03  20235037.866   106335841.849          50.000    20235037.306    82859098.087          42.000  
G22  24646817.996   129519901.054          42.750    24646815.776   100924598.005          31.750  
G07  21839693.416   114768363.868          48.500    21839692.496    89429893.856          41.250  
G06  21148574.280   111136508.216          49.000    21148573.880    86599876.555          41.500  
G13  24433859.018   128400794.854          41.250    24433859.218   100052566.544          31.250  
G19  20418755.044   107301282.091          49.750    20418752.264    83611387.698          45.250  
G11  23589348.524   123962862.588          44.000    23589347.944    96594438.014          33.250  
G16  22527387.410   118382217.368          47.500    22527386.150    92245883.516          38.000  
G08  24660304.416   129590776.067          42.000    24660304.456   100979825.152          33.250  
S29  37175446.432   195358290.333          43.750  
S37  37213978.092   195560774.338          41.750  
R14  19287495.852   102813205.609          48.750    19287503.812    79965828.189          42.000  
R17  21082982.460   112819299.546          44.000    21082984.600    87748343.856          40.250  
R13  21888999.496   116886033.865          45.250    21889005.216    90911360.661          39.750  
R23  22715921.812   121514860.901          36.750    22715925.712    94511559.389          32.250  
R15  21308396.140   113865608.345          44.000    21308401.960    88562140.472          39.250  
R08  23712191.004   126977703.344          30.500    23712194.164    98760437.744          29.000  
> 2009 12 18 23 08 37.0000000  0 17                     
G03  20235260.566   106337012.198          50.000    20235260.006    82860010.043          42.000  
G22  24646536.256   129518420.618          42.750    24646534.016   100923444.429          33.750  
G07  21839355.016   114766585.535          48.500    21839354.096    89428508.146          41.250  
G06  21148884.940   111138140.840          49.000    21148884.540    86601148.731          41.750  
G13  24434317.958   128403206.668          41.250    24434318.138   100054445.862          28.000  
G19  20418727.224   107301135.848          49.750    20418724.424    83611273.745          45.500  
G11  23588648.064   123959181.596          44.000    23588647.444    96591569.706          34.500  
G16  22527789.530   118384330.491          47.250    22527788.270    92247530.104          38.000  
G08  24659624.316   129587202.043          41.750    24659624.296   100977040.201          34.500  
S29  37175445.512   195358285.409          43.750  
S37  37213977.432   195560770.988          41.750  
R14  19287667.032   102814118.113          48.750    19287674.992    79966537.912          42.000  
R17  21082645.760   112817497.944          44.000    21082647.940    87746942.612          40.500  
R13  21889764.856   116890120.866          45.250    21889770.576    90914539.436          39.750  
R23  22716528.472   121518106.441          37.500    22716532.432    94514083.694          32.750  
R15  21307804.620   113862447.407          44.250    21307810.440    88559681.967          39.500  
R08  23711943.584   126976378.651          33.000    23711946.764    98759407.429          29.000  
> 2009 12 18 23 08 38.0000000  0 17                     
G03  20235483.366   106338183.009          50.250    20235482.806    82860922.364          42.250  
G22  24646254.636   129516940.682          42.500    24646252.336   100922291.242          31.500  
G07  21839016.756   114764807.935          48.750    21839015.836    89427123.001          40.750  
G06  21149195.680   111139773.790          49.000    21149195.280    86602421.156          42.000  
G13  24434776.978   128405618.858          41.250    24434777.138   100056325.495          28.000  
G19  20418699.504   107300990.139          49.750    20418696.704    83611160.206          45.250  
G11  23587947.664   123955500.919          44.000    23587946.964    96588701.640          34.000  
G16  22528191.710   118386444.022          47.250    22528190.450    92249177.011          38.000  
G08  24658944.296   129583628.414          41.750    24658944.276   100974255.549          32.750  
S29  37175444.472   195358279.993          43.750  
S37  37213976.772   195560767.637          41.750  
R14  19287838.412   102815031.673          48.750    19287846.352    79967248.461          42.250  
R17  21082309.180   112815696.908          43.750    21082311.380    87745541.811          40.750  
R13  21890530.316   116894208.393          45.500    21890536.036    90917718.621          40.000  
R23  22717135.212   121521352.032          37.500    22717139.192    94516608.047          33.250  
R15  21307213.220   113859287.161          44.000    21307219.020    88557223.996          39.250  
R08  23711696.384   126975054.877          31.750    23711699.564    98758377.827          28.250  
> 2009 12 18 23 08 39.0000000  0 17                     
G03  20235706.246   106339354.204          50.250    20235705.686    82861834.983          42.500  
G22  24645973.076   129515461.135          42.750    24645970.816   100921138.354          32.250  
G07  21838678.616   114763030.998          48.750    21838677.716    89425738.372          41.250  
G06  21149506.480   111141407.031          49.000    21149506.080    86603693.811          41.750  
G13  24435236.078   128408031.335          40.750    24435236.138   100058205.344          29.250  
G19  20418671.864   107300844.880          49.750    20418669.064    83611047.016          45.250  
G11  23587247.304   123951820.466          44.000    23587246.564    96585833.763          34.000  
G16  22528593.970   118388557.860          47.250    22528592.710    92250824.153          38.250  
G08  24658264.276   129580055.014          42.000    24658264.296   100971471.067          33.250  
S29  37175443.512   195358274.799          43.750  
S37  37213976.132   195560764.364          41.750  
R14  19288009.972   102815946.192          48.750    19288017.932    79967959.754          42.750  
R17  21081972.700   112813896.344          44.000    21081974.900    87744141.372          41.250  
R13  21891295.856   116898296.350          45.250    21891301.556    90920898.139          40.250  
R23  22717742.012   121524597.700          37.500    22717745.952    94519132.458          33.500  
R15  21306621.960   113856127.521          43.750    21306627.740    88554766.496          39.250  
R08  23711449.224   126973731.705          32.250    23711452.464    98757348.683          29.500  
> 2009 12 18 23 08 40.0000000  0 17                     
G03  20235929.166   106340525.604          50.250    20235928.586    82862747.764          42.000  
G22  24645691.536   129513981.782          42.750    24645689.276   100919985.614          33.750  
G07  21838340.556   114761254.538          49.000    21838339.676    89424354.118          40.500  
G06  21149817.300   111143040.354          49.000    21149816.900    86604966.530          41.750  
G13  24435695.158   128410443.903          41.250    24435695.178   100060085.276          23.500  
G19  20418644.264   107300699.896          49.750    20418641.464    83610934.040          45.500  
G11  23586546.944   123948140.083          44.000    23586546.184    96582965.938          34.250  
G16  22528996.230   118390671.851          47.250    22528994.990    92252471.418          38.500  
G08  24657584.316   129576481.774          41.750    24657584.396   100968686.736          29.750  
S29  37175442.552   195358269.707          43.750  
S37  37213975.532   195560761.092          41.750  
R14  19288181.692   102816861.522          48.750    19288189.672    79968671.677          43.000  
R17  21081636.280   112812096.093          44.000    21081638.500    87742741.176          41.250  
R13  21892061.436   116902384.555          45.500    21892067.156    90924077.852          40.750  
R23  22718348.772   121527843.262          37.500    22718352.712    94521656.773          33.250  
R15  21306030.800   113852968.327          43.750    21306036.520    88552309.345          39.500  
R08  23711202.244   126972409.106          32.750    23711205.484    98756319.993          28.500  
> 2009 12 18 23 08 41.0000000  0 17                     
G03  20236152.126   106341697.248          50.250    20236151.546    82863660.732          42.250  
G22  24645410.076   129512502.726          42.750    24645407.816   100918833.102          32.250  
G07  21838002.616   114759478.580          48.750    21838001.736    89422970.253          40.750  
G06  21150128.120   111144673.788          49.000    21150127.720    86606239.333          41.250  
G13  24436154.258   128412856.634          41.250    24436154.398   100061965.326          28.750  
G19  20418616.744   107300555.227          49.750    20418613.944    83610821.313          45.250  
G11  23585846.604   123944459.790          44.000    23585845.824    96580098.175          33.750  
G16  22529398.530   118392786.033          47.250    22529397.310    92254118.835          38.000  
G08  24656904.396   129572908.691          41.750    24656904.436   100965902.524          30.000  
S29  37175441.612   195358264.793          43.750  
S37  37213974.872   195560757.669          42.000  
R14  19288353.552   102817777.688          48.750    19288361.552    79969384.249          42.750  
R17  21081299.900   112810296.170          44.000    21081302.160    87741341.243          41.250  
R13  21892827.056   116906473.054          45.500    21892832.796    90927257.798          40.500  
R23  22718955.452   121531088.714          37.500    22718959.432    94524181.012          33.250  
R15  21305439.680   113849809.615          43.500    21305445.400    88549852.567          39.500  
R08  23710955.344   126971087.156          32.250    23710958.604    98755291.805          28.500  
> 2009 12 18 23 08 42.0000000  0 17                     
G03  20236375.166   106342869.242          50.250    20236374.586    82864573.970          42.000  
G22  24645128.676   129511024.014          42.750    24645126.416   100917680.849          31.500  
G07  21837664.776   114757703.261          48.750    21837663.896    89421586.883          41.250  
G06  21150439.000   111146307.473          49.250    21150438.600    86607512.333          41.250  
G13  24436613.438   128415269.607          41.250    24436613.598   100063845.583          31.250  
G19  20418589.304   107300410.974          49.750    20418586.484    83610708.906          45.250  
G11  23585146.304   123940779.702          43.750    23585145.504    96577230.568          34.500  
G16  22529800.910   118394900.504          47.000    22529799.690    92255766.473          38.500  
G08  24656224.496   129569335.861          41.750    24656224.516   100963118.502          32.000  
S29  37175440.612   195358259.294          44.000  
S37  37213974.332   195560754.547          42.000  
R14  19288525.592   102818694.795          49.000    19288533.592    79970097.554          42.750  
R17  21080963.600   112808496.724          44.000    21080965.900    87739941.678          41.500  
R13  21893592.776   116910561.980          45.500    21893598.516    90930438.074          40.500  
R23  22719562.112   121534334.145          37.750    22719566.132    94526705.235          33.250  
R15  21304848.660   113846651.466          43.500    21304854.360    88547396.229          39.500  
R08  23710708.624   126969765.850          32.750    23710711.804    98754264.127          29.000  
> 2009 12 18 23 08 43.0000000  0 17                     
G03  20236598.246   106344041.588          50.250    20236597.666    82865487.488          42.500  
G22  24644847.356   129509545.657          42.750    24644845.096   100916528.872          30.000  
G07  21837327.056   114755928.557          48.750    21837326.176    89420203.995          41.500  
G06  21150749.920   111147941.390          49.250    21150749.540    86608785.517          41.000  
G13  24437072.658   128417682.859          41.250    24437072.818   100065726.043          31.250  
G19  20418561.924   107300267.138          49.750    20418559.124    83610596.826          45.250  
G11  23584446.044   123937099.819          43.500    23584445.244    96574363.129          34.250  
G16  22530203.330   118397015.264          47.000    22530202.130    92257414.340          38.250  
G08  24655544.676   129565763.299          42.250    24655544.696   100960334.686          29.250  
S29  37175439.672   195358254.288          44.000  
S37  37213973.832   195560751.946          41.750  
R14  19288697.832   102819612.852          48.750    19288705.832    79970811.598          43.000  
R17  21080627.420   112806697.728          44.000    21080629.740    87738542.463          41.250  
R13  21894358.576   116914651.312          45.250    21894364.336    90933618.663          40.750  
R23  22720168.832   121537579.591          37.500    22720172.852    94529229.468          33.750  
R15  21304257.780   113843493.908          43.500    21304263.460    88544940.350          40.000  
R08  23710462.044   126968445.345          32.750    23710465.144    98753237.072          29.000  
> 2009 12 18 23 08 44.0000000  0 17                     
G03  20236821.406   106345214.199          50.250    20236820.806    82866401.211          41.750  
G22  24644566.056   129508067.578          42.750    24644563.776   100915377.123          31.000  
G07  21836989.456   114754154.391          48.500    21836988.576    89418821.526          41.250  
G06  21151060.880   111149575.453          49.250    21151060.500    86610058.815          41.500  
G13  24437531.918   128420096.266          41.000    24437532.038   100067606.620          30.500  
G19  20418534.624   107300123.642          49.750    20418531.824    83610485.011          45.250  
G11  23583745.804   123933420.088          43.500    23583744.984    96571495.814          32.750  
G16  22530605.790   118399130.261          47.000    22530604.610    92259062.387          38.000  
G08  24654864.856   129562190.925          42.250    24654864.916   100957551.016          32.500  
S29  37175438.672   195358249.230          44.000  
S37  37213973.372   195560749.426          42.000  
R14  19288870.232   102820531.782          48.750    19288878.212    79971526.320          43.000  
R17  21080291.280   112804899.098          44.250    21080293.620    87737143.524          41.250  
R13  21895124.436   116918740.956          45.250    21895130.196    90936799.500          40.750  
R23  22720775.512   121540824.952          37.500    22720779.512    94531753.637          33.500  
R15  21303666.980   113840336.857          43.500    21303672.640    88542484.870          39.500  
R08  23710215.564   126967125.442          34.000    23710218.624    98752210.479          29.000  
> 2009 12 18 23 08 45.0000000  0 17                     
G03  20237044.666   106346387.475          50.250    20237044.066    82867315.456          42.500  
G22  24644284.896   129506590.199          43.000    24644282.636   100914225.926          31.750  
G07  21836652.016   114752381.164          48.500    21836651.136    89417439.792          41.000  
G06  21151371.920   111151210.061          49.250    21151371.540    86611332.538          41.250  
G13  24437991.258   128422510.250          41.000    24437991.358   100069487.647          32.000  
G19  20418507.464   107299980.894          49.750    20418504.664    83610373.775          44.750  
G11  23583045.644   123929740.833          43.750    23583044.884    96568628.866          34.000  
G16  22531008.350   118401245.833          47.000    22531007.170    92260710.885          38.000  
G08  24654185.156   129558619.109          42.250    24654185.216   100954767.779          31.750  
S29  37175437.812   195358244.637          44.000  
S37  37213972.832   195560746.675          42.000  
R14  19289042.872   102821451.973          48.750    19289050.852    79972242.026          43.000  
R17  21079955.320   112803101.225          44.250    21079957.680    87735745.177          41.500  
R13  21895890.456   116922831.359          45.500    21895896.216    90939980.920          40.750  
R23  22721382.272   121544070.672          37.750    22721386.272    94534278.084          33.750  
R15  21303076.340   113837180.690          43.750    21303081.980    88540030.076          39.500  
R08  23709969.384   126965806.488          33.000    23709972.264    98751184.617          28.750  
> 2009 12 18 23 08 46.0000000  0 17                     
G03  20237268.026   106347561.174          50.250    20237267.426    82868230.025          42.000  
G22  24644003.836   129505113.239          43.250    24644001.536   100913075.051          32.500  
G07  21836314.716   114750608.640          48.500    21836313.856    89416058.603          41.500  
G06  21151683.040   111152844.979          49.250    21151682.660    86612606.502          41.250  
G13  24438450.678   128424924.550          41.250    24438450.678   100071368.899          28.000  
G19  20418480.384   107299838.624          49.750    20418477.584    83610262.919          45.500  
G11  23582345.564   123926061.885          43.750    23582344.804    96565762.151          32.250  
G16  22531410.990   118403361.773          47.250    22531409.810    92262359.666          38.000  
G08  24653505.516   129555047.648          42.750    24653505.616   100951984.806          31.750  
S29  37175436.892   195358239.808          44.250  
S37  37213972.332   195560743.977          42.000  
R14  19289215.672   102822373.177          49.000    19289223.672    79972958.514          43.000  
R17  21079619.420   112801303.845          44.000    21079621.800    87734347.214          41.500  
R13  21896656.556   116926922.258          45.500    21896662.296    90943162.728          41.000  
R23  22721989.072   121547316.444          37.500    22721993.052    94536802.569          34.000  
R15  21302485.840   113834025.213          44.000    21302491.440    88537575.819          39.750  
R08  23709723.264   126964488.371          33.000    23709726.044    98750159.404          28.500  
> 2009 12 18 23 08 47.0000000  0 17                     
G03  20237491.446   106348735.278          50.250    20237490.846    82869144.913          42.250  
G22  24643722.856   129503636.708          43.250    24643720.556   100911924.517          29.250  
G07  21835977.536   114748836.782          48.500    21835976.676    89414677.938          40.750  
G06  21151994.200   111154480.157          49.250    21151993.820    86613880.662          41.250  
G13  24438910.158   128427339.173          41.500    24438910.138   100073250.434          19.500  
G19  20418453.404   107299696.833          49.750    20418450.604    83610152.432          45.000  
G11  23581645.504   123922383.197          44.000    23581644.784    96562895.650          33.250  
G16  22531813.710   118405478.076          47.250    22531812.530    92264008.729          38.250  
G08  24652825.956   129551476.502          43.000    24652826.096   100949202.090          34.500  
S29  37175436.092   195358235.410          44.000  
S37  37213971.852   195560741.404          42.000  
R14  19289388.692   102823295.380          48.750    19289396.692    79973675.783          43.000  
R17  21079283.620   112799507.007          44.000    21079286.040    87732949.672          41.500  
R13  21897422.756   116931013.619          45.500    21897428.516    90946344.896          40.750  
R23  22722595.852   121550562.292          37.500    22722599.832    94539327.114          34.000  
R15  21301895.440   113830870.380          44.250    21301901.040    88535122.062          39.750  
R08  23709477.324   126963171.015          33.500    23709479.984    98749134.788          29.500  
> 2009 12 18 23 08 48.0000000  0 17                     
G03  20237714.886   106349909.403          50.250    20237714.286    82870059.815          41.750  
G22  24643441.896   129502160.227          43.250    24643439.596   100910774.011          33.750  
G07  21835640.416   114747065.230          48.500    21835639.556    89413297.506          41.250  
G06  21152305.340   111156115.240          49.250    21152304.960    86615154.749          41.250  
G13  24439369.638   128429753.725          41.250    24439369.578   100075131.917          25.750  
G19  20418426.444   107299555.149          49.750    20418423.644    83610042.028          45.000  
G11  23580945.444   123918704.394          44.000    23580944.764    96560029.060          34.000  
G16  22532216.410   118407594.336          47.250    22532215.230    92265657.761          37.750  
G08  24652146.376   129547905.259          42.750    24652146.516   100946419.299          30.250  
S29  37175435.212   195358230.838          44.000  
S37  37213971.352   195560738.661          41.750  
R14  19289561.812   102824218.197          48.750    19289569.812    79974393.527          43.000  
R17  21078947.860   112797710.296          44.000    21078950.280    87731552.232          41.500  
R13  21898188.956   116935105.060          45.250    21898194.716    90949527.128          41.250  
R23  22723202.532   121553807.814          37.750    22723206.572    94541851.410          34.250  
R15  21301305.100   113827715.796          44.000    21301310.720    88532668.494          39.750  
R08  23709231.264   126961853.993          33.750    23709233.984    98748110.431          29.000  
> 2009 12 18 23 08 49.0000000  0 17                     
G03  20237938.306   106351083.448          50.250    20237937.686    82870974.654          42.250  
G22  24643160.896   129500683.657          43.250    24643158.576   100909623.447          31.750  
G07  21835303.336   114745293.842          48.250    21835302.476    89411917.206          41.000  
G06  21152616.460   111157750.126          49.250    21152616.080    86616428.684          41.250  
G13  24439829.078   128432168.073          41.500    24439829.038   100077013.231          25.000  
G19  20418399.484   107299413.424          49.750    20418396.684    83609931.592          45.250  
G11  23580245.344   123915025.346          44.000    23580244.664    96557162.272          34.750  
G16  22532619.090   118409710.450          47.250    22532617.910    92267306.678          37.250  
G08  24651466.776   129544333.852          42.750    24651466.896   100943636.398          32.250  
S29  37175434.272   195358225.945          44.000  
S37  37213970.752   195560735.421          42.000  
R14  19289735.032   102825141.503          48.750    19289743.052    79975111.656          43.000  
R17  21078612.080   112795913.547          44.000    21078614.520    87730154.760          41.250  
R13  21898955.116   116939196.451          45.250    21898960.916    90952709.321          41.000  
R23  22723809.132   121557052.878          37.500    22723813.232    94544375.347          34.250  
R15  21300714.780   113824561.358          44.250    21300720.380    88530215.042          39.750  
R08  23708985.444   126960537.263          32.750    23708988.024    98747086.304          27.250  
> 2009 12 18 23 08 50.0000000  0 17                     
G03  20238161.726   106352257.481          50.250    20238161.106    82871889.485          42.000  
G22  24642879.936   129499207.102          43.750    24642877.656   100908472.883          33.000  
G07  21834966.296   114743522.735          48.500    21834965.436    89410537.122          41.000  
G06  21152927.540   111159384.923          49.250    21152927.160    86617702.550          41.750  
G13  24440288.498   128434582.338          41.750    24440288.458   100078894.465          29.750  
G19  20418372.524   107299271.782          49.750    20418369.724    83609821.222          45.500  
G11  23579545.224   123911346.183          43.750    23579544.524    96554295.387          35.250  
G16  22533021.750   118411826.500          47.250    22533020.590    92268955.549          37.750  
G08  24650787.176   129540762.349          43.000    24650787.156   100940853.406          31.250  
S29  37175433.232   195358220.441          44.000  
S37  37213970.112   195560731.827          41.750  
R14  19289908.352   102826065.391          48.750    19289916.352    79975830.236          43.250  
R17  21078276.340   112794116.878          44.250    21078278.760    87728757.353          41.250  
R13  21899721.336   116943287.887          45.000    21899727.116    90955891.548          41.000  
R23  22724415.692   121560297.605          37.750    22724419.792    94546899.021          33.750  
R15  21300124.500   113821407.142          44.250    21300130.100    88527761.763          40.000  
R08  23708739.644   126959220.836          32.000    23708742.124    98746062.408          29.000  
> 2009 12 18 23 08 51.0000000  0 17                     
G03  20238385.226   106353431.963          50.250    20238384.586    82872804.664          42.000  
G22  24642599.036   129497730.997          43.750    24642596.736   100907322.673          33.250  
G07  21834629.396   114741752.339          48.500    21834628.536    89409157.593          41.000  
G06  21153238.680   111161020.019          49.250    21153238.300    86618976.655          42.000  
G13  24440747.998   128436996.975          41.500    24440747.798   100080775.997          21.750  
G19  20418345.684   107299130.653          49.750    20418342.864    83609711.251          45.500  
G11  23578845.144   123907667.293          44.000    23578844.424    96551428.728          34.000  
G16  22533424.490   118413942.942          47.250    22533423.310    92270604.722          37.750  
G08  24650107.596   129537191.182          43.000    24650107.556   100938070.680          32.250  
S29  37175432.212   195358215.088          44.000  
S37  37213969.432   195560728.317          42.000  
R14  19290081.872   102826990.326          49.000    19290089.892    79976549.628          43.000  
R17  21077940.700   112792320.750          44.000    21077943.120    87727360.365          41.250  
R13  21900487.616   116947379.825          44.750    21900493.416    90959074.167          40.750  
R23  22725022.312   121563542.479          37.750    22725026.392    94549422.804          33.500  
R15  21299534.380   113818253.640          44.250    21299539.960    88525309.041          40.250  
R08  23708494.024   126957905.306          31.500    23708496.424    98745039.215          28.250  
> 2009 12 18 23 08 52.0000000  0 17                     
G03  20238608.806   106354606.955          50.250    20238608.186    82873720.242          42.000  
G22  24642318.256   129496255.428          43.750    24642315.936   100906172.870          33.250  
G07  21834292.656   114739982.733          48.500    21834291.776    89407778.687          41.000  
G06  21153549.900   111162655.518          49.250    21153549.520    86620251.069          41.500  
G13  24441207.558   128439412.010          41.500    24441207.498   100082657.853          24.750  
G19  20418318.944   107298990.096          49.750    20418316.144    83609601.729          45.500  
G11  23578145.144   123903988.791          44.000    23578144.444    96548562.359          35.250  
G16  22533827.310   118416059.833          47.250    22533826.130    92272254.246          37.500  
G08  24649428.116   129533620.448          42.750    24649428.036   100935288.278          30.250  
S29  37175431.232   195358209.925          44.000  
S37  37213968.872   195560725.271          42.000  
R14  19290255.592   102827916.362          48.750    19290263.612    79977269.880          43.000  
R17  21077605.160   112790525.242          44.250    21077607.580    87725963.857          41.000  
R13  21901254.016   116951472.363          44.750    21901259.816    90962257.246          40.750  
R23  22725628.932   121566787.458          37.500    22725633.012    94551946.676          33.000  
R15  21298944.400   113815100.872          44.250    21298949.980    88522856.882          39.750  
R08  23708248.524   126956590.560          32.000    23708250.824    98744016.646          28.750  
> 2009 12 18 23 08 53.0000000  0 17                     
G03  20238832.526   106355782.546          50.250    20238831.886    82874636.289          42.250  
G22  24642037.596   129494780.497          43.750    24642035.316   100905023.576          32.250  
G07  21833956.076   114738214.011          48.500    21833955.196    89406400.465          41.250  
G06  21153861.220   111164291.521          49.250    21153860.860    86621525.875          41.750  
G13  24441667.218   128441827.537          41.750    24441667.238   100084540.099          23.250  
G19  20418292.324   107298850.215          49.750    20418289.504    83609492.730          45.000  
G11  23577445.224   123900310.732          43.750    23577444.564    96545696.346          35.500  
G16  22534230.250   118418177.276          47.250    22534229.090    92273904.201          37.500  
G08  24648748.736   129530050.238          43.000    24648748.616   100932506.296          32.000  
S29  37175430.292   195358204.978          44.000  
S37  37213968.332   195560722.476          42.000  
R14  19290429.532   102828843.609          49.000    19290437.572    79977991.072          43.250  
R17  21077269.760   112788730.460          44.000    21077272.180    87724567.917          41.000  
R13  21902020.536   116955565.561          44.500    21902026.336    90965440.843          40.500  
R23  22726235.612   121570032.765          37.500    22726239.672    94554470.796          33.000  
R15  21298354.580   113811948.964          44.000    21298360.140    88520405.396          39.750  
R08  23708003.184   126955276.765          33.000    23708005.424    98742994.807          29.000  
> 2009 12 18 23 08 54.0000000  0 17                     
G03  20239056.306   106356958.465          50.250    20239055.666    82875552.587          42.000  
G22  24641756.996   129493305.887          43.250    24641754.776   100903874.533          31.500  
G07  21833619.616   114736445.878          48.500    21833618.716    89405022.695          41.000  
G06  21154172.580   111165927.734          49.250    21154172.220    86622800.848          41.000  
G13  24442126.918   128444243.303          41.500    24442126.918   100086422.514          30.750  
G19  20418265.804   107298710.741          49.750    20418262.984    83609384.049          45.500  
G11  23576745.344   123896632.853          44.000    23576744.724    96542830.475          32.500  
G16  22534633.230   118420294.998          47.250    22534632.070    92275554.376          37.750  
G08  24648069.416   129526480.271          43.000    24648069.316   100929724.498          27.750  
S29  37175429.352   195358200.146          44.000  
S37  37213967.772   195560719.714          42.000  
R14  19290603.652   102829771.798          48.750    19290611.692    79978713.001          43.000  
R17  21076934.440   112786936.100          44.000    21076936.860    87723172.304          41.250  
R13  21902787.116   116959659.139          44.500    21902792.916    90968624.730          40.500  
R23  22726842.332   121573278.073          37.500    22726846.352    94556994.924          33.250  
R15  21297764.860   113808797.664          44.250    21297770.400    88517954.385          39.750  
R08  23707758.004   126953963.770          32.750    23707760.204    98741973.583          29.250  
> 2009 12 18 23 08 55.0000000  0 17                     
G03  20239280.126   106358134.631          50.250    20239279.486    82876469.080          42.250  
G22  24641476.456   129491831.558          43.500    24641474.196   100902725.715          30.000  
G07  21833283.256   114734678.273          48.500    21833282.356    89403645.340          41.000  
G06  21154483.960   111167564.049          49.000    21154483.600    86624075.897          41.500  
G13  24442586.658   128446659.227          41.500    24442586.538   100088305.029          25.500  
G19  20418239.304   107298571.572          49.750    20418236.484    83609275.606          45.500  
G11  23576045.464   123892955.083          43.750    23576044.824    96539964.666          35.000  
G16  22535036.250   118422412.893          47.500    22535035.110    92277204.684          37.750  
G08  24647390.136   129522910.460          43.000    24647390.016   100926942.829          29.250  
S29  37175428.412   195358195.093          44.000  
S37  37213967.252   195560717.076          41.750  
R14  19290777.932   102830700.835          48.750    19290785.972    79979435.583          43.000  
R17  21076599.180   112785142.069          44.000    21076601.600    87721776.949          41.250  
R13  21903553.756   116963753.017          44.250    21903559.556    90971808.851          40.250  
R23  22727448.952   121576523.263          37.500    22727452.972    94559518.959          33.500  
R15  21297175.220   113805646.803          44.000    21297180.760    88515503.716          39.750  
R08  23707512.844   126952651.260          32.250    23707515.084    98740952.735          29.500  
> 2009 12 18 23 08 56.0000000  0 17                     
G03  20239503.986   106359311.008          50.250    20239503.346    82877385.737          42.000  
G22  24641195.936   129490357.410          43.250    24641193.676   100901577.035          32.000  
G07  21832946.976   114732911.150          48.750    21832946.076    89402268.359          41.000  
G06  21154795.380   111169200.475          49.000    21154795.020    86625351.032          41.500  
G13  24443046.418   128449075.243          41.000    24443046.258   100090187.661          26.500  
G19  20418212.884   107298432.687          49.750    20418210.084    83609167.384          45.000  
G11  23575345.624   123889277.399          43.250    23575345.024    96537098.938          33.750  
G16  22535439.290   118424530.951          47.500    22535438.150    92278855.122          37.750  
G08  24646710.836   129519340.757          42.750    24646710.736   100924161.240          32.500  
S29  37175427.392   195358189.843          43.750  
S37  37213966.752   195560714.478          42.000  
R14  19290952.372   102831630.669          48.750    19290960.432    79980158.788          43.000  
R17  21076263.960   112783348.363          44.250    21076266.400    87720381.843          41.000  
R13  21904320.456   116967847.155          44.250    21904326.256    90974993.179          40.250  
R23  22728055.592   121579768.324          37.500    22728059.632    94562042.891          33.500  
R15  21296585.660   113802496.416          44.000    21296591.200    88513053.415          39.500  
R08  23707267.884   126951339.256          32.500    23707270.084    98739932.282          29.250  
> 2009 12 18 23 08 57.0000000  0 17                     
G03  20239727.886   106360487.660          50.250    20239727.226    82878302.613          42.000  
G22  24640915.476   129488883.577          43.000    24640913.196   100900428.598          33.750  
G07  21832610.816   114731144.585          48.750    21832609.916    89400891.813          41.000  
G06  21155106.800   111170837.054          49.000    21155106.440    86626626.286          41.500  
G13  24443506.198   128451491.458          41.000    24443506.098   100092070.427          30.500  
G19  20418186.524   107298294.154          49.750    20418183.724    83609059.436          45.250  
G11  23574645.804   123885599.812          43.750    23574645.264    96534233.296          34.250  
G16  22535842.390   118426649.237          47.250    22535841.250    92280505.735          38.000  
G08  24646031.576   129515771.250          43.250    24646031.416   100921379.800          28.750  
S29  37175426.412   195358184.607          43.750  
S37  37213966.232   195560711.663          42.000  
R14  19291126.972   102832561.386          48.750    19291135.032    79980882.676          43.000  
R17  21075928.840   112781555.020          44.000    21075931.280    87718987.021          41.000  
R13  21905087.216   116971941.632          44.000    21905092.996    90978177.766          40.500  
R23  22728662.212   121583013.332          37.750    22728666.252    94564566.786          33.250  
R15  21295996.240   113799346.564          44.000    21296001.740    88510603.533          39.500  
R08  23707023.044   126950027.991          32.750    23707025.224    98738912.402          29.500  
> 2009 12 18 23 08 58.0000000  0 17                     
G03  20239951.886   106361664.715          50.250    20239951.226    82879219.795          42.000  
G22  24640635.096   129487410.165          43.250    24640632.836   100899280.482          29.500  
G07  21832274.776   114729378.681          48.750    21832273.876    89399515.787          41.250  
G06  21155418.280   111172473.876          49.000    21155417.920    86627901.736          42.000  
G13  24443966.038   128453907.960          40.250    24443966.038   100093953.458          28.000  
G19  20418160.244   107298156.072          49.750    20418157.444    83608951.838          45.250  
G11  23573946.024   123881922.498          44.000    23573945.484    96531367.859          34.500  
G16  22536245.550   118428767.844          47.250    22536244.410    92282156.596          37.250  
G08  24645352.396   129512202.059          43.000    24645352.196   100918598.595          31.000  
S29  37175425.452   195358179.667          44.000  
S37  37213965.692   195560708.847          41.750  
R14  19291301.732   102833493.093          48.750    19291309.812    79981607.337          43.250  
R17  21075593.820   112779762.177          44.250    21075596.220    87717592.588          41.000  
R13  21905854.056   116976036.545          44.250    21905859.796    90981362.695          40.250  
R23  22729268.832   121586258.404          37.500    22729272.872    94567090.733          33.750  
R15  21295406.900   113796197.344          44.250    21295412.380    88508154.144          39.500  
R08  23706778.284   126948717.446          32.500    23706780.504    98737893.100          29.750  
> 2009 12 18 23 08 59.0000000  0 17                     
G03  20240175.926   106362842.000          50.250    20240175.266    82880137.160          42.500  
G22  24640354.756   129485937.003          43.000    24640352.476   100898132.545          34.000  
G07  21831938.836   114727613.293          48.750    21831937.916    89398140.159          41.750  
G06  21155729.780   111174110.851          49.000    21155729.400    86629177.299          41.750  
G13  24444425.898   128456324.635          40.750    24444425.878   100095836.577          29.500  
G19  20418134.044   107298018.314          49.750    20418131.244    83608844.496          45.250  
G11  23573246.284   123878245.282          44.250    23573245.744    96528502.502          34.750  
G16  22536648.730   118430886.640          47.250    22536647.590    92283807.614          37.750  
G08  24644673.236   129508633.010          42.500    24644673.056   100915817.504          32.250  
S29  37175424.512   195358174.659          44.000  
S37  37213965.092   195560705.662          41.750  
R14  19291476.692   102834425.638          48.750    19291484.772    79982332.650          43.000  
R17  21075258.860   112777969.677          44.000    21075261.240    87716198.421          41.250  
R13  21906620.956   116980131.764          44.250    21906626.696    90984547.864          40.500  
R23  22729875.372   121589503.345          38.000    22729879.492    94569614.580          33.750  
R15  21294817.680   113793048.624          44.000    21294823.140    88505705.142          39.500  
R08  23706533.644   126947407.528          33.250    23706535.924    98736874.277          29.750  
> 2009 12 18 23 09 00.0000000  0 17                     
G03  20240400.026   106364019.620          50.250    20240399.366    82881054.785          42.250  
G22  24640074.496   129484464.179          43.250    24640072.236   100896984.886          34.500  
G07  21831603.016   114725848.516          48.500    21831602.096    89396765.004          41.000  
G06  21156041.320   111175748.026          49.000    21156040.940    86630453.018          41.250  
G13  24444885.798   128458741.523          40.500    24444885.698   100097719.850          28.750  
G19  20418107.904   107297880.953          49.750    20418105.104    83608737.459          45.500  
G11  23572546.564   123874568.263          44.250    23572546.044    96525637.298          35.250  
G16  22537051.990   118433005.720          47.000    22537050.850    92285458.841          37.750  
G08  24643994.096   129505064.184          42.500    24643993.956   100913036.602          31.500  
S29  37175423.572   195358169.701          44.000  
S37  37213964.452   195560702.309          42.000  
R14  19291651.792   102835359.107          48.750    19291659.892    79983058.684          43.000  
R17  21074923.980   112776177.575          44.000    21074926.320    87714804.562          41.250  
R13  21907387.936   116984227.381          44.750    21907393.656    90987733.340          40.500  
R23  22730482.012   121592748.329          38.000    22730486.132    94572138.459          34.000  
R15  21294228.580   113789900.492          44.250    21294233.980    88503256.593          39.500  
R08  23706289.164   126946098.222          33.250    23706291.404    98735855.926          30.000  
> 2009 12 18 23 09 01.0000000  0 17                     
G03  20240624.166   106365197.530          50.250    20240623.506    82881972.638          42.500  
G22  24639794.276   129482991.682          43.250    24639792.036   100895837.492          33.000  
G07  21831267.316   114724084.288          48.500    21831266.376    89395390.280          41.250  
G06  21156352.900   111177385.385          49.000    21156352.520    86631728.879          41.500  
G13  24445345.738   128461158.587          40.250    24445345.658   100099603.261          30.750  
G19  20418081.824   107297743.954          49.750    20418079.024    83608630.707          45.250  
G11  23571846.864   123870891.393          43.500    23571846.344    96522772.215          33.500  
G16  22537455.290   118435125.015          47.000    22537454.130    92287110.234          38.000  
G08  24643315.016   129501495.565          42.500    24643314.836   100910255.859          29.250  
S29  37175422.652   195358164.840          44.000  
S37  37213963.712   195560698.639          42.000  
R14  19291827.072   102836293.464          48.750    19291835.172    79983785.406          43.250  
R17  21074589.120   112774385.864          44.000    21074591.480    87713411.011          41.000  
R13  21908154.976   116988323.318          44.750    21908160.676    90990919.069          40.250  
R23  22731088.552   121595993.190          38.000    22731092.712    94574662.233          33.750  
R15  21293639.560   113786752.905          44.250    21293644.960    88500808.470          39.250  
R08  23706044.844   126944789.576          33.500    23706047.044    98734838.090          30.000  
> 2009 12 18 23 09 02.0000000  0 17                     
G03  20240848.386   106366375.728          50.250    20240847.726    82882890.716          42.500  
G22  24639514.136   129481519.483          43.500    24639511.916   100894690.324          32.250  
G07  21830931.696   114722320.637          48.500    21830930.756    89394016.009          41.000  
G06  21156664.520   111179022.901          49.000    21156664.140    86633004.866          41.750  
G13  24445805.718   128463575.862          40.250    24445805.598   100101486.828          33.000  
G19  20418055.824   107297607.318          49.750    20418053.024    83608524.239          45.250  
G11  23571147.204   123867214.647          44.500    23571146.684    96519907.214          34.750  
G16  22537858.630   118437244.573          47.000    22537857.470    92288761.837          38.250  
G08  24642635.956   129497927.178          43.000    24642635.856   100907475.297          30.000  
S29  37175421.732   195358159.926          44.000  
S37  37213963.092   195560695.199          42.000  
R14  19292002.532   102837228.709          48.750    19292010.632    79984512.818          43.250  
R17  21074254.380   112772594.536          43.750    21074256.720    87712017.752          41.250  
R13  21908922.076   116992419.616          45.000    21908927.756    90994105.080          40.500  
R23  22731695.172   121599238.043          37.750    22731699.312    94577186.002          33.500  
R15  21293050.620   113783605.871          44.250    21293056.020    88498360.777          39.500  
R08  23705800.584   126943481.690          32.500    23705802.824    98733820.846          30.500  
> 2009 12 18 23 09 03.0000000  0 17                     
G03  20241072.626   106367554.093          50.250    20241071.946    82883808.923          42.250  
G22  24639234.016   129480047.459          43.500    24639231.816   100893543.290          34.250  
G07  21830596.176   114720557.420          48.500    21830595.236    89392642.070          41.500  
G06  21156976.140   111180660.457          49.000    21156975.760    86634280.886          41.750  
G13  24446265.718   128465993.188          40.500    24446265.578   100103370.493          28.250  
G19  20418029.864   107297470.923          49.750    20418027.064    83608417.955          45.500  
G11  23570447.564   123863537.948          44.250    23570447.044    96517042.252          34.000  
G16  22538261.970   118439364.226          47.000    22538260.810    92290413.513          37.750  
G08  24641956.956   129494358.844          42.500    24641956.816   100904694.779          29.000  
S29  37175420.892   195358155.065          44.000  
S37  37213962.432   195560691.860          41.750  
R14  19292178.112   102838164.705          48.500    19292186.232    79985240.811          42.500  
R17  21073919.660   112770803.473          44.000    21073922.000    87710624.707          40.500  
R13  21909689.236   116996516.149          45.000    21909694.916    90997291.275          40.000  
R23  22732301.712   121602482.698          37.750    22732305.852    94579709.620          32.750  
R15  21292461.780   113780459.206          44.000    21292467.140    88495913.364          39.000  
R08  23705556.484   126942174.230          32.500    23705558.684    98732803.934          29.250  
> 2009 12 18 23 09 04.0000000  0 17                     
G03  20241296.906   106368732.693          50.250    20241296.226    82884727.310          42.000  
G22  24638953.956   129478575.702          43.500    24638951.736   100892396.469          33.250  
G07  21830260.736   114718794.726          48.500    21830259.796    89391268.540          41.500  
G06  21157287.760   111182298.113          49.000    21157287.360    86635556.977          41.500  
G13  24446725.718   128468410.660          40.750    24446725.538   100105254.259          29.000  
G19  20418003.964   107297334.826          49.750    20418001.164    83608311.908          45.500  
G11  23569747.924   123859861.350          43.750    23569747.404    96514177.374          30.250  
G16  22538665.370   118441484.042          47.000    22538664.210    92292065.317          38.250  
G08  24641277.956   129490790.664          42.250    24641277.836   100901914.402          29.250  
S29  37175419.912   195358149.968          44.000  
S37  37213961.792   195560688.581          42.000  
R14  19292353.852   102839101.514          48.750    19292361.972    79985969.443          43.000  
R17  21073585.020   112769012.768          44.250    21073587.360    87709231.939          40.750  
R13  21910456.436   117000612.952          45.250    21910462.096    91000477.681          40.250  
R23  22732908.252   121605727.248          38.000    22732912.372    94582233.155          32.500  
R15  21291873.040   113777313.013          44.000    21291878.340    88493466.321          38.750  
R08  23705312.444   126940867.331          32.750    23705314.664    98731787.462          29.500  
> 2009 12 18 23 09 05.0000000  0 17                     
G03  20241521.246   106369911.568          50.250    20241520.566    82885645.914          42.250  
G22  24638673.936   129477104.216          43.500    24638671.756   100891249.856          33.500  
G07  21829925.416   114717032.571          48.500    21829924.496    89389895.432          41.000  
G06  21157599.440   111183935.981          49.000    21157599.080    86636833.240          41.250  
G13  24447185.798   128470828.304          41.000    24447185.518   100107138.146          32.000  
G19  20417978.144   107297199.080          49.750    20417975.344    83608206.134          45.250  
G11  23569048.304   123856184.861          44.500    23569047.764    96511312.576          35.250  
G16  22539068.790   118443604.094          47.250    22539067.650    92293717.306          38.500  
G08  24640599.016   129487222.668          42.000    24640598.876   100899134.143          30.500  
S29  37175418.872   195358144.610          44.000  
S37  37213961.152   195560685.168          42.000  
R14  19292529.752   102840039.222          48.750    19292537.892    79986698.768          42.750  
R17  21073250.480   112767222.427          44.250    21073252.780    87707839.451          41.000  
R13  21911223.716   117004710.117          45.000    21911229.376    91003664.367          40.250  
R23  22733514.812   121608971.713          37.500    22733518.912    94584756.622          33.500  
R15  21291284.380   113774167.318          44.000    21291289.640    88491019.665          39.000  
R08  23705068.484   126939561.068          32.250    23705070.744    98730771.483          29.000  
> 2009 12 18 23 09 06.0000000  0 17                     
G03  20241745.646   106371090.732          50.250    20241744.966    82886564.741          42.250  
G22  24638393.976   129475633.047          43.250    24638391.836   100890103.487          30.000  
G07  21829590.196   114715270.970          48.500    21829589.276    89388522.758          41.500  
G06  21157911.120   111185573.952          49.250    21157910.760    86638109.581          41.750  
G13  24447645.878   128473246.130          41.000    24447645.618   100109022.150          27.750  
G19  20417952.384   107297063.692          49.750    20417949.584    83608100.637          45.500  
G11  23568348.724   123852508.541          44.250    23568348.184    96508447.919          35.000  
G16  22539472.270   118445724.369          47.250    22539471.130    92295369.468          37.750  
G08  24639920.076   129483654.849          41.750    24639919.916   100896354.016          31.250  
S29  37175417.892   195358139.211          44.250  
S37  37213960.472   195560681.697          42.250  
R14  19292705.832   102840977.795          48.750    19292713.972    79987428.774          43.000  
R17  21072916.000   112765432.461          44.500    21072918.280    87706447.253          40.500  
R13  21911991.076   117008807.617          44.750    21911996.716    91006851.309          40.250  
R23  22734121.332   121612216.200          38.250    22734125.432    94587280.111          33.250  
R15  21290695.820   113771022.133          44.250    21290701.040    88488573.410          38.750  
R08  23704824.684   126938255.487          33.000    23704826.964    98729756.036          29.750  
> 2009 12 18 23 09 07.0000000  0 17                     
G03  20241970.146   106372270.503          50.250    20241969.466    82887484.048          42.500  
G22  24638114.136   129474162.497          42.750    24638111.976   100888957.593          32.750  
G07  21829255.156   114713510.268          48.750    21829254.236    89387150.789          41.000  
G06  21158222.920   111187212.446          49.000    21158222.560    86639386.329          41.750  
G13  24448106.098   128475664.477          40.750    24448105.898   100110906.559          24.750  
G19  20417926.744   107296928.977          49.750    20417923.944    83607995.662          45.250  
G11  23567649.224   123848832.667          44.250    23567648.664    96505583.606          33.750  
G16  22539875.850   118447845.189          47.250    22539874.710    92297022.053          38.250  
G08  24639241.236   129480087.570          41.750    24639241.076   100893574.300          29.000  
S29  37175417.012   195358134.431          44.250  
S37  37213959.812   195560678.386          42.000  
R14  19292882.132   102841917.568          48.750    19292890.292    79988159.707          43.000  
R17  21072581.640   112763643.209          44.250    21072583.920    87705055.610          40.750  
R13  21912758.516   117012905.778          44.750    21912764.176    91010038.770          40.500  
R23  22734727.892   121615460.871          38.000    22734731.992    94589803.740          33.000  
R15  21290107.420   113767877.814          44.500    21290112.620    88486127.831          39.500  
R08  23704581.004   126936950.854          34.500    23704583.324    98728741.330          29.000  
> 2009 12 18 23 09 08.0000000  0 17                     
G03  20242194.706   106373450.493          50.250    20242194.006    82888403.518          42.750  
G22  24637834.336   129472692.193          42.500    24637832.156   100887811.908          33.000  
G07  21828920.196   114711750.057          48.750    21828919.276    89385779.198          41.000  
G06  21158534.740   111188851.066          49.000    21158534.380    86640663.176          41.500  
G13  24448566.298   128478082.939          40.500    24448566.038   100112791.061          32.500  
G19  20417901.164   107296794.553          49.750    20417898.364    83607890.918          45.500  
G11  23566949.744   123845156.904          44.000    23566949.244    96502719.370          32.250  
G16  22540279.470   118449966.179          47.250    22540278.330    92298674.773          38.000  
G08  24638562.456   129476520.450          41.750    24638562.336   100890794.726          29.500  
S29  37175416.072   195358129.303          44.250  
S37  37213959.172   195560674.978          42.000  
R14  19293058.572   102842858.159          48.750    19293066.752    79988891.278          43.000  
R17  21072247.340   112761854.272          44.500    21072249.620    87703664.216          41.000  
R13  21913526.036   117017004.204          44.750    21913531.676    91013226.433          40.500  
R23  22735334.492   121618705.435          38.000    22735338.512    94592327.294          33.250  
R15  21289519.100   113764733.908          44.750    21289524.260    88483682.571          39.250  
R08  23704337.564   126935646.842          34.250    23704339.864    98727727.086          28.750  
> 2009 12 18 23 09 09.0000000  0 17                     
G03  20242419.286   106374630.747          50.250    20242418.586    82889323.195          42.500  
G22  24637554.576   129471222.155          42.250    24637552.396   100886666.417          32.500  
G07  21828585.336   114709990.393          48.750    21828584.416    89384408.029          41.250  
G06  21158846.580   111190489.788          49.250    21158846.220    86641940.107          41.750  
G13  24449026.558   128480501.595          40.250    24449026.278   100114675.745          29.500  
G19  20417875.644   107296660.463          49.750    20417872.844    83607786.430          45.500  
G11  23566250.284   123841481.227          44.250    23566249.784    96499855.205          35.250  
G16  22540683.110   118452087.363          47.250    22540681.990    92300327.637          38.750  
G08  24637883.676   129472953.476          41.250    24637883.556   100888015.251          32.500  
S29  37175415.092   195358123.979          44.000  
S37  37213958.472   195560671.709          42.000  
R14  19293235.192   102843799.603          48.750    19293243.372    79989623.512          43.250  
R17  21071913.100   112760065.708          44.500    21071915.380    87702273.112          41.000  
R13  21914293.616   117021102.945          44.500    21914299.256    91016414.340          40.750  
R23  22735941.012   121621949.983          38.500    22735945.032    94594850.831          33.250  
R15  21288930.900   113761590.527          44.750    21288936.000    88481237.717          39.500  
R08  23704094.204   126934343.401          33.750    23704096.424    98726713.288          29.250  
> 2009 12 18 23 09 10.0000000  0 17                     
G03  20242643.946   106375811.273          50.250    20242643.246    82890243.087          42.500  
G22  24637274.876   129469752.387          42.500    24637272.736   100885521.138          33.250  
G07  21828250.596   114708231.267          48.750    21828249.656    89383037.279          40.750  
G06  21159158.440   111192128.657          49.250    21159158.080    86643217.146          41.750  
G13  24449486.838   128482920.385          40.750    24449486.498   100116560.498          22.000  
G19  20417850.204   107296526.707          49.750    20417847.404    83607682.206          45.500  
G11  23565550.864   123837805.713          44.250    23565550.384    96496991.176          36.000  
G16  22541086.790   118454208.769          47.500    22541085.670    92301980.681          37.500  
G08  24637204.956   129469386.678          41.250    24637204.896   100885235.939          32.500  
S29  37175414.092   195358118.735          44.000  
S37  37213957.832   195560668.538          42.000  
R14  19293411.972   102844741.900          48.750    19293420.172    79990356.409          43.250  
R17  21071578.920   112758277.489          44.500    21071581.180    87700882.277          41.000  
R13  21915061.216   117025202.006          44.750    21915066.896    91019602.499          40.500  
R23  22736547.512   121625194.421          38.500    22736551.532    94597374.285          33.750  
R15  21288342.740   113758447.648          44.250    21288347.840    88478793.251          39.500  
R08  23703850.964   126933040.605          34.000    23703853.184    98725699.997          29.750  
> 2009 12 18 23 09 11.0000000  0 17                     
G03  20242868.666   106376992.226          50.250    20242867.966    82891163.308          42.250  
G22  24636995.256   129468283.084          42.750    24636993.056   100884376.239          35.000  
G07  21827915.976   114706472.840          48.500    21827915.036    89381667.074          41.500  
G06  21159470.360   111193767.798          49.250    21159470.000    86644494.398          42.000  
G13  24449947.198   128485339.496          40.750    24449946.858   100118445.525          31.000  
G19  20417824.844   107296393.452          49.750    20417822.044    83607578.371          45.750  
G11  23564851.444   123834130.449          44.250    23564851.004    96494127.340          34.750  
G16  22541490.550   118456330.536          47.500    22541489.450    92303634.006          37.500  
G08  24636526.256   129465820.241          41.250    24636526.216   100882456.903          25.750  
S29  37175413.152   195358113.598          44.000  
S37  37213957.252   195560665.545          42.000  
R14  19293588.932   102845685.228          48.750    19293597.132    79991090.107          43.250  
R17  21071244.860   112756489.791          44.250    21071247.120    87699491.848          41.000  
R13  21915828.936   117029301.551          44.500    21915834.616    91022791.028          40.750  
R23  22737154.052   121628438.953          38.000    22737158.032    94599897.808          33.500  
R15  21287754.720   113755305.484          44.250    21287759.820    88476349.344          39.500  
R08  23703607.784   126931738.558          33.500    23703610.044    98724687.290          29.750  
> 2009 12 18 23 09 12.0000000  0 17                     
G03  20243093.446   106378173.432          50.250    20243092.746    82892083.726          42.000  
G22  24636715.716   129466814.052          42.750    24636713.556   100883231.547          33.750  
G07  21827581.476   114704714.949          48.500    21827580.516    89380297.287          41.750  
G06  21159782.320   111195407.103          49.000    21159781.960    86645771.779          41.750  
G13  24450407.558   128487758.796          40.250    24450407.278   100120330.723          29.750  
G19  20417799.544   107296260.518          49.750    20417796.724    83607474.786          45.250  
G11  23564152.104   123830455.306          44.250    23564151.664    96491263.596          33.500  
G16  22541894.350   118458452.507          47.500    22541893.270    92305287.487          36.750  
G08  24635847.616   129462253.953          41.000    24635847.676   100879677.985          24.500  
S29  37175412.252   195358108.753          44.000  
S37  37213956.652   195560662.224          42.000  
R14  19293766.052   102846629.402          48.750    19293774.272    79991824.466          43.250  
R17  21070910.880   112754702.458          44.500    21070913.120    87698101.701          41.000  
R13  21916596.716   117033401.397          44.500    21916602.416    91025979.795          41.000  
R23  22737760.572   121631683.402          37.750    22737764.572    94602421.264          33.000  
R15  21287166.820   113752163.808          44.250    21287171.880    88473905.811          39.500  
R08  23703364.784   126930437.152          34.250    23703367.004    98723675.085          30.000  
> 2009 12 18 23 09 13.0000000  0 17                     
G03  20243318.306   106379354.972          50.250    20243317.586    82893004.406          42.000  
G22  24636436.216   129465345.370          43.250    24636434.076   100882087.113          34.250  
G07  21827247.076   114702957.658          48.500    21827246.136    89378927.967          41.250  
G06  21160094.300   111197046.627          49.250    21160093.940    86647049.330          41.750  
G13  24450867.978   128490178.328          40.500    24450867.678   100122216.072          30.250  
G19  20417774.324   107296127.986          49.750    20417771.504    83607371.515          45.500  
G11  23563452.784   123826780.352          44.250    23563452.364    96488400.000          34.250  
G16  22542298.190   118460574.753          47.500    22542297.110    92306941.192          37.750  
G08  24635169.016   129458687.925          40.750    24635169.056   100876899.258          30.000  
S29  37175411.252   195358103.466          44.000  
S37  37213955.992   195560658.819          41.750  
R14  19293943.352   102847574.518          48.750    19293951.592    79992559.557          42.750  
R17  21070576.940   112752915.544          44.750    21070579.180    87696711.878          40.750  
R13  21917364.556   117037501.655          44.500    21917370.256    91029168.880          40.750  
R23  22738367.172   121634927.864          38.000    22738371.092    94604944.728          32.750  
R15  21286579.020   113749022.724          44.000    21286584.060    88471462.742          39.500  
R08  23703121.924   126929136.463          34.500    23703124.124    98722663.445          28.750  
> 2009 12 18 23 09 14.0000000  0 17                     
G03  20243543.186   106380536.795          50.250    20243542.466    82893925.310          42.000  
G22  24636156.796   129463877.005          43.000    24636154.636   100880942.937          32.500  
G07  21826912.776   114701200.936          48.500    21826911.836    89377559.095          41.500  
G06  21160406.340   111198686.345          49.250    21160405.980    86648327.033          41.500  
G13  24451328.418   128492598.043          40.250    24451328.178   100124101.571          28.500  
G19  20417749.184   107295995.814          50.000    20417746.364    83607268.522          45.250  
G11  23562753.484   123823105.561          44.500    23562753.124    96485536.528          35.000  
G16  22542702.090   118462697.238          47.500    22542701.030    92308595.082          37.750  
G08  24634490.456   129455122.116          40.500    24634490.456   100874120.701          27.750  
S29  37175410.292   195358098.379          44.000  
S37  37213955.352   195560655.366          41.750  
R14  19294120.812   102848520.509          48.750    19294129.052    79993295.328          43.000  
R17  21070243.080   112751129.024          44.750    21070245.320    87695322.360          41.000  
R13  21918132.456   117041602.254          44.500    21918138.196    91032358.228          40.500  
R23  22738973.672   121638172.254          38.250    22738977.592    94607468.141          33.250  
R15  21285991.280   113745882.140          44.000    21285996.360    88469020.074          39.750  
R08  23702879.144   126927836.389          34.500    23702881.344    98721652.270          29.250  
> 2009 12 18 23 09 15.0000000  0 17                     
G03  20243768.146   106381718.844          50.500    20243767.426    82894846.387          42.250  
G22  24635877.436   129462408.869          43.250    24635875.256   100879798.943          31.750  
G07  21826578.576   114699444.701          48.500    21826577.636    89376190.598          41.500  
G06  21160718.380   111200326.140          49.250    21160718.020    86649604.794          41.250  
G13  24451788.878   128495017.892          40.250    24451788.718   100125987.161          31.250  
G19  20417724.084   107295863.941          50.000    20417721.264    83607165.764          45.500  
G11  23562054.204   123819430.836          44.000    23562053.844    96482673.098          33.500  
G16  22543106.010   118464819.886          47.500    22543104.950    92310249.096          38.000  
G08  24633811.936   129451556.427          40.000    24633811.936   100871342.241          29.000  
S29  37175409.352   195358093.048          44.000  
S37  37213954.732   195560652.032          42.000  
R14  19294298.432   102849467.337          48.750    19294306.692    79994031.745          43.000  
R17  21069909.300   112749342.828          44.750    21069911.540    87693933.100          40.750  
R13  21918900.436   117045703.155          44.750    21918906.176    91035547.810          40.250  
R23  22739580.132   121641416.516          37.500    22739584.072    94609991.449          32.750  
R15  21285403.660   113742742.071          43.500    21285408.720    88466577.800          39.250  
R08  23702636.484   126926536.844          34.500    23702638.644    98720641.512          28.750  
> 2009 12 18 23 09 16.0000000  0 17                     
G03  20243993.126   106382901.146          50.500    20243992.426    82895767.663          42.000  
G22  24635598.116   129460940.990          43.250    24635595.916   100878655.141          31.750  
G07  21826244.476   114697688.996          48.750    21826243.536    89374822.520          41.500  
G06  21161030.440   111201966.052          49.250    21161030.080    86650882.644          41.500  
G13  24452249.398   128497437.865          40.500    24452249.298   100127872.856          28.250  
G19  20417699.064   107295732.376          50.000    20417696.244    83607063.248          45.250  
G11  23561354.964   123815756.215          44.500    23561354.624    96479809.766          33.500  
G16  22543509.970   118466942.718          47.500    22543508.910    92311903.247          37.500  
G08  24633133.396   129447990.849          39.750    24633133.396   100868563.843          21.250  
S29  37175408.352   195358087.861          44.250  
S37  37213954.152   195560648.868          42.000  
R14  19294476.192   102850414.991          48.750    19294484.472    79994768.810          43.000  
R17  21069575.580   112747556.966          44.500    21069577.800    87692544.096          41.000  
R13  21919668.436   117049804.336          44.750    21919674.216    91038737.613          40.500  
R23  22740186.592   121644660.684          38.250    22740190.532    94612514.691          33.750  
R15  21284816.140   113739602.468          43.500    21284821.200    88464135.886          39.500  
R08  23702393.944   126925237.935          35.250    23702396.084    98719631.250          29.500  
> 2009 12 18 23 09 17.0000000  0 17                     
G03  20244218.166   106384083.765          50.250    20244217.446    82896689.183          42.250  
G22  24635318.836   129459473.461          42.750    24635316.636   100877511.608          30.500  
G07  21825910.496   114695933.901          49.000    21825909.556    89373454.916          41.000  
G06  21161342.560   111203606.191          49.250    21161342.200    86652160.672          41.500  
G13  24452709.938   128499858.087          40.500    24452709.778   100129758.707          29.000  
G19  20417674.084   107295601.205          50.000    20417671.264    83606961.036          45.000  
G11  23560655.744   123812081.805          44.750    23560655.364    96476946.595          33.000  
G16  22543913.970   118469065.818          47.500    22543912.910    92313557.608          37.000  
G08  24632454.916   129444425.560          40.000    24632454.776   100865785.706          30.750  
S29  37175407.352   195358082.559          44.000  
S37  37213953.572   195560645.776          42.250  
R14  19294654.152   102851363.578          48.750    19294662.432    79995506.599          43.250  
R17  21069241.940   112745771.537          44.250    21069244.140    87691155.426          41.000  
R13  21920436.536   117053905.920          44.500    21920442.336    91041927.735          40.500  
R23  22740793.072   121647904.807          37.500    22740796.972    94615037.893          33.500  
R15  21284228.680   113736463.420          43.500    21284233.740    88461694.407          40.000  
R08  23702151.564   126923939.758          35.750    23702153.644    98718621.544          29.250  
> 2009 12 18 23 09 18.0000000  0 17                     
G03  20244443.326   106385266.916          50.250    20244442.606    82897611.116          42.250  
G22  24635039.656   129458006.479          42.500    24635037.416   100876368.484          34.250  
G07  21825576.676   114694179.610          49.000    21825575.736    89372087.936          41.000  
G06  21161654.740   111205246.745          49.250    21161654.380    86653439.026          41.750  
G13  24453170.578   128502278.743          40.750    24453170.338   100131644.926          32.000  
G19  20417649.244   107295470.647          50.000    20417646.424    83606859.302          45.000  
G11  23559956.604   123808407.763          44.500    23559956.224    96474083.709          34.750  
G16  22544318.070   118471189.401          47.500    22544317.030    92315212.347          38.250  
G08  24631776.556   129440860.722          40.000    24631776.436   100863007.913          24.000  
S29  37175406.432   195358077.864          44.000  
S37  37213953.032   195560643.167          42.000  
R14  19294832.312   102852313.301          48.750    19294840.612    79996245.270          43.000  
R17  21068908.400   112743986.711          44.500    21068910.600    87689767.223          40.750  
R13  21921204.716   117058008.079          44.500    21921210.536    91045118.298          40.250  
R23  22741399.532   121651149.138          38.000    22741403.472    94617561.264          34.000  
R15  21283641.420   113733325.163          43.250    21283646.440    88459253.540          39.750  
R08  23701909.404   126922642.480          35.000    23701911.364    98717612.546          28.750  
> 2009 12 18 23 09 19.0000000  0 17                     
G03  20244668.566   106386450.623          50.250    20244667.846    82898533.485          42.000  
G22  24634760.596   129456540.077          42.500    24634758.376   100875225.852          30.250  
G07  21825242.996   114692426.138          49.000    21825242.036    89370721.594          41.000  
G06  21161967.000   111206887.743          49.250    21161966.640    86654717.723          41.000  
G13  24453631.298   128504699.854          41.000    24453631.038   100133531.518          28.750  
G19  20417624.524   107295340.698          50.000    20417621.684    83606758.041          45.250  
G11  23559257.524   123804734.130          44.750    23559257.144    96471221.138          35.000  
G16  22544722.270   118473313.476          47.250    22544721.250    92316867.468          37.500  
G08  24631098.296   129437296.326          39.750    24631098.096   100860230.476          28.750  
S29  37175405.552   195358073.184          44.000  
S37  37213952.572   195560640.839          42.000  
R14  19295010.712   102853264.169          48.750    19295019.012    79996984.837          43.000  
R17  21068575.020   112742202.542          44.750    21068577.200    87688379.541          40.750  
R13  21921973.036   117062110.838          44.750    21921978.856    91048309.331          40.250  
R23  22742006.112   121654393.712          37.500    22742010.012    94620084.824          33.500  
R15  21283054.300   113730187.675          43.500    21283059.320    88456813.279          39.750  
R08  23701667.304   126921346.093          35.500    23701669.264    98716604.239          28.000  
> 2009 12 18 23 09 20.0000000  0 17                     
G03  20244893.906   106387634.732          50.250    20244893.186    82899456.168          42.250  
G22  24634481.596   129455074.067          42.250    24634479.436   100874083.510          32.250  
G07  21824909.456   114690673.355          49.000    21824908.496    89369355.788          41.250  
G06  21162279.340   111208529.011          49.250    21162278.980    86655996.634          41.750  
G13  24454092.098   128507121.261          41.250    24454091.858   100135418.352          30.000  
G19  20417599.884   107295211.227          50.000    20417597.064    83606657.157          45.250  
G11  23558558.524   123801060.784          44.750    23558558.144    96468358.793          33.750  
G16  22545126.530   118475437.898          47.500    22545125.490    92318522.859          37.250  
G08  24630420.016   129433732.235          39.750    24630419.916   100857453.249          24.500  
S29  37175404.652   195358068.489          44.250  
S37  37213952.112   195560638.411          42.250  
R14  19295189.272   102854216.034          48.750    19295197.592    79997725.176          43.000  
R17  21068241.700   112740418.882          44.500    21068243.860    87686992.248          41.000  
R13  21922741.416   117066214.027          44.750    21922747.236    91051500.698          40.500  
R23  22742612.632   121657638.311          38.000    22742616.552    94622608.399          33.750  
R15  21282467.260   113727050.848          43.750    21282472.300    88454373.526          40.000  
R08  23701425.384   126920050.435          34.500    23701427.284    98715596.503          28.750  
> 2009 12 18 23 09 21.0000000  0 17                     
G03  20245119.326   106388819.254          50.250    20245118.586    82900379.172          42.250  
G22  24634202.696   129453608.508          42.000    24634200.516   100872941.502          29.750  
G07  21824576.036   114688921.274          49.000    21824575.076    89367990.527          41.000  
G06  21162591.700   111210170.589          49.250    21162591.340    86657275.786          41.750  
G13  24454552.918   128509542.986          41.000    24454552.658   100137305.402          27.500  
G19  20417575.344   107295082.231          50.000    20417572.524    83606556.641          45.500  
G11  23557859.544   123797387.696          44.500    23557859.144    96465496.644          32.500  
G16  22545530.850   118477562.677          47.500    22545529.830    92320178.537          37.500  
G08  24629741.856   129430168.512          40.500    24629741.796   100854676.326          29.250  
S29  37175403.712   195358063.646          44.250  
S37  37213951.692   195560635.999          42.250  
R14  19295368.012   102855168.904          48.750    19295376.332    79998466.295          43.250  
R17  21067908.460   112738635.720          44.750    21067910.620    87685605.348          41.250  
R13  21923509.896   117070317.676          44.750    21923515.716    91054692.423          40.250  
R23  22743219.212   121660882.982          38.000    22743223.112    94625132.034          33.000  
R15  21281880.360   113723914.675          44.000    21281885.420    88451934.282          40.250  
R08  23701183.584   126918755.530          35.000    23701185.464    98714589.356          28.750  
> 2009 12 18 23 09 22.0000000  0 17                     
G03  20245344.786   106390004.036          50.250    20245344.046    82901302.378          42.750  
G22  24633923.856   129452143.244          42.000    24633921.716   100871799.742          34.500  
G07  21824242.736   114687169.723          48.750    21824241.776    89366625.683          41.500  
G06  21162904.120   111211812.305          49.250    21162903.760    86658555.047          41.500  
G13  24455013.778   128511964.874          41.250    24455013.598   100139192.577          30.750  
G19  20417550.864   107294953.580          50.000    20417548.044    83606456.391          45.500  
G11  23557160.604   123793714.739          44.500    23557160.164    96462634.603          35.000  
G16  22545935.230   118479687.664          47.250    22545934.210    92321834.369          38.000  
G08  24629063.716   129426604.949          40.250    24629063.696   100851899.518          28.750  
S29  37175402.812   195358058.967          44.250  
S37  37213951.212   195560633.563          42.250  
R14  19295546.932   102856122.638          48.750    19295555.272    79999208.088          43.500  
R17  21067575.320   112736852.908          45.000    21067577.460    87684218.720          40.750  
R13  21924278.436   117074421.663          44.750    21924284.256    91057884.413          40.000  
R23  22743825.692   121664127.616          37.750    22743829.652    94627655.638          33.500  
R15  21281293.560   113720779.036          43.750    21281298.620    88449495.454          40.000  
R08  23700941.944   126917461.245          34.250    23700943.764    98713582.693          29.000  
> 2009 12 18 23 09 23.0000000  0 17                     
G03  20245570.286   106391189.094          50.250    20245569.546    82902225.800          42.250  
G22  24633645.056   129450678.248          42.000    24633642.996   100870658.201          32.750  
G07  21823909.536   114685418.717          48.750    21823908.576    89365261.262          41.500  
G06  21163216.560   111213454.169          49.250    21163216.220    86659834.422          42.000  
G13  24455474.698   128514386.936          41.000    24455474.538   100141079.894          27.750  
G19  20417526.444   107294825.263          50.000    20417523.624    83606356.406          45.500  
G11  23556461.704   123790041.905          44.750    23556461.244    96459772.655          34.750  
G16  22546339.650   118481812.868          47.250    22546338.630    92323490.373          38.000  
G08  24628385.596   129423041.556          40.000    24628385.636   100849122.848          27.750  
S29  37175401.932   195358054.158          44.000  
S37  37213950.732   195560630.922          42.250  
R14  19295725.992   102857077.230          48.750    19295734.352    79999950.549          43.000  
R17  21067242.220   112735070.482          45.000    21067244.380    87682832.387          41.000  
R13  21925047.016   117078525.984          44.750    21925052.836    91061076.663          40.250  
R23  22744432.232   121667372.139          37.250    22744436.212    94630179.152          33.500  
R15  21280706.880   113717643.932          43.750    21280711.940    88447057.040          40.000  
R08  23700700.504   126916167.614          34.750    23700702.164    98712576.537          28.000  
> 2009 12 18 23 09 24.0000000  0 17                     
G03  20245795.826   106392374.296          50.500    20245795.086    82903149.334          42.250  
G22  24633366.276   129449213.430          42.000    24633364.236   100869516.778          34.000  
G07  21823576.416   114683668.138          48.750    21823575.456    89363897.177          41.750  
G06  21163529.000   111215096.058          49.250    21163528.640    86661113.811          41.750  
G13  24455935.618   128516809.048          41.000    24455935.478   100142967.246          30.500  
G19  20417502.064   107294697.166          50.000    20417499.244    83606256.588          45.500  
G11  23555762.784   123786369.098          44.750    23555762.324    96456910.733          32.500  
G16  22546744.070   118483938.175          47.250    22546743.070    92325146.456          38.500  
G08  24627707.516   129419478.253          40.500    24627707.656   100846346.259          28.500  
S29  37175400.992   195358049.084          44.250  
S37  37213950.172   195560627.993          42.250  
R14  19295905.212   102858032.560          48.750    19295913.572    80000693.583          43.250  
R17  21066909.180   112733288.309          45.000    21066911.320    87681446.255          41.250  
R13  21925815.676   117082630.519          44.500    21925821.476    91064269.079          40.250  
R23  22745038.692   121670616.484          37.500    22745042.712    94632702.521          33.750  
R15  21280120.260   113714509.199          44.000    21280125.320    88444618.915          39.750  
R08  23700459.044   126914874.534          34.000    23700460.644    98711570.807          28.500  
> 2009 12 18 23 09 25.0000000  0 17                     
G03  20246021.406   106393559.700          50.250    20246020.666    82904073.026          42.500  
G22  24633087.556   129447748.823          42.250    24633085.496   100868375.528          31.500  
G07  21823243.376   114681918.017          48.750    21823242.396    89362533.448          41.500  
G06  21163841.440   111216738.015          49.250    21163841.100    86662393.256          41.750  
G13  24456396.578   128519231.238          41.000    24456396.418   100144854.662          30.750  
G19  20417477.744   107294569.321          50.000    20417474.944    83606156.975          45.500  
G11  23555063.864   123782696.314          44.750    23555063.384    96454048.826          33.250  
G16  22547148.530   118486063.614          47.000    22547147.550    92326802.636          38.500  
G08  24627029.436   129415915.032          40.750    24627029.536   100843569.715          29.000  
S29  37175400.072   195358044.213          44.250  
S37  37213949.552   195560624.740          42.250  
R14  19296084.572   102858988.674          48.750    19296092.952    80001437.227          43.250  
R17  21066576.220   112731506.437          45.000    21066578.340    87680060.358          41.000  
R13  21926584.376   117086735.334          44.500    21926590.176    91067461.713          40.500  
R23  22745645.092   121673860.650          37.500    22745649.172    94635225.763          33.500  
R15  21279533.720   113711374.908          44.000    21279538.760    88442181.134          40.250  
R08  23700217.724   126913581.998          34.250    23700219.244    98710565.492          28.500  
> 2009 12 18 23 09 26.0000000  0 17                     
G03  20246247.006   106394745.208          50.250    20246246.266    82904996.800          42.750  
G22  24632808.836   129446284.347          42.500    24632806.856   100867234.380          32.250  
G07  21822910.416   114680168.295          48.750    21822909.436    89361170.026          41.750  
G06  21164153.900   111218379.951          49.250    21164153.560    86663672.691          41.750  
G13  24456857.518   128521653.460          40.500    24456857.238   100146742.108          32.500  
G19  20417453.464   107294441.661          50.000    20417450.644    83606057.497          45.750  
G11  23554364.984   123779023.536          44.750    23554364.464    96451186.919          34.750  
G16  22547552.990   118488189.097          47.000    22547552.030    92328458.863          38.750  
G08  24626351.396   129412351.818          40.500    24626351.456   100840793.170          28.750  
S29  37175399.072   195358038.950          44.250  
S37  37213948.852   195560621.279          42.250  
R14  19296264.072   102859945.499          48.750    19296272.452    80002181.427          43.250  
R17  21066243.280   112729724.765          45.000    21066245.380    87678674.613          41.000  
R13  21927353.096   117090840.288          44.750    21927358.896    91070654.452          40.250  
R23  22746251.512   121677104.628          37.500    22746255.572    94637748.855          32.750  
R15  21278947.260   113708240.971          44.000    21278952.300    88439743.626          40.250  
R08  23699976.424   126912289.917          34.500    23699977.924    98709560.536          28.500  
> 2009 12 18 23 09 27.0000000  0 17                     
G03  20246472.626   106395930.815          50.250    20246471.866    82905920.652          42.750  
G22  24632530.156   129444819.997          42.000    24632528.196   100866093.324          32.250  
G07  21822577.536   114678418.952          48.750    21822576.556    89359806.902          41.250  
G06  21164466.340   111220021.842          49.250    21164466.000    86664952.091          41.750  
G13  24457318.458   128524075.674          40.250    24457318.138   100148629.570          30.000  
G19  20417429.204   107294314.176          50.000    20417426.384    83605958.163          45.750  
G11  23553666.064   123775350.702          44.750    23553665.524    96448324.969          34.750  
G16  22547957.450   118490314.630          47.250    22547956.490    92330115.118          38.000  
G08  24625673.316   129408788.647          40.750    24625673.436   100838016.663          27.750  
S29  37175398.132   195358033.900          44.250  
S37  37213948.132   195560617.680          42.250  
R14  19296443.692   102860903.023          48.750    19296452.092    80002926.169          43.250  
R17  21065910.360   112727943.312          45.000    21065912.460    87677289.041          40.750  
R13  21928121.816   117094945.408          44.500    21928127.636    91073847.325          40.250  
R23  22746857.852   121680348.312          37.250    22746861.952    94640271.714          33.500  
R15  21278360.840   113705107.382          44.250    21278365.860    88437306.392          40.000  
R08  23699735.224   126910998.273          34.500    23699736.664    98708555.914          28.000  
> 2009 12 18 23 09 28.0000000  0 17                     
G03  20246698.306   106397116.831          50.250    20246697.566    82906844.817          42.750  
G22  24632251.576   129443356.044          41.750    24632249.536   100864952.586          35.000  
G07  21822244.776   114676670.299          48.750    21822243.796    89358444.311          41.750  
G06  21164778.860   111221664.080          49.250    21164778.520    86666231.757          42.000  
G13  24457779.418   128526498.195          40.250    24457779.138   100150517.253          33.500  
G19  20417405.024   107294187.175          50.000    20417402.204    83605859.197          45.750  
G11  23552967.184   123771678.142          44.250    23552966.684    96445463.221          32.750  
G16  22548361.990   118492440.523          47.000    22548361.030    92331771.654          38.250  
G08  24624995.336   129405225.817          40.500    24624995.476   100835240.423          33.250  
S29  37175397.172   195358028.811          44.250  
S37  37213947.492   195560614.524          42.250  
R14  19296623.512   102861861.548          49.000    19296631.912    80003671.692          43.500  
R17  21065577.580   112726162.378          45.250    21065579.640    87675903.866          41.250  
R13  21928890.656   117099050.994          44.250    21928896.476    91077040.557          40.500  
R23  22747464.272   121683592.132          37.500    22747468.352    94642794.681          33.500  
R15  21277774.560   113701974.461          44.250    21277779.580    88434869.673          40.750  
R08  23699494.184   126909707.354          33.750    23699495.544    98707551.857          28.750  
> 2009 12 18 23 09 29.0000000  0 17                     
G03  20246924.106   106398303.371          50.250    20246923.366    82907769.393          42.750  
G22  24631973.116   129441892.653          42.000    24631971.116   100863812.279          33.750  
G07  21821912.176   114674922.459          48.750    21821911.176    89357082.359          41.500  
G06  21165091.440   111223306.741          49.250    21165091.120    86667511.750          41.750  
G13  24458240.478   128528921.142          40.000    24458240.198   100152405.270          23.250  
G19  20417380.984   107294060.758          50.000    20417378.164    83605760.689          45.750  
G11  23552268.404   123768005.978          44.500    23552267.904    96442601.789          31.750  
G16  22548766.630   118494566.884          47.000    22548765.690    92333428.561          38.000  
G08  24624317.436   129401663.397          40.500    24624317.516   100832464.510          33.250  
S29  37175396.272   195358024.031          44.250  
S37  37213946.912   195560611.523          41.750  
R14  19296803.552   102862821.218          48.750    19296811.952    80004418.097          43.500  
R17  21065244.900   112724382.052          45.000    21065246.920    87674519.166          41.250  
R13  21929659.616   117103157.158          44.250    21929665.416    91080234.236          40.750  
R23  22748070.672   121686836.097          37.750    22748074.792    94645317.765          33.250  
R15  21277188.420   113698842.330          44.250    21277193.440    88432433.572          40.500  
R08  23699253.284   126908417.394          34.250    23699254.604    98706548.555          28.750  
> 2009 12 18 23 09 30.0000000  0 17                     
G03  20247149.906   106399489.976          50.250    20247149.166    82908694.025          42.750  
G22  24631694.636   129440429.368          42.000    24631692.676   100862672.063          34.500  
G07  21821579.636   114673174.939          48.750    21821578.656    89355720.656          41.750  
G06  21165404.020   111224949.318          49.250    21165403.680    86668791.680          42.000  
G13  24458701.538   128531344.055          39.750    24458701.198   100154293.236          34.000  
G19  20417356.964   107293934.482          50.000    20417354.144    83605662.295          46.000  
G11  23551569.584   123764333.725          44.250    23551569.064    96439740.289          33.250  
G16  22549171.250   118496693.229          47.250    22549170.310    92335085.457          38.000  
G08  24623639.556   129398100.990          40.500    24623639.596   100829688.639          34.000  
S29  37175395.212   195358018.658          44.000  
S37  37213946.272   195560608.155          42.000  
R14  19296983.692   102863781.545          48.750    19296992.112    80005165.018          43.500  
R17  21064912.220   112722601.881          45.000    21064914.220    87673134.591          41.250  
R13  21930428.576   117107263.420          44.500    21930434.376    91083427.985          40.500  
R23  22748676.992   121690079.789          37.750    22748681.152    94647840.633          33.750  
R15  21276602.340   113695710.523          44.250    21276607.360    88429997.718          40.500  
R08  23699012.604   126907127.808          33.250    23699013.764    98705545.542          29.000  
> 2009 12 18 23 09 31.0000000  0 17                     
G03  20247375.766   106400676.826          50.250    20247375.026    82909618.841          42.500  
G22  24631416.216   129438966.306          41.750    24631414.296   100861532.018          34.250  
G07  21821247.216   114671427.944          48.750    21821246.216    89354359.355          42.250  
G06  21165716.600   111226592.005          49.250    21165716.280    86670071.696          42.000  
G13  24459162.638   128533767.102          40.000    24459162.278   100156181.316          33.750  
G19  20417332.984   107293808.511          50.000    20417330.144    83605564.133          45.750  
G11  23550870.804   123760661.590          44.250    23550870.244    96436878.897          34.250  
G16  22549575.930   118498819.784          47.250    22549574.970    92336742.509          37.750  
G08  24622961.676   129394538.722          40.500    24622961.636   100826912.840          29.500  
S29  37175394.172   195358013.300          44.000  
S37  37213945.632   195560604.836          42.000  
R14  19297164.012   102864742.712          48.750    19297172.432    80005912.593          43.000  
R17  21064579.620   112720822.039          45.000    21064581.620    87671750.269          40.750  
R13  21931197.576   117111369.973          44.750    21931203.376    91086621.965          39.750  
R23  22749283.332   121693323.398          37.750    22749287.532    94650363.440          33.750  
R15  21276016.340   113692579.167          44.000    21276021.380    88427562.217          40.000  
R08  23698771.884   126905838.812          33.250    23698773.044    98704542.981          27.500  
> 2009 12 18 23 09 32.0000000  0 17                     
G03  20247601.666   106401863.960          50.250    20247600.946    82910543.884          42.750  
G22  24631137.856   129437503.582          42.250    24631135.976   100860392.240          35.250  
G07  21820914.876   114669681.535          48.750    21820913.876    89352998.521          41.500  
G06  21166029.240   111228234.889          49.250    21166028.920    86671351.864          42.250  
G13  24459623.758   128536190.373          39.750    24459623.418   100158069.579          34.250  
G19  20417309.084   107293682.913          50.000    20417306.244    83605466.267          46.000  
G11  23550172.044   123756989.606          44.000    23550171.464    96434017.616          32.000  
G16  22549980.630   118500946.576          47.250    22549979.690    92338399.743          37.500  
G08  24622283.836   129390976.662          40.500    24622283.776   100824137.208          31.000  
S29  37175393.212   195358008.248          44.250  
S37  37213944.972   195560601.387          42.000  
R14  19297344.492   102865704.775          48.750    19297352.912    80006660.859          43.000  
R17  21064247.100   112719042.610          45.000    21064249.060    87670366.270          40.500  
R13  21931966.696   117115476.866          44.750    21931972.456    91089816.212          39.750  
R23  22749889.692   121696566.967          37.500    22749893.892    94652886.216          32.750  
R15  21275430.460   113689448.370          44.000    21275435.500    88425127.150          40.250  
R08  23698531.444   126904550.584          32.500    23698532.444    98703541.025          27.250  
> 2009 12 18 23 09 33.0000000  0 17                     
G03  20247827.646   106403051.495          50.250    20247826.926    82911469.236          42.750  
G22  24630859.596   129436041.274          42.500    24630857.756   100859252.785          36.000  
G07  21820582.676   114667935.792          48.750    21820581.676    89351638.201          41.750  
G06  21166341.920   111229878.034          49.250    21166341.600    86672632.234          42.000  
G13  24460084.918   128538613.919          40.000    24460084.658   100159958.044          31.750  
G19  20417285.284   107293557.774          50.000    20417282.444    83605368.759          45.750  
G11  23549473.324   123753317.862          44.000    23549472.704    96431156.512          34.750  
G16  22550385.410   118503073.701          47.250    22550384.470    92340057.237          38.000  
G08  24621606.056   129387414.915          40.500    24621605.976   100821361.825          31.250  
S29  37175392.232   195358003.308          44.250  
S37  37213944.292   195560598.084          42.000  
R14  19297525.152   102866667.826          48.750    19297533.592    80007409.899          43.000  
R17  21063914.660   112717263.661          44.750    21063916.600    87668982.642          40.750  
R13  21932735.856   117119584.220          45.000    21932741.616    91093010.815          39.750  
R23  22750496.112   121699810.523          37.750    22750500.212    94655408.987          33.750  
R15  21274844.720   113686318.214          43.750    21274849.760    88422692.583          40.500  
R08  23698291.004   126903263.017          33.250    23698291.964    98702539.583          28.250  
> 2009 12 18 23 09 34.0000000  0 17                     
G03  20248053.686   106404239.393          50.250    20248052.966    82912394.867          42.500  
G22  24630581.416   129434579.357          42.500    24630579.616   100858113.621          32.750  
G07  21820250.616   114666190.692          48.750    21820249.616    89350278.385          41.500  
G06  21166654.640   111231521.415          49.250    21166654.320    86673912.789          42.250  
G13  24460546.138   128541037.741          40.000    24460545.858   100161846.730          32.750  
G19  20417261.564   107293433.065          50.000    20417258.724    83605271.580          45.500  
G11  23548774.644   123749646.356          44.000    23548774.044    96428295.599          30.750  
G16  22550790.250   118505201.152          47.500    22550789.310    92341714.991          38.750  
G08  24620928.316   129383853.472          40.750    24620928.356   100818586.675          31.750  
S29  37175391.312   195357998.344          44.250  
S37  37213943.632   195560594.487          42.000  
R14  19297705.992   102867631.840          48.750    19297714.432    80008159.688          43.250  
R17  21063582.300   112715485.157          44.500    21063584.240    87667599.361          40.750  
R13  21933505.116   117123691.988          44.750    21933510.856    91096205.743          39.750  
R23  22751102.452   121703054.135          37.750    22751106.572    94657931.797          32.750  
R15  21274259.040   113683188.668          43.250    21274264.120    88420258.493          40.500  
R08  23698050.604   126901976.170          33.500    23698051.604    98701538.704          27.750  
> 2009 12 18 23 09 35.0000000  0 17                     
G03  20248279.866   106405427.954          50.250    20248279.146    82913321.020          42.250  
G22  24630303.336   129433118.103          42.750    24630301.516   100856974.983          34.000  
G07  21819918.696   114664446.503          49.000    21819917.676    89348919.279          42.000  
G06  21166967.460   111233165.356          49.250    21166967.140    86675193.788          42.000  
G13  24461007.478   128543462.125          40.250    24461007.198   100163735.867          33.250  
G19  20417237.964   107293309.090          50.000    20417235.124    83605174.977          45.500  
G11  23548076.064   123745975.377          44.000    23548075.464    96425435.095          32.750  
G16  22551195.190   118507329.184          47.500    22551194.230    92343373.198          38.500  
G08  24620250.696   129380292.592          41.000    24620250.696   100815811.950          30.500  
S29  37175390.472   195357993.678          44.000  
S37  37213942.992   195560591.121          42.000  
R14  19297887.072   102868597.117          48.750    19297895.512    80008910.457          43.000  
R17  21063250.100   112713707.434          44.750    21063252.000    87666216.687          40.750  
R13  21934274.496   117127800.469          45.000    21934280.236    91099401.229          39.250  
R23  22751708.852   121706298.078          37.500    22751712.992    94660454.862          33.000  
R15  21273673.540   113680060.021          43.500    21273678.640    88417825.101          40.250  
R08  23697810.464   126900690.333          32.750    23697811.444    98700538.615          28.750  
> 2009 12 18 23 09 36.0000000  0 17                     
G03  20248506.146   106406617.045          50.250    20248505.426    82914247.582          42.500  
G22  24630025.416   129431657.426          43.250    24630023.576   100855836.792          33.750  
G07  21819586.956   114662703.161          48.750    21819585.936    89347560.841          41.500  
G06  21167280.380   111234809.717          49.250    21167280.060    86676475.104          42.000  
G13  24461468.898   128545886.946          40.000    24461468.598   100165625.329          32.750  
G19  20417214.504   107293185.726          50.000    20417211.644    83605078.849          45.500  
G11  23547377.584   123742304.806          44.000    23547377.004    96422574.917          34.250  
G16  22551600.250   118509457.715          47.750    22551599.290    92345031.794          37.250  
G08  24619573.156   129376732.174          41.000    24619573.196   100813037.621          31.000  
S29  37175389.592   195357989.080          44.000  
S37  37213942.512   195560588.286          42.250  
R14  19298068.372   102869563.532          49.000    19298076.832    80009662.115          43.000  
R17  21062918.040   112711930.359          44.500    21062919.920    87664834.518          40.750  
R13  21935043.996   117131909.553          45.000    21935049.696    91102597.179          39.500  
R23  22752315.312   121709542.211          37.250    22752319.472    94662978.072          33.250  
R15  21273088.200   113676932.177          43.500    21273093.360    88415392.339          40.500  
R08  23697570.524   126899405.431          32.500    23697571.484    98699539.255          28.000  
> 2009 12 18 23 09 37.0000000  0 17                     
G03  20248732.446   106407806.325          50.250    20248731.726    82915174.294          42.500  
G22  24629747.496   129430196.944          43.000    24629745.656   100854698.758          33.500  
G07  21819255.296   114660960.281          49.000    21819254.276    89346202.761          41.500  
G06  21167593.300   111236454.149          49.250    21167592.980    86677756.479          42.000  
G13  24461930.338   128548311.821          40.500    24461930.078   100167514.843          23.500  
G19  20417191.064   107293062.603          50.000    20417188.204    83604982.907          45.500  
G11  23546679.104   123738634.266          44.000    23546678.524    96419714.769          31.500  
G16  22552005.330   118511586.370          47.750    22552004.330    92346690.479          37.250  
G08  24618895.656   129373171.861          41.500    24618895.696   100810263.354          32.000  
S29  37175388.692   195357984.295          44.000  
S37  37213942.052   195560585.548          42.250  
R14  19298249.832   102870530.723          49.000    19298258.292    80010414.374          43.000  
R17  21062586.020   112710153.562          44.500    21062587.860    87663452.564          41.000  
R13  21935813.556   117136018.891          45.250    21935819.236    91105793.331          39.750  
R23  22752921.752   121712786.227          37.750    22752925.912    94665501.204          33.750  
R15  21272502.940   113673804.762          43.750    21272508.100    88412959.910          40.500  
R08  23697330.784   126898121.120          31.750    23697331.644    98698540.350          28.750  
> 2009 12 18 23 09 38.0000000  0 17                     
G03  20248958.786   106408995.721          50.250    20248958.086    82916101.096          42.500  
G22  24629469.596   129428736.585          43.250    24629467.796   100853560.822          34.000  
G07  21818923.696   114659217.793          48.750    21818922.676    89344844.976          41.250  
G06  21167906.220   111238098.575          49.250    21167905.920    86679037.851          41.750  
G13  24462391.778   128550736.747          40.500    24462391.518   100169404.412          31.000  
G19  20417167.684   107292939.672          50.000    20417164.824    83604887.114          45.750  
G11  23545980.604   123734963.721          44.000    23545980.064    96416854.606          32.250  
G16  22552410.410   118513715.080          47.750    22552409.410    92348349.216          37.250  
G08  24618218.136   129369611.582          41.500    24618218.116   100807489.102          28.250  
S29  37175387.772   195357979.458          44.000  
S37  37213941.532   195560582.818          42.000  
R14  19298431.392   102871498.627          48.750    19298439.852    80011167.189          43.250  
R17  21062254.020   112708376.966          44.750    21062255.860    87662070.767          41.000  
R13  21936583.156   117140128.395          45.000    21936588.796    91108989.613          39.750  
R23  22753528.132   121716029.970          37.500    22753532.292    94668024.109          33.750  
R15  21271917.760   113670677.716          44.000    21271922.960    88410527.767          40.750  
R08  23697090.964   126896837.253          32.250    23697091.904    98697541.787          29.250  
> 2009 12 18 23 09 39.0000000  0 17                     
G03  20249185.126   106410185.193          50.250    20249184.426    82917027.955          42.500  
G22  24629191.716   129427276.335          43.250    24629189.916   100852422.962          32.250  
G07  21818592.176   114657475.654          48.750    21818591.156    89343487.469          41.750  
G06  21168219.140   111239742.910          49.250    21168218.820    86680319.151          41.750  
G13  24462853.218   128553161.630          40.500    24462853.018   100171293.913          30.500  
G19  20417144.324   107292816.885          50.000    20417141.464    83604791.438          45.750  
G11  23545282.104   123731293.102          43.750    23545281.564    96413994.383          32.500  
G16  22552815.490   118515843.813          48.000    22552814.490    92350007.970          37.000  
G08  24617540.636   129366051.283          42.000    24617540.656   100804714.853          29.000  
S29  37175386.812   195357974.316          44.000  
S37  37213940.992   195560579.752          42.000  
R14  19298613.092   102872467.204          48.750    19298621.572    80011920.529          43.000  
R17  21061922.060   112706600.527          44.750    21061923.880    87660689.093          40.750  
R13  21937352.776   117144238.013          45.250    21937358.356    91112185.985          39.750  
R23  22754134.492   121719273.416          37.500    22754138.652    94670546.785          32.750  
R15  21271332.640   113667550.983          43.750    21271337.880    88408095.866          40.750  
R08  23696851.344   126895553.807          32.500    23696852.244    98696543.547          28.750  
> 2009 12 18 23 09 40.0000000  0 17                     
G03  20249411.506   106411374.830          50.250    20249410.806    82917954.946          42.250  
G22  24628913.896   129425816.299          43.000    24628912.076   100851285.260          33.000  
G07  21818260.756   114655733.970          48.500    21818259.756    89342130.311          41.250  
G06  21168532.060   111241387.337          49.250    21168531.760    86681600.522          42.000  
G13  24463314.638   128555586.590          40.500    24463314.558   100173183.506          25.750  
G19  20417121.004   107292694.348          50.000    20417118.144    83604695.955          45.250  
G11  23544583.604   123727622.533          43.750    23544583.104    96411134.200          28.750  
G16  22553220.610   118517972.660          48.000    22553219.590    92351666.813          37.250  
G08  24616863.136   129362491.085          41.750    24616863.156   100801940.647          32.500  
S29  37175385.772   195357969.037          44.000  
S37  37213940.332   195560576.223          42.000  
R14  19298794.952   102873436.546          48.750    19298803.412    80012674.459          43.000  
R17  21061590.140   112704824.345          44.500    21061591.940    87659307.620          40.750  
R13  21938122.416   117148347.861          45.000    21938127.976    91115382.532          39.750  
R23  22754740.812   121722516.776          37.500    22754744.952    94673069.396          33.250  
R15  21270747.580   113664424.680          43.750    21270752.880    88405664.301          40.500  
R08  23696611.664   126894270.798          33.000    23696612.664    98695545.647          28.750  
> 2009 12 18 23 09 41.0000000  0 17                     
G03  20249637.966   106412564.857          50.250    20249637.266    82918882.237          42.500  
G22  24628636.156   129424356.642          42.500    24628634.336   100850147.847          31.750  
G07  21817929.436   114653992.942          48.500    21817928.416    89340773.668          41.750  
G06  21168845.040   111243032.016          49.250    21168844.740    86682882.086          41.750  
G13  24463776.158   128558011.857          40.250    24463776.018   100175073.317          31.000  
G19  20417097.764   107292572.253          50.000    20417094.904    83604600.816          45.250  
G11  23543885.144   123723952.191          43.500    23543884.664    96408274.182          33.250  
G16  22553625.790   118520101.842          47.750    22553624.750    92353325.920          37.000  
G08  24616185.696   129358931.159          41.500    24616185.636   100799166.672          30.500  
S29  37175384.772   195357963.661          44.250  
S37  37213939.752   195560572.741          42.250  
R14  19298976.952   102874406.857          48.750    19298985.412    80013429.146          43.000  
R17  21061258.300   112703048.645          44.500    21061260.100    87657926.522          40.750  
R13  21938892.136   117152458.118          45.250    21938897.696    91118579.402          39.500  
R23  22755347.152   121725760.142          37.750    22755351.292    94675592.012          32.750  
R15  21270162.640   113661299.021          44.000    21270167.980    88403233.230          40.500  
R08  23696372.164   126892988.607          33.500    23696373.224    98694548.390          27.750  
> 2009 12 18 23 09 42.0000000  0 17                     
G03  20249864.526   106413755.419          50.250    20249863.826    82919809.950          42.500  
G22  24628358.516   129422897.542          42.500    24628356.716   100849010.896          32.500  
G07  21817598.296   114652252.740          48.500    21817597.296    89339417.666          41.500  
G06  21169158.080   111244677.097          49.250    21169157.780    86684163.969          41.500  
G13  24464237.758   128560437.519          40.000    24464237.698   100176963.434          33.500  
G19  20417074.664   107292450.788          50.000    20417071.804    83604506.168          45.250  
G11  23543186.764   123720282.268          43.250    23543186.284    96405414.501          31.750  
G16  22554031.050   118522231.508          47.750    22554029.990    92354985.403          38.000  
G08  24615508.356   129355371.750          41.500    24615508.216   100796393.107          28.000  
S29  37175383.812   195357958.543          44.250  
S37  37213939.192   195560569.659          42.000  
R14  19299159.212   102875378.307          48.750    19299167.692    80014184.716          42.500  
R17  21060926.600   112701273.612          44.500    21060928.400    87656545.938          40.250  
R13  21939661.976   117156568.986          45.000    21939667.516    91121776.746          39.000  
R23  22755953.532   121729003.708          37.500    22755957.612    94678114.779          32.250  
R15  21269577.860   113658174.184          44.000    21269583.240    88400802.804          39.750  
R08  23696132.824   126891707.354          34.000    23696134.004    98693551.857          27.500  
> 2009 12 18 23 09 43.0000000  0 17                     
G03  20250091.146   106414946.347          50.250    20250090.446    82920737.946          42.250  
G22  24628080.936   129421438.831          42.250    24628079.136   100847874.232          32.750  
G07  21817267.256   114650513.155          48.750    21817266.236    89338062.150          41.750  
G06  21169471.180   111246322.440          49.250    21169470.900    86685446.055          41.750  
G13  24464699.398   128562863.427          40.000    24464699.358   100178853.746          32.250  
G19  20417051.624   107292329.730          50.000    20417048.744    83604411.837          45.250  
G11  23542488.424   123716612.533          42.750    23542487.904    96402554.972          34.000  
G16  22554436.370   118524361.472          47.750    22554435.310    92356645.120          37.500  
G08  24614831.076   129351812.575          42.000    24614830.936   100793619.719          28.000  
S29  37175382.892   195357953.619          44.000  
S37  37213938.672   195560566.945          42.000  
R14  19299341.632   102876350.722          48.750    19299350.092    80014941.038          42.500  
R17  21060594.980   112699499.027          44.250    21060596.760    87655165.708          40.500  
R13  21940431.876   117160680.244          44.750    21940437.416    91124974.395          39.250  
R23  22756559.912   121732247.299          38.000    22756563.992    94680637.572          33.000  
R15  21268993.180   113655049.915          43.750    21268998.600    88398372.817          40.000  
R08  23695893.664   126890426.703          32.750    23695894.844    98692555.792          28.500  
> 2009 12 18 23 09 44.0000000  0 17                     
G03  20250317.846   106416137.650          50.250    20250317.146    82921666.238          42.000  
G22  24627803.416   129419980.535          42.500    24627801.596   100846737.891          30.750  
G07  21816936.376   114648774.269          48.750    21816935.376    89336707.171          41.750  
G06  21169784.320   111247968.063          49.250    21169784.040    86686728.358          41.250  
G13  24465161.098   128565289.656          39.750    24465161.018   100180744.316          31.250  
G19  20417028.684   107292209.138          50.000    20417025.804    83604317.869          45.250  
G11  23541790.124   123712943.067          42.500    23541789.604    96399695.657          32.500  
G16  22554841.770   118526491.776          47.750    22554840.730    92358305.100          37.000  
G08  24614153.836   129348253.720          42.250    24614153.696   100790846.576          33.000  
S29  37175381.992   195357948.574          44.250  
S37  37213938.212   195560564.499          42.250  
R14  19299524.232   102877324.130          49.000    19299532.692    80015698.134          42.500  
R17  21060263.460   112697724.935          44.250    21060265.260    87653785.859          40.250  
R13  21941201.896   117164791.982          44.750    21941207.396    91128172.416          39.250  
R23  22757166.272   121735490.953          37.500    22757170.332    94683160.410          32.750  
R15  21268408.640   113651926.294          43.750    21268414.080    88395943.334          40.000  
R08  23695654.604   126889146.901          33.000    23695655.884    98691560.382          28.000  
> 2009 12 18 23 09 45.0000000  0 17                     
G03  20250544.586   106417329.182          50.250    20250543.886    82922594.702          42.500  
G22  24627525.956   129418522.475          42.250    24627524.136   100845601.749          34.000  
G07  21816605.556   114647035.872          48.750    21816604.556    89335352.576          41.000  
G06  21170097.500   111249613.790          49.250    21170097.200    86688010.737          41.750  
G13  24465622.818   128567716.048          39.750    24465622.778   100182634.999          30.000  
G19  20417005.784   107292088.850          50.000    20417002.904    83604224.138          45.500  
G11  23541091.844   123709273.702          43.000    23541091.364    96396836.418          33.750  
G16  22555247.190   118528622.257          47.750    22555246.150    92359965.213          38.250  
G08  24613476.656   129344694.992          42.250    24613476.496   100788073.547          28.000  
S29  37175381.052   195357943.521          44.250  
S37  37213937.752   195560562.045          42.250  
R14  19299706.992   102878298.355          49.000    19299715.452    80016455.862          43.250  
R17  21059931.980   112695951.186          44.250    21059933.780    87652406.276          41.000  
R13  21941971.936   117168903.969          44.750    21941977.436    91131370.628          39.750  
R23  22757772.632   121738734.479          38.250    22757776.652    94685683.149          33.250  
R15  21267824.160   113648803.128          43.500    21267829.640    88393514.207          40.500  
R08  23695415.804   126887867.726          32.750    23695417.004    98690565.472          28.500  
> 2009 12 18 23 09 46.0000000  0 17                     
G03  20250771.386   106418521.030          50.250    20250770.686    82923523.417          42.000  
G22  24627248.556   129417064.760          42.250    24627246.716   100844465.865          30.500  
G07  21816274.876   114645298.074          49.000    21816273.876    89333998.448          41.000  
G06  21170410.700   111251259.722          49.250    21170410.400    86689293.286          41.500  
G13  24466084.538   128570142.613          40.250    24466084.538   100184525.821          30.500  
G19  20416982.984   107291968.949          50.250    20416980.104    83604130.711          45.250  
G11  23540393.604   123705604.518          42.750    23540393.124    96393977.315          32.250  
G16  22555652.670   118530753.006          47.750    22555651.610    92361625.536          38.250  
G08  24612799.496   129341136.513          42.500    24612799.336   100785300.696          31.250  
S29  37175380.112   195357938.524          44.250  
S37  37213937.292   195560559.633          42.000  
R14  19299889.932   102879273.504          49.000    19299898.392    80017214.311          42.750  
R17  21059600.580   112694177.856          44.500    21059602.380    87651027.026          40.500  
R13  21942742.056   117173016.340          44.750    21942747.556    91134569.143          39.250  
R23  22758378.952   121741977.992          38.000    22758382.992    94688205.879          32.750  
R15  21267239.820   113645680.522          43.750    21267245.320    88391085.518          40.000  
R08  23695177.044   126886589.212          32.750    23695178.244    98689571.074          28.500  
> 2009 12 18 23 09 47.0000000  0 17                     
G03  20250998.246   106419713.179          50.250    20250997.566    82924452.362          42.500  
G22  24626971.216   129415607.360          41.750    24626969.356   100843330.224          35.250  
G07  21815944.296   114643560.851          49.000    21815943.296    89332644.770          41.000  
G06  21170723.940   111252905.812          49.250    21170723.640    86690575.951          41.750  
G13  24466546.338   128572569.388          39.750    24466546.358   100186416.812          33.500  
G19  20416960.224   107291849.407          50.250    20416957.344    83604037.561          44.750  
G11  23539695.364   123701935.497          42.750    23539694.924    96391118.336          32.250  
G16  22556058.190   118532883.983          47.750    22556057.090    92363286.036          37.750  
G08  24612122.396   129337578.271          42.250    24612122.296   100782528.040          31.000  
S29  37175379.172   195357933.592          44.250  
S37  37213936.752   195560556.826          42.250  
R14  19300073.032   102880249.538          49.000    19300081.472    80017973.451          42.500  
R17  21059269.280   112692404.909          44.250    21059271.080    87649648.071          40.500  
R13  21943512.216   117177129.053          44.750    21943517.736    91137767.915          39.250  
R23  22758985.272   121745221.419          37.250    22758989.312    94690728.536          32.250  
R15  21266655.560   113642558.470          43.750    21266661.060    88388657.251          39.250  
R08  23694938.404   126885311.319          32.000    23694939.684    98688577.155          28.000  
> 2009 12 18 23 09 48.0000000  0 17                     
G03  20251225.126   106420905.484          50.250    20251224.446    82925381.431          42.000  
G22  24626693.916   129414150.149          42.250    24626692.016   100842194.741          32.000  
G07  21815613.796   114641824.070          49.000    21815612.796    89331291.432          40.750  
G06  21171037.200   111254551.934          49.250    21171036.900    86691858.641          41.750  
G13  24467008.138   128574996.237          40.250    24467008.218   100188307.859          29.500  
G19  20416937.524   107291730.097          50.000    20416934.644    83603944.594          45.250  
G11  23538997.144   123698266.507          42.500    23538996.744    96388259.377          32.750  
G16  22556463.730   118535015.073          47.750    22556462.610    92364946.622          37.250  
G08  24611445.296   129334020.073          42.250    24611445.156   100779755.412          27.750  
S29  37175378.252   195357928.629          44.250  
S37  37213936.192   195560553.726          42.250  
R14  19300256.292   102881226.323          48.750    19300264.732    80018733.175          42.500  
R17  21058938.020   112690632.209          44.000    21058939.820    87648269.304          40.500  
R13  21944282.436   117181241.974          44.250    21944287.956    91140966.850          38.750  
R23  22759591.632   121748464.689          37.250    22759595.612    94693251.081          32.750  
R15  21266071.400   113639436.813          43.500    21266076.900    88386229.298          39.750  
R08  23694699.744   126884033.876          33.000    23694701.144    98687583.590          28.750  
> 2009 12 18 23 09 49.0000000  0 17                     
G03  20251452.066   106422098.040          50.250    20251451.386    82926310.694          42.250  
G22  24626416.656   129412693.214          42.250    24626414.756   100841059.488          30.000  
G07  21815283.396   114640087.822          49.000    21815282.396    89329938.509          40.500  
G06  21171350.480   111256198.176          49.250    21171350.180    86693141.428          41.750  
G13  24467469.998   128577423.262          40.000    24467470.098   100190199.048          31.000  
G19  20416914.884   107291611.104          50.250    20416912.004    83603851.871          45.250  
G11  23538298.944   123694597.618          42.750    23538298.544    96385400.495          33.250  
G16  22556869.310   118537146.353          47.750    22556868.150    92366607.359          37.250  
G08  24610768.236   129330462.070          42.000    24610768.076   100776982.942          31.750  
S29  37175377.272   195357923.387          44.250  
S37  37213935.592   195560550.405          42.250  
R14  19300439.672   102882203.954          48.750    19300448.112    80019493.550          42.750  
R17  21058606.800   112688859.856          44.000    21058608.600    87646890.810          40.500  
R13  21945052.736   117185355.223          44.250    21945058.236    91144166.042          39.250  
R23  22760197.872   121751707.902          37.500    22760201.912    94695773.580          33.000  
R15  21265487.300   113636315.686          43.500    21265492.820    88383801.752          39.750  
R08  23694461.344   126882757.214          33.250    23694462.784    98686590.640          29.000  
> 2009 12 18 23 09 50.0000000  0 17                     
G03  20251679.026   106423290.726          50.250    20251678.346    82927240.059          42.250  
G22  24626139.436   129411236.416          42.250    24626137.556   100839924.302          31.500  
G07  21814953.096   114638351.978          49.000    21814952.076    89328585.904          41.250  
G06  21171663.760   111257844.460          49.250    21171663.460    86694424.245          41.250  
G13  24467931.858   128579850.300          40.500    24467931.958   100192090.236          33.250  
G19  20416892.284   107291492.317          50.250    20416889.404    83603759.309          45.000  
G11  23537600.744   123690928.731          42.750    23537600.344    96382541.629          29.500  
G16  22557274.890   118539277.719          48.000    22557273.730    92368268.166          37.000  
G08  24610091.196   129326904.117          42.250    24610090.976   100774210.523          30.000  
S29  37175376.252   195357918.153          44.500  
S37  37213934.972   195560546.997          42.500  
R14  19300623.212   102883182.304          48.750    19300631.652    80020254.489          43.000  
R17  21058275.660   112687087.722          44.000    21058277.460    87645512.483          40.750  
R13  21945823.036   117189468.646          44.250    21945828.556    91147365.365          39.500  
R23  22760804.112   121754950.883          37.500    22760808.172    94698295.896          32.750  
R15  21264903.280   113633194.887          43.500    21264908.800    88381374.468          39.750  
R08  23694223.044   126881480.893          33.750    23694224.464    98685597.947          28.750  
> 2009 12 18 23 09 51.0000000  0 17                     
G03  20251906.066   106424483.837          50.250    20251905.366    82928169.756          42.250  
G22  24625862.316   129409780.083          41.750    24625860.396   100838789.507          31.750  
G07  21814622.916   114636616.837          49.000    21814621.876    89327233.847          41.000  
G06  21171977.080   111259491.021          49.250    21171976.780    86695707.283          41.500  
G13  24468393.758   128582277.675          40.500    24468393.878   100193981.697          31.000  
G19  20416869.784   107291374.026          50.250    20416866.884    83603667.135          45.250  
G11  23536902.584   123687260.122          42.500    23536902.204    96379682.975          33.250  
G16  22557680.550   118541409.440          47.750    22557679.390    92369929.249          37.250  
G08  24609414.196   129323346.484          42.000    24609414.056   100771438.340          29.750  
S29  37175375.252   195357912.735          44.250  
S37  37213934.372   195560543.807          42.250  
R14  19300806.952   102884161.675          48.750    19300815.392    80021016.224          43.000  
R17  21057944.600   112685316.116          44.250    21057946.400    87644134.569          41.000  
R13  21946593.436   117193582.558          44.500    21946598.936    91150565.070          39.250  
R23  22761410.292   121758193.895          37.500    22761414.412    94700818.242          33.000  
R15  21264319.400   113630074.790          43.250    21264324.920    88378947.724          39.750  
R08  23693984.904   126880205.372          33.250    23693986.264    98684605.878          28.750  
> 2009 12 18 23 09 52.0000000  0 17                     
G03  20252133.166   106425677.292          50.250    20252132.466    82929099.719          42.750  
G22  24625585.236   129408324.096          42.000    24625583.276   100837654.966          33.000  
G07  21814292.856   114634882.323          49.000    21814291.796    89325882.276          41.000  
G06  21172290.460   111261137.833          49.250    21172290.160    86696990.513          41.500  
G13  24468855.738   128584705.320          40.750    24468855.858   100195873.378          32.250  
G19  20416847.344   107291256.148          50.250    20416844.444    83603575.279          45.000  
G11  23536204.484   123683591.721          42.500    23536204.064    96376824.486          33.750  
G16  22558086.270   118543541.460          47.750    22558085.090    92371590.564          38.000  
G08  24608737.256   129319789.130          41.500    24608737.136   100768666.361          26.500  
S29  37175374.292   195357907.629          44.250  
S37  37213933.712   195560540.344          42.500  
R14  19300990.852   102885141.992          48.750    19300999.272    80021778.693          43.500  
R17  21057613.620   112683544.946          44.500    21057615.400    87642756.991          41.500  
R13  21947363.916   117197696.857          44.250    21947369.416    91153765.071          40.000  
R23  22762016.592   121761436.993          37.000    22762020.692    94703340.654          34.000  
R15  21263735.600   113626955.287          43.000    21263741.120    88376521.444          40.250  
R08  23693746.804   126878930.577          33.750    23693748.224    98683614.368          29.000  
> 2009 12 18 23 09 53.0000000  0 17                     
G03  20252360.366   106426871.242          50.250    20252359.666    82930030.071          42.250  
G22  24625308.276   129406868.630          41.750    24625306.276   100836520.843          33.250  
G07  21813962.936   114633148.584          49.000    21813961.856    89324531.311          40.500  
G06  21172603.900   111262785.011          49.250    21172603.620    86698274.028          41.250  
G13  24469317.758   128587133.338          40.750    24469317.858   100197765.347          34.750  
G19  20416825.024   107291138.829          50.000    20416822.124    83603483.860          45.000  
G11  23535506.444   123679923.712          42.250    23535506.044    96373966.295          34.000  
G16  22558492.070   118545673.922          47.750    22558490.870    92373252.223          37.750  
G08  24608060.376   129316232.201          41.750    24608060.276   100765894.726          32.250  
S29  37175373.372   195357902.842          44.250  
S37  37213933.012   195560536.839          42.250  
R14  19301174.972   102886123.410          48.750    19301183.392    80022542.018          43.000  
R17  21057282.760   112681774.404          44.250    21057284.560    87641379.905          40.750  
R13  21948134.496   117201811.690          44.500    21948140.016    91156965.493          39.250  
R23  22762622.792   121764680.217          37.250    22762626.952    94705863.161          33.000  
R15  21263152.000   113623836.561          43.250    21263157.500    88374095.770          39.500  
R08  23693508.864   126877656.762          32.500    23693510.344    98682623.617          28.750  
> 2009 12 18 23 09 54.0000000  0 17                     
G03  20252587.646   106428065.551          50.250    20252586.946    82930960.700          42.250  
G22  24625031.376   129405413.553          41.500    24625029.436   100835387.018          32.750  
G07  21813633.136   114631415.481          49.000    21813632.036    89323180.839          41.000  
G06  21172917.400   111264432.449          49.250    21172917.120    86699557.746          41.500  
G13  24469779.858   128589561.585          40.750    24469779.998   100199657.493          33.500  
G19  20416802.784   107291021.941          50.000    20416799.884    83603392.777          45.250  
G11  23534808.444   123676255.883          42.250    23534808.064    96371108.251          33.500  
G16  22558897.930   118547806.684          47.750    22558896.730    92374914.113          37.750  
G08  24607383.576   129312675.517          41.750    24607383.516   100763123.286          35.250  
S29  37175372.392   195357897.905          44.250  
S37  37213932.392   195560533.867          42.250  
R14  19301359.272   102887105.766          48.500    19301367.672    80023306.073          43.000  
R17  21056951.980   112680004.307          44.250    21056953.780    87640003.167          40.500  
R13  21948905.136   117205926.923          44.250    21948910.636    91160166.228          39.750  
R23  22763229.112   121767923.444          37.250    22763233.272    94708385.669          32.750  
R15  21262568.480   113620718.421          43.250    21262573.980    88371670.552          39.500  
R08  23693271.084   126876383.547          33.250    23693272.624    98681633.330          28.250  
> 2009 12 18 23 09 55.0000000  0 17                     
G03  20252814.966   106429260.186          50.250    20252814.266    82931891.586          42.000  
G22  24624754.536   129403958.809          41.500    24624752.596   100834253.436          33.000  
G07  21813303.456   114629682.983          49.000    21813302.356    89321830.840          40.500  
G06  21173230.940   111266080.065          49.250    21173230.640    86700841.601          41.000  
G13  24470241.958   128591990.076          40.500    24470242.118   100201549.824          35.250  
G19  20416780.624   107290905.448          50.250    20416777.704    83603302.004          45.250  
G11  23534110.464   123672588.263          42.250    23534110.064    96368250.375          31.250  
G16  22559303.830   118549939.716          47.750    22559302.610    92376576.213          37.250  
G08  24606706.796   129309119.103          41.500    24606706.796   100760352.055          30.500  
S29  37175371.472   195357892.976          44.500  
S37  37213931.932   195560531.240          42.000  
R14  19301543.732   102888089.052          48.750    19301552.132    80024070.851          42.750  
R17  21056621.260   112678234.648          44.250    21056623.060    87638626.768          40.750  
R13  21949675.856   117210042.565          44.500    21949681.356    91163367.281          39.000  
R23  22763835.412   121771166.607          37.250    22763839.572    94710908.124          32.000  
R15  21261985.080   113617600.887          43.500    21261990.580    88369245.807          39.500  
R08  23693033.484   126875111.038          32.750    23693034.964    98680643.599          28.250  
> 2009 12 18 23 09 56.0000000  0 17                     
G03  20253042.366   106430455.097          50.250    20253041.666    82932822.688          42.000  
G22  24624477.756   129402504.381          41.500    24624475.796   100833120.109          32.750  
G07  21812973.876   114627951.057          49.000    21812972.756    89320481.290          40.500  
G06  21173544.500   111267727.808          49.250    21173544.200    86702125.554          41.750  
G13  24470704.138   128594418.746          40.250    24470704.218   100203442.290          32.250  
G19  20416758.524   107290789.298          50.000    20416755.604    83603211.500          45.250  
G11  23533412.544   123668920.792          42.500    23533412.184    96365392.610          30.250  
G16  22559709.790   118552072.974          47.750    22559708.570    92378238.492          37.750  
G08  24606030.056   129305562.871          41.750    24606030.036   100757580.963          32.000  
S29  37175370.592   195357888.372          44.250  
S37  37213931.372   195560528.415          42.250  
R14  19301728.372   102889073.208          48.750    19301736.772    80024836.303          42.750  
R17  21056290.640   112676465.353          44.500    21056292.440    87637250.649          40.750  
R13  21950446.656   117214158.511          44.500    21950452.136    91166568.572          39.000  
R23  22764441.672   121774409.761          37.750    22764445.872    94713430.571          32.500  
R15  21261401.780   113614483.876          43.750    21261407.260    88366821.472          39.750  
R08  23692795.904   126873839.159          32.250    23692797.444    98679654.366          28.000  
> 2009 12 18 23 09 57.0000000  0 17                     
G03  20253269.806   106431650.392          50.250    20253269.106    82933754.084          42.250  
G22  24624201.056   129401050.352          41.750    24624199.076   100831987.103          33.500  
G07  21812644.436   114626219.799          49.000    21812643.316    89319132.255          41.000  
G06  21173858.120   111269375.853          49.250    21173857.820    86703409.743          41.750  
G13  24471166.358   128596847.726          40.500    24471166.518   100205334.971          30.250  
G19  20416736.504   107290673.622          50.000    20416733.584    83603121.363          45.250  
G11  23532714.664   123665253.547          42.250    23532714.304    96362535.031          30.750  
G16  22560115.810   118554206.557          47.750    22560114.570    92379901.025          37.500  
G08  24605353.376   129302006.959          41.750    24605353.376   100754810.130          34.250  
S29  37175369.652   195357883.695          44.250  
S37  37213930.812   195560525.570          42.250  
R14  19301913.172   102890058.338          48.750    19301921.572    80025602.516          43.250  
R17  21055960.080   112674696.519          44.500    21055961.880    87635874.891          41.000  
R13  21951217.516   117218274.917          44.500    21951222.996    91169770.221          39.500  
R23  22765047.992   121777652.939          37.500    22765052.172    94715953.029          33.000  
R15  21260818.600   113611367.486          44.000    21260824.060    88364397.611          39.750  
R08  23692558.504   126872568.085          32.750    23692560.104    98678665.761          29.000  
> 2009 12 18 23 09 58.0000000  0 17                     
G03  20253497.306   106432845.891          50.250    20253496.626    82934685.642          41.750  
G22  24623924.376   129399596.549          41.500    24623922.376   100830854.274          34.000  
G07  21812315.076   114624489.019          48.750    21812313.936    89317783.592          40.750  
G06  21174171.740   111271023.979          49.250    21174171.440    86704693.997          41.500  
G13  24471628.558   128599276.755          41.000    24471628.838   100207227.713          31.750  
G19  20416714.544   107290558.211          50.000    20416711.624    83603031.430          45.500  
G11  23532016.804   123661586.384          42.250    23532016.464    96359677.491          32.500  
G16  22560521.850   118556340.294          47.750    22560520.610    92381563.671          37.250  
G08  24604676.716   129298451.161          41.750    24604676.736   100752039.384          29.500  
S29  37175368.672   195357878.611          44.250  
S37  37213930.232   195560522.540          42.000  
R14  19302098.132   102891044.263          48.750    19302106.512    80026369.346          42.750  
R17  21055629.600   112672928.003          44.250    21055631.400    87634499.379          40.500  
R13  21951988.416   117222391.571          44.750    21951993.876    91172972.060          39.250  
R23  22765654.232   121780895.939          37.500    22765658.452    94718475.364          32.750  
R15  21260235.500   113608251.587          44.000    21260240.980    88361974.130          39.250  
R08  23692321.144   126871297.593          32.750    23692322.864    98677677.609          28.750  
> 2009 12 18 23 09 59.0000000  0 17                     
G03  20253724.846   106434041.611          50.250    20253724.146    82935617.368          42.250  
G22  24623647.776   129398143.004          41.750    24623645.816   100829721.641          33.750  
G07  21811985.816   114622758.738          48.750    21811984.656    89316435.317          41.000  
G06  21174485.380   111272672.229          49.250    21174485.080    86705978.346          41.500  
G13  24472090.838   128601705.917          41.000    24472091.078   100209120.556          33.250  
G19  20416692.644   107290443.081          50.000    20416689.724    83602941.721          45.250  
G11  23531318.944   123657919.304          42.500    23531318.684    96356820.034          34.250  
G16  22560927.930   118558474.195          47.750    22560926.670    92383226.451          37.250  
G08  24604000.116   129294895.504          42.250    24604000.136   100749268.728          32.000  
S29  37175367.712   195357873.424          44.250  
S37  37213929.612   195560519.426          42.000  
R14  19302283.252   102892031.009          48.750    19302291.632    80027136.813          42.750  
R17  21055299.160   112671159.787          44.500    21055300.980    87633124.104          40.750  
R13  21952759.396   117226508.491          45.000    21952764.836    91176174.108          39.000  
R23  22766260.452   121784138.799          37.750    22766264.692    94720997.590          33.000  
R15  21259652.500   113605136.134          44.000    21259657.960    88359551.002          39.500  
R08  23692084.004   126870027.534          32.250    23692085.664    98676689.781          28.000  
