     3.04           OBSERVATION DATA    M: Mixed            RINEX VERSION / TYPE
CONVBIN demo5 b34f.1                    20220527 015937 UTC PGM / RUN BY / DATE 
log: /home/igor/git/flutter_rtklib/test/data/rcvraw/ubx_2008COMMENT             
format: u-blox UBX                                          COMMENT             
format: u-blox UBX                                          COMMENT             
log: /home/igor/git/flutter_rtklib/test/data/rcvraw/ubx_2008COMMENT             
                                                            MARKER NAME         
                                                            MARKER NUMBER       
                                                            MARKER TYPE         
                                                            OBSERVER / AGENCY   
                                                            REC # / TYPE / VERS 
                                                            ANT # / TYPE        
 -3869302.1924  3436557.7997  3717357.2463                  APPROX POSITION XYZ 
        0.0000        0.0000        0.0000                  ANTENNA: DELTA H/E/N
G    2 C1C L1C                                              SYS / # / OBS TYPES 
S    2 C1C L1C                                              SYS / # / OBS TYPES 
  2008    05    26    05    59   29.9990000     GPS         TIME OF FIRST OBS   
  2008    05    26    06    03   25.9990000     GPS         TIME OF LAST OBS    
G L1C                                                       SYS / PHASE SHIFT   
S L1C                                                       SYS / PHASE SHIFT   
  0                                                         GLONASS SLOT / FRQ #
 C1C    0.000 C1P    0.000 C2C    0.000 C2P    0.000        GLONASS COD/PHS/BIS 
                                                            END OF HEADER       
> 2008 05 26 05 59 29.9990000  0 10                     
G18  20374092.016   107066545.4351 
G09  20466294.850   107551085.4301 
G12  20502549.463   107741620.9891 
G05  20139221.883   105832290.6071 
G30  21548661.481   113238933.5621 
G14  22697162.091   119274399.1291 
G15  23560321.579   123810291.3401 
S37  36902729.249   193925123.2731 
G22  20840902.010   109519667.7061 
G26  25139488.542   132108912.9931 
> 2008 05 26 05 59 30.9990000  0 10                     
G18  20374273.891   107067502.538  
G09  20466585.553   107552612.451  
G12  20502283.015   107740220.823  
G05  20138745.810   105829789.517  
G30  21547943.391   113235160.974  
G14  22696567.500   119271275.956  
G15  23560711.874   123812341.617  
S37  36902623.814   193924569.030  
G22  20840574.159   109517943.711  
G26  25139938.683   132111275.813  
> 2008 05 26 05 59 31.9990000  0 10                     
G18  20374456.294   107068460.055  
G09  20466876.082   107554139.571  
G12  20502016.219   107738821.104  
G05  20138270.143   105827288.823  
G30  21547225.398   113231388.545  
G14  22695972.893   119268152.606  
G15  23561102.393   123814391.894  
S37  36902518.393   193924014.864  
G22  20840246.278   109516220.080  
G26  25140388.424   132113638.517  
> 2008 05 26 05 59 32.9990000  0 10                     
G18  20374638.521   107069417.764  
G09  20467166.679   107555666.532  
G12  20501749.993   107737421.604  
G05  20137794.366   105824788.289  
G30  21546507.622   113227616.045  
G14  22695378.499   119265028.883  
G15  23561492.370   123816441.929  
S37  36902412.871   193923460.351  
G22  20839918.549   109514496.614  
G26  25140838.608   132116000.857  
> 2008 05 26 05 59 33.9990000  0 10                     
G18  20374820.954   107070376.806  
G09  20467457.492   107557194.511  
G12  20501484.144   107736023.476  
G05  20137318.717   105822289.055  
G30  21545789.968   113223844.641  
G14  22694784.681   119261905.935  
G15  23561882.243   123818492.867  
S37  36902307.455   193922906.604  
G22  20839590.865   109512774.459  
G26  25141288.798   132118364.007  
> 2008 05 26 05 59 34.9990000  0 10                     
G18  20375003.593   107071335.716  
G09  20467748.452   107558722.039  
G12  20501218.006   107734625.266  
G05  20136843.102   105819789.667  
G30  21545072.101   113220072.856  
G14  22694190.331   119258782.272  
G15  23562271.635   123820543.282  
S37  36902202.138   193922352.190  
G22  20839263.136   109511052.144  
G26  25141738.590   132120726.463  
> 2008 05 26 05 59 35.9990000  0 10                     
G18  20375186.152   107072295.099  
G09  20468039.164   107560249.715  
G12  20500951.885   107733227.568  
G05  20136367.793   105817290.730  
G30  21544354.229   113216301.309  
G14  22693595.950   119255658.543  
G15  23562662.027   123822593.752  
S37  36902096.760   193921797.942  
G22  20838935.421   109509330.286  
G26  25142188.086   132123088.864  
> 2008 05 26 05 59 36.9990000  0 10                     
G18  20375368.720   107073255.513  
G09  20468329.444   107561778.103  
G12  20500686.371   107731830.944  
G05  20135892.226   105814792.802  
G30  21543636.659   113212530.549  
G14  22693001.251   119252535.265  
G15  23563052.166   123824644.823  
S37  36901991.296   193921244.085  
G22  20838607.579   109507609.431  
G26  25142637.486   132125451.755  
> 2008 05 26 05 59 37.9990000  0 10                     
G18  20375551.236   107074216.544  
G09  20468620.740   107563306.776  
G12  20500420.975   107730434.954  
G05  20135417.166   105812295.452  
G30  21542919.250   113208760.142  
G14  22692407.368   119249412.037  
G15  23563442.375   123826696.069  
S37  36901885.832   193920690.112  
G22  20838280.209   109505889.159  
G26  25143087.431   132127814.740  
> 2008 05 26 05 59 38.9990000  0 10                     
G18  20375734.324   107075177.998  
G09  20468911.317   107564835.538  
G12  20500155.518   107729039.426  
G05  20134942.014   105809798.499  
G30  21542201.989   113204989.917  
G14  22691813.402   119246288.655  
G15  23563832.614   123828747.333  
S37  36901780.227   193920135.770  
G22  20837952.925   109504169.285  
G26  25143537.407   132130177.604  
> 2008 05 26 05 59 39.9990000  0 10                     
G18  20375917.341   107076140.434  
G09  20469202.320   107566364.961  
G12  20499890.138   107727644.923  
G05  20134466.931   105807302.509  
G30  21541484.584   113201220.413  
G14  22691219.557   119243165.691  
G15  23564223.228   123830799.125  
S37  36901674.709   193919581.665  
G22  20837625.715   109502450.379  
G26  25143986.980   132132540.891  
> 2008 05 26 05 59 40.9990000  0 10                     
G18  20376100.808   107077103.508  
G09  20469493.159   107567894.703  
G12  20499624.324   107726251.097  
G05  20133992.106   105804807.131  
G30  21540767.694   113197451.311  
G14  22690624.863   119240042.805  
G15  23564613.973   123832851.148  
S37  36901569.415   193919027.598  
G22  20837298.890   109500732.075  
G26  25144436.350   132134904.256  
> 2008 05 26 05 59 41.9990000  0 10                     
G18  20376284.001   107078066.924  
G09  20469784.076   107569424.456  
G12  20499359.324   107724857.646  
G05  20133516.967   105802312.062  
G30  21540050.337   113193682.303  
G14  22690031.015   119236919.681  
G15  23565004.496   123834903.072  
S37  36901463.963   193918473.245  
G22  20836971.812   109499014.106  
G26  25144886.470   132137267.429  
> 2008 05 26 05 59 42.9990000  0 10                     
G18  20376467.490   107079030.830  
G09  20470075.198   107570954.375  
G12  20499093.986   107723464.735  
G05  20133042.356   105799817.471  
G30  21539333.182   113189913.532  
G14  22689436.438   119233796.486  
G15  23565395.238   123836955.090  
S37  36901358.381   193917918.578  
G22  20836645.196   109497296.589  
G26  25145336.018   132139630.529  
> 2008 05 26 05 59 43.9990000  0 10                     
G18  20376651.018   107079994.047  
G09  20470365.897   107572483.291  
G12  20498828.860   107722071.179  
G05  20132567.623   105797322.159  
G30  21538615.686   113186143.841  
G14  22688841.962   119230672.035  
G15  23565785.821   123839005.968  
S37  36901252.716   193917362.512  
G22  20836318.184   109495578.378  
G26  25145785.217   132141992.412  
> 2008 05 26 05 59 44.9990000  0 10                     
G18  20376834.315   107080957.127  
G09  20470656.718   107574011.727  
G12  20498564.123   107720677.502  
G05  20132092.733   105794826.693  
G30  21537898.111   113182373.753  
G14  22688247.241   119227546.868  
G15  23566176.349   123841056.300  
S37  36901146.466   193916805.724  
G22  20835991.328   109493859.990  
G26  25146234.343   132144353.601  
> 2008 05 26 05 59 45.9990000  0 10                     
G18  20377017.673   107081920.956  
G09  20470947.988   107575540.588  
G12  20498298.979   107719284.629  
G05  20131618.222   105792331.938  
G30  21537180.846   113178604.167  
G14  22687652.197   119224421.900  
G15  23566566.688   123843106.957  
S37  36901040.560   193916249.372  
G22  20835664.625   109492142.335  
G26  25146683.237   132146715.016  
> 2008 05 26 05 59 46.9990000  0 10                     
G18  20377201.127   107082884.994  
G09  20471238.779   107577069.350  
G12  20498033.984   107717892.016  
G05  20131143.598   105789837.397  
G30  21536463.611   113174834.553  
G14  22687056.704   119221296.562  
G15  23566956.945   123845157.416  
S37  36900934.690   193915692.859  
G22  20835337.913   109490424.879  
G26  25147132.444   132149076.117  
> 2008 05 26 05 59 47.9990000  0 10                     
G18  20377384.843   107083850.156  
G09  20471530.119   107578598.905  
G12  20497769.073   107716500.559  
G05  20130669.418   105787343.947  
G30  21535746.128   113171065.821  
G14  22686462.385   119218171.786  
G15  23567346.826   123847208.586  
S37  36900828.772   193915136.821  
G22  20835011.228   109488708.513  
G26  25147581.779   132151437.791  
> 2008 05 26 05 59 48.9990000  0 10                     
G18  20377568.546   107084815.147  
G09  20471821.412   107580127.964  
G12  20497504.083   107715108.980  
G05  20130195.087   105784850.304  
G30  21535028.986   113167296.686  
G14  22685867.503   119215046.255  
G15  23567736.377   123849259.160  
S37  36900722.858   193914580.171  
G22  20834684.315   109486991.960  
G26  25148030.974   132153798.738  
> 2008 05 26 05 59 49.9990000  0 10                     
G18  20377752.065   107085779.637  
G09  20472112.368   107581656.197  
G12  20497239.345   107713716.939  
G05  20129720.476   105782356.143  
G30  21534311.594   113163526.797  
G14  22685273.389   119211919.695  
G15  23568126.276   123851308.820  
S37  36900616.574   193914022.386  
G22  20834357.368   109485274.878  
G26  25148480.540   132156158.671  
> 2008 05 26 05 59 50.9990000  0 10                     
G18  20377935.550   107086744.551  
G09  20472403.241   107583184.529  
G12  20496974.041   107712325.367  
G05  20129245.935   105779862.368  
G30  21533594.478   113159757.083  
G14  22684678.747   119208792.963  
G15  23568516.293   123853358.470  
S37  36900510.420   193913464.342  
G22  20834030.848   109483558.193  
G26  25148929.387   132158518.472  
> 2008 05 26 05 59 51.9990000  0 10                     
G18  20378119.139   107087709.338  
G09  20472694.075   107584712.415  
G12  20496709.775   107710933.706  
G05  20128771.367   105777368.450  
G30  21532877.265   113155986.996  
G14  22684083.764   119205665.560  
G15  23568905.563   123855407.557  
S37  36900404.178   193912905.599  
G22  20833704.438   109481841.369  
G26  25149378.119   132160877.617  
> 2008 05 26 05 59 52.9990000  0 10                     
G18  20378303.117   107088674.770  
G09  20472984.961   107586240.604  
G12  20496445.290   107709542.723  
G05  20128296.904   105774875.132  
G30  21532159.860   113152217.305  
G14  22683488.855   119202538.228  
G15  23569295.645   123857456.881  
S37  36900297.680   193912346.591  
G22  20833378.048   109480125.158  
G26  25149827.073   132163236.851  
> 2008 05 26 05 59 53.9990000  0 10                     
G18  20378486.745   107089641.133  
G09  20473275.808   107587769.410  
G12  20496180.413   107708152.703  
G05  20127822.768   105772382.723  
G30  21531442.612   113148448.302  
G14  22682894.204   119199411.254  
G15  23569685.632   123859506.718  
S37  36900191.486   193911788.041  
G22  20833051.436   109478409.850  
G26  25150276.028   132165596.448  
> 2008 05 26 05 59 54.9990000  0 10                     
G18  20378670.465   107090607.540  
G09  20473566.668   107589297.935  
G12  20495916.016   107706762.766  
G05  20127348.175   105769890.347  
G30  21530725.295   113144679.096  
G14  22682299.069   119196283.752  
G15  23570075.919   123861556.158  
S37  36900085.057   193911228.780  
G22  20832725.069   109476694.569  
G26  25150724.926   132167955.582  
> 2008 05 26 05 59 55.9990000  0 10                     
G18  20378854.648   107091575.048  
G09  20473857.498   107590827.236  
G12  20495651.549   107705373.981  
G05  20126874.261   105767399.045  
G30  21530007.825   113140910.749  
G14  22681704.562   119193156.816  
G15  23570466.184   123863606.270  
S37  36899978.551   193910669.932  
G22  20832398.938   109474980.368  
G26  25151173.859   132170315.262  
> 2008 05 26 05 59 56.9990000  0 10                     
G18  20379038.512   107092542.590  
G09  20474148.428   107592356.257  
G12  20495387.248   107703985.256  
G05  20126400.252   105764907.755  
G30  21529290.974   113137142.187  
G14  22681109.580   119190029.325  
G15  23570856.472   123865655.990  
S37  36899872.187   193910110.621  
G22  20832072.754   109473266.172  
G26  25151623.259   132172674.441  
> 2008 05 26 05 59 57.9990000  0 10                     
G18  20379222.978   107093510.561  
G09  20474439.476   107593885.388  
G12  20495123.151   107702597.016  
G05  20125926.217   105762416.882  
G30  21528573.783   113133373.824  
G14  22680514.422   119186901.718  
G15  23571246.235   123867705.755  
S37  36899765.619   193909551.289  
G22  20831746.736   109471552.401  
G26  25152072.026   132175033.526  
> 2008 05 26 05 59 58.9990000  0 10                     
G18  20379407.435   107094479.590  
G09  20474730.916   107595415.245  
G12  20494859.085   107701209.872  
G05  20125452.561   105759927.035  
G30  21527856.661   113129606.264  
G14  22679919.020   119183774.606  
G15  23571636.181   123869756.137  
S37  36899659.171   193908992.231  
G22  20831420.533   109469839.654  
G26  25152521.447   132177393.123  
> 2008 05 26 05 59 59.9990000  0 10                     
G18  20379591.796   107095448.349  
G09  20475021.929   107596944.497  
G12  20494594.989   107699822.486  
G05  20124978.661   105757436.890  
G30  21527139.693   113125838.182  
G14  22679323.633   119180646.646  
G15  23572025.828   123871805.830  
S37  36899552.543   193908432.117  
G22  20831094.821   109468126.610  
G26  25152969.961   132179751.899  
> 2008 05 26 06 00 00.9990000  0 10                     
G18  20379776.358   107096417.852  
G09  20475312.750   107598474.174  
G12  20494330.645   107698435.876  
G05  20124504.796   105754947.466  
G30  21526422.808   113122070.600  
G14  22678728.314   119177518.830  
G15  23572415.731   123873855.827  
S37  36899446.053   193907872.239  
G22  20830769.265   109466414.282  
G26  25153418.716   132182110.868  
> 2008 05 26 06 00 01.9990000  0 10                     
G18  20379960.660   107097387.073  
G09  20475603.467   107600003.255  
G12  20494066.702   107697049.046  
G05  20124031.062   105752457.746  
G30  21525705.844   113118302.507  
G14  22678132.381   119174390.192  
G15  23572805.631   123875905.145  
S37  36899339.319   193907311.518  
G22  20830442.807   109464701.662  
G26  25153867.061   132184469.039  
> 2008 05 26 06 00 02.9990000  0 10                     
G18  20380144.990   107098356.994  
G09  20475894.392   107601532.700  
G12  20493802.811   107695662.938  
G05  20123557.633   105749968.708  
G30  21524988.823   113114534.865  
G14  22677536.818   119171261.709  
G15  23573195.573   123877954.745  
S37  36899232.672   193906750.907  
G22  20830117.356   109462989.714  
G26  25154316.718   132186827.325  
> 2008 05 26 06 00 03.9990000  0 10                     
G18  20380329.447   107099326.916  
G09  20476185.710   107603061.836  
G12  20493539.373   107694276.885  
G05  20123083.907   105747479.626  
G30  21524271.497   113110766.980  
G14  22676941.430   119168132.637  
G15  23573586.244   123880003.898  
S37  36899125.720   193906189.702  
G22  20829791.691   109461277.760  
G26  25154764.660   132189185.077  
> 2008 05 26 06 00 04.9990000  0 10                     
G18  20380514.267   107100297.294  
G09  20476476.789   107604591.093  
G12  20493275.971   107692891.327  
G05  20122610.566   105744990.990  
G30  21523555.078   113106999.311  
G14  22676346.168   119165003.460  
G15  23573976.640   123882053.123  
S37  36899018.912   193905628.320  
G22  20829465.769   109459566.225  
G26  25155213.616   132191542.768  
> 2008 05 26 06 00 05.9990000  0 10                     
G18  20380698.947   107101267.684  
G09  20476767.767   107606120.042  
G12  20493012.355   107691505.819  
G05  20122136.893   105742502.360  
G30  21522838.001   113103231.421  
G14  22675750.666   119161873.748  
G15  23574366.683   123884101.930  
S37  36898911.803   193905066.305  
G22  20829140.038   109457854.685  
G26  25155662.366   132193899.914  
> 2008 05 26 06 00 06.9990000  0 10                     
G18  20380883.274   107102238.029  
G09  20477058.667   107607648.622  
G12  20492748.590   107690120.311  
G05  20121663.132   105740013.642  
G30  21522120.492   113099463.234  
G14  22675155.349   119158743.414  
G15  23574756.779   123886150.263  
S37  36898804.606   193904503.606  
G22  20828814.274   109456143.072  
G26  25156110.248   132196256.454  
> 2008 05 26 06 00 07.9990000  0 10                     
G18  20381068.085   107103208.787  
G09  20477349.601   107609177.296  
G12  20492484.856   107688735.244  
G05  20121189.957   105737525.325  
G30  21521403.506   113095695.212  
G14  22674559.703   119155612.932  
G15  23575146.922   123888198.612  
S37  36898697.723   193903941.007  
G22  20828488.531   109454431.868  
G26  25156558.382   132198612.889  
> 2008 05 26 06 00 08.9990000  0 10                     
G18  20381253.365   107104181.231  
G09  20477640.792   107610707.330  
G12  20492221.641   107687351.912  
G05  20120716.854   105735038.673  
G30  21520686.886   113091928.628  
G14  22673964.143   119152483.573  
G15  23575537.544   123890248.211  
S37  36898591.062   193903379.416  
G22  20828163.502   109452722.311  
G26  25157006.708   132200970.443  
> 2008 05 26 06 00 09.9990000  0 10                     
G18  20381438.429   107105154.089  
G09  20477932.154   107612237.441  
G12  20491958.273   107685969.031  
G05  20120243.491   105732552.417  
G30  21519970.074   113088162.231  
G14  22673368.564   119149354.059  
G15  23575927.762   123892297.811  
S37  36898484.015   193902817.511  
G22  20827838.125   109451013.161  
G26  25157454.987   132203327.903  
> 2008 05 26 06 00 10.9990000  0 10                     
G18  20381623.581   107106126.577  
G09  20478223.019   107613766.853  
G12  20491695.006   107684585.810  
G05  20119770.071   105730065.747  
G30  21519253.665   113084395.189  
G14  22672772.717   119146223.610  
G15  23576317.714   123894346.584  
S37  36898376.924   193902254.587  
G22  20827513.102   109449303.592  
G26  25157902.917   132205684.426  
> 2008 05 26 06 00 11.9990000  0 10                     
G18  20381809.006   107107099.687  
G09  20478514.245   107615296.573  
G12  20491431.874   107683203.260  
G05  20119297.065   105727579.701  
G30  21518536.871   113080628.550  
G14  22672177.084   119143093.221  
G15  23576707.198   123896395.584  
S37  36898269.913   193901691.795  
G22  20827188.183   109447594.646  
G26  25158350.733   132208041.065  
> 2008 05 26 06 00 12.9990000  0 10                     
G18  20381993.948   107108072.870  
G09  20478805.123   107616826.040  
G12  20491169.174   107681820.820  
G05  20118823.793   105725093.692  
G30  21517819.929   113076861.734  
G14  22671581.535   119139962.336  
G15  23577096.652   123898444.219  
S37  36898162.665   193901128.364  
G22  20826862.636   109445885.744  
G26  25158798.563   132210397.242  
> 2008 05 26 06 00 13.9990000  0 10                     
G18  20382179.348   107109046.740  
G09  20479096.201   107618355.860  
G12  20490905.972   107680439.102  
G05  20118350.761   105722608.340  
G30  21517103.121   113073095.354  
G14  22670985.514   119136831.584  
G15  23577486.036   123900493.125  
S37  36898055.538   193900564.983  
G22  20826537.695   109444177.503  
G26  25159246.631   132212753.528  
> 2008 05 26 06 00 14.9990000  0 10                     
G18  20382364.582   107110021.195  
G09  20479387.381   107619885.943  
G12  20490643.247   107679058.017  
G05  20117878.087   105720123.565  
G30  21516386.930   113069329.320  
G14  22670390.340   119133700.842  
G15  23577875.469   123902542.185  
S37  36897948.281   193900001.602  
G22  20826212.668   109442469.835  
G26  25159694.720   132215109.881  
> 2008 05 26 06 00 15.9990000  0 10                     
G18  20382550.339   107110995.754  
G09  20479678.188   107621415.823  
G12  20490380.306   107677677.092  
G05  20117405.308   105717638.890  
G30  21515669.979   113065563.165  
G14  22669794.489   119130569.649  
G15  23578264.390   123904590.958  
S37  36897840.975   193899437.928  
G22  20825887.508   109440762.261  
G26  25160142.862   132217465.793  
> 2008 05 26 06 00 16.9990000  0 10                     
G18  20382736.062   107111970.551  
G09  20479969.642   107622945.615  
G12  20490117.667   107676296.432  
G05  20116932.351   105715154.424  
G30  21514952.884   113061797.011  
G14  22669198.795   119127438.136  
G15  23578653.800   123906639.555  
S37  36897733.748   193898873.891  
G22  20825562.633   109439054.901  
G26  25160591.315   132219821.397  
> 2008 05 26 06 00 17.9990000  0 10                     
G18  20382921.522   107112945.831  
G09  20480260.410   107624475.572  
G12  20489854.675   107674916.311  
G05  20116459.881   105712670.427  
G30  21514236.094   113058031.093  
G14  22668602.570   119124306.541  
G15  23579043.529   123908688.213  
S37  36897626.093   193898309.441  
G22  20825237.915   109437348.010  
G26  25161039.935   132222176.962  
> 2008 05 26 06 00 18.9990000  0 10                     
G18  20383107.524   107113922.462  
G09  20480551.689   107626006.543  
G12  20489592.515   107673537.584  
G05  20115987.246   105710187.762  
G30  21513519.574   113054266.299  
G14  22668006.875   119121175.728  
G15  23579433.113   123910737.796  
S37  36897518.668   193897745.504  
G22  20824913.066   109435642.452  
G26  25161489.194   132224533.342  
> 2008 05 26 06 00 19.9990000  0 10                     
G18  20383293.569   107114899.792  
G09  20480843.116   107627537.910  
G12  20489330.290   107672159.606  
G05  20115514.589   105707705.775  
G30  21512803.357   113050501.957  
G14  22667410.462   119118045.047  
G15  23579823.366   123912787.660  
S37  36897411.438   193897181.781  
G22  20824588.321   109433937.565  
G26  25161937.887   132226889.860  
> 2008 05 26 06 00 20.9990000  0 10                     
G18  20383479.222   107115877.128  
G09  20481134.504   107629068.941  
G12  20489068.463   107670781.672  
G05  20115042.316   105705223.772  
G30  21512086.663   113046737.383  
G14  22666814.467   119114913.815  
G15  23580213.666   123914837.106  
S37  36897304.236   193896617.739  
G22  20824263.856   109432232.674  
G26  25162386.550   132229245.871  
> 2008 05 26 06 00 21.9990000  0 10                     
G18  20383665.402   107116854.964  
G09  20481425.691   107630600.160  
G12  20488806.325   107669404.289  
G05  20114570.096   105702742.258  
G30  21511370.296   113042973.063  
G14  22666218.656   119111782.528  
G15  23580603.648   123916886.639  
S37  36897196.808   193896053.867  
G22  20823939.583   109430528.267  
G26  25162835.265   132231601.810  
> 2008 05 26 06 00 22.9990000  0 10                     
G18  20383851.287   107117832.361  
G09  20481716.679   107632130.618  
G12  20488544.149   107668026.493  
G05  20114097.614   105700260.271  
G30  21510653.874   113039208.065  
G14  22665623.111   119108650.233  
G15  23580993.718   123918935.286  
S37  36897089.329   193895489.064  
G22  20823615.262   109428823.397  
G26  25163283.265   132233956.792  
> 2008 05 26 06 00 23.9990000  0 10                     
G18  20384037.506   107118810.120  
G09  20482007.966   107633661.098  
G12  20488281.868   107666649.110  
G05  20113625.358   105697778.626  
G30  21509937.376   113035443.177  
G14  22665027.317   119105517.729  
G15  23581384.214   123920983.883  
S37  36896981.745   193894923.700  
G22  20823290.814   109427118.852  
G26  25163731.120   132236311.607  
> 2008 05 26 06 00 24.9990000  0 10                     
G18  20384223.730   107119788.827  
G09  20482299.450   107635192.201  
G12  20488019.660   107665272.696  
G05  20113153.103   105695297.900  
G30  21509220.861   113031679.000  
G14  22664431.513   119102385.605  
G15  23581774.605   123923033.014  
S37  36896874.163   193894358.204  
G22  20822966.637   109425415.233  
G26  25164178.705   132238666.803  
> 2008 05 26 06 00 25.9990000  0 10                     
G18  20384410.339   107120768.543  
G09  20482591.170   107636723.981  
G12  20487757.938   107663897.346  
G05  20112681.140   105692818.177  
G30  21508505.019   113027915.605  
G14  22663835.672   119099253.943  
G15  23582165.338   123925082.735  
S37  36896766.740   193893792.999  
G22  20822642.739   109423712.621  
G26  25164626.910   132241022.456  
> 2008 05 26 06 00 26.9990000  0 10                     
G18  20384597.113   107121748.258  
G09  20482882.702   107638255.448  
G12  20487496.145   107662522.034  
G05  20112209.160   105690338.421  
G30  21507788.788   113024151.946  
G14  22663239.852   119096121.714  
G15  23582555.499   123927132.032  
S37  36896658.911   193893227.265  
G22  20822318.571   109422009.977  
G26  25165074.831   132243377.542  
> 2008 05 26 06 00 27.9990000  0 10                     
G18  20384783.607   107122728.926  
G09  20483174.447   107639787.542  
G12  20487234.810   107661147.714  
G05  20111737.130   105687859.607  
G30  21507072.639   113020389.013  
G14  22662644.096   119092989.871  
G15  23582945.389   123929181.852  
S37  36896551.539   193892661.785  
G22  20821994.816   109420308.253  
G26  25165522.730   132245733.074  
> 2008 05 26 06 00 28.9990000  0 10                     
G18  20384970.695   107123710.696  
G09  20483466.520   107641320.402  
G12  20486973.859   107659774.534  
G05  20111265.782   105685381.872  
G30  21506356.879   113016626.935  
G14  22662048.555   119089858.562  
G15  23583335.942   123931232.355  
S37  36896444.085   193892096.785  
G22  20821671.411   109418607.619  
G26  25165971.326   132248089.157  
> 2008 05 26 06 00 29.9990000  0 10                     
G18  20385157.883   107124693.551  
G09  20483758.257   107642854.011  
G12  20486712.934   107658402.461  
G05  20110794.273   105682905.184  
G30  21505641.323   113012865.688  
G14  22661452.888   119086727.760  
G15  23583726.072   123933283.524  
S37  36896336.504   193891532.373  
G22  20821347.892   109416908.048  
G26  25166419.727   132250445.774  
> 2008 05 26 06 00 30.9990000  0 10                     
G18  20385345.119   107125676.968  
G09  20484050.199   107644387.879  
G12  20486451.534   107657031.021  
G05  20110323.147   105680429.058  
G30  21504925.302   113009104.783  
G14  22660856.631   119083596.974  
G15  23584115.809   123935334.837  
S37  36896229.085   193890968.149  
G22  20821024.400   109415209.034  
G26  25166868.110   132252802.419  
> 2008 05 26 06 00 31.9990000  0 10                     
G18  20385532.151   107126660.032  
G09  20484341.509   107645921.075  
G12  20486190.671   107655659.257  
G05  20109852.053   105677952.563  
G30  21504209.398   113005343.305  
G14  22660261.051   119080465.285  
G15  23584505.935   123937385.390  
S37  36896121.644   193890403.407  
G22  20820701.117   109413509.650  
G26  25167317.432   132255158.204  
> 2008 05 26 06 00 32.9990000  0 10                     
G18  20385719.112   107127643.306  
G09  20484633.639   107647454.139  
G12  20485929.707   107654287.762  
G05  20109380.945   105675476.250  
G30  21503493.686   113001581.772  
G14  22659665.297   119077333.227  
G15  23584896.297   123939435.733  
S37  36896014.143   193889838.362  
G22  20820377.900   109411810.449  
G26  25167766.618   132257513.637  
> 2008 05 26 06 00 33.9990000  0 10                     
G18  20385906.087   107128626.948  
G09  20484925.284   107648987.236  
G12  20485669.197   107652916.648  
G05  20108909.841   105673000.289  
G30  21502777.887   112997820.360  
G14  22659069.546   119074200.982  
G15  23585287.007   123941486.016  
S37  36895906.566   193889272.965  
G22  20820054.316   109410111.583  
G26  25168215.185   132259868.899  
> 2008 05 26 06 00 34.9990000  0 10                     
G18  20386093.184   107129610.194  
G09  20485216.816   107650519.661  
G12  20485407.911   107651545.214  
G05  20108438.563   105670523.915  
G30  21502062.267   112994058.342  
G14  22658472.976   119071067.789  
G15  23585676.990   123943535.483  
S37  36895798.812   193888706.637  
G22  20819730.868   109408412.338  
G26  25168664.206   132262223.241  
> 2008 05 26 06 00 35.9990000  0 10                     
G18  20386280.468   107130594.090  
G09  20485508.074   107652052.389  
G12  20485147.121   107650174.474  
G05  20107967.394   105668048.169  
G30  21501346.428   112990296.727  
G14  22657876.467   119067934.663  
G15  23586066.784   123945585.187  
S37  36895691.166   193888140.385  
G22  20819407.977   109406713.703  
G26  25169113.248   132264577.666  
> 2008 05 26 06 00 36.9990000  0 10                     
G18  20386467.988   107131578.984  
G09  20485799.846   107653585.761  
G12  20484886.847   107648804.759  
G05  20107496.543   105665573.414  
G30  21500630.834   112986535.871  
G14  22657280.577   119064801.965  
G15  23586456.289   123947635.476  
S37  36895583.302   193887574.074  
G22  20819085.236   109405016.044  
G26  25169561.574   132266932.520  
> 2008 05 26 06 00 37.9990000  0 10                     
G18  20386655.468   107132563.271  
G09  20486091.426   107655118.219  
G12  20484625.936   107647434.471  
G05  20107025.536   105663098.015  
G30  21499915.131   112982774.162  
G14  22656684.590   119061668.117  
G15  23586846.402   123949684.690  
S37  36895475.185   193887006.346  
G22  20818761.914   109403317.757  
G26  25170009.447   132269286.262  
> 2008 05 26 06 00 38.9990000  0 10                     
G18  20386842.710   107133547.211  
G09  20486382.780   107656649.999  
G12  20484365.191   107646063.885  
G05  20106554.350   105660622.258  
G30  21499199.049   112979011.874  
G14  22656088.073   119058533.343  
G15  23587236.001   123951733.188  
S37  36895367.082   193886437.649  
G22  20818438.880   109401619.106  
G26  25170456.344   132271639.216  
> 2008 05 26 06 00 39.9990000  0 10                     
G18  20387030.042   107134531.542  
G09  20486674.167   107658181.813  
G12  20484104.697   107644693.707  
G05  20106083.289   105658146.848  
G30  21498483.449   112975249.707  
G14  22655491.637   119055398.393  
G15  23587625.830   123953781.614  
S37  36895258.807   193885868.699  
G22  20818115.549   109399920.808  
G26  25170903.173   132273991.861  
> 2008 05 26 06 00 40.9990000  0 10                     
G18  20387217.710   107135516.160  
G09  20486965.411   107659713.626  
G12  20483843.978   107643323.893  
G05  20105612.089   105655671.730  
G30  21497767.594   112971487.624  
G14  22654894.857   119052263.168  
G15  23588015.776   123955829.930  
S37  36895150.524   193885299.187  
G22  20817792.597   109398222.802  
G26  25171350.191   132276344.242  
> 2008 05 26 06 00 41.9990000  0 10                     
G18  20387405.130   107136501.653  
G09  20487256.904   107661245.996  
G12  20483583.115   107641955.004  
G05  20105141.348   105653197.483  
G30  21497051.768   112967726.179  
G14  22654298.767   119049128.279  
G15  23588405.798   123957878.720  
S37  36895042.137   193884730.032  
G22  20817469.633   109396525.666  
G26  25171797.352   132278697.125  
> 2008 05 26 06 00 42.9990000  0 10                     
G18  20387592.793   107137488.249  
G09  20487548.545   107662779.120  
G12  20483323.176   107640587.233  
G05  20104670.802   105650724.309  
G30  21496335.846   112963965.587  
G14  22653702.510   119045993.940  
G15  23588795.976   123959928.149  
S37  36894934.079   193884161.710  
G22  20817146.825   109394829.587  
G26  25172244.267                3 
> 2008 05 26 06 00 43.9990000  0 10                     
G18  20387780.405   107138475.103  
G09  20487840.125   107664312.184  
G12  20483062.997   107639219.787  
G05  20104200.336   105648251.378  
G30  21495620.335   112960205.018  
G14  22653106.594   119042859.277  
G15  23589186.232   123961977.435  
S37  36894825.893   193883593.112  
G22  20816823.992   109393133.768  
G26  25172691.795   132283387.9573 
> 2008 05 26 06 00 44.9990000  0 10                     
G18  20387968.256   107139462.221  
G09  20488132.198   107665845.198  
G12  20482802.640   107637852.650  
G05  20103729.559   105645778.706  
G30  21494904.771   112956444.482  
G14  22652509.871   119039724.305  
G15  23589576.062   123964026.621  
S37  36894717.711   193883024.454  
G22  20816501.219   109391438.202  
G26  25173138.949   132285740.8012 
> 2008 05 26 06 00 45.9990000  0 10                     
G18  20388156.299   107140449.924  
G09  20488424.310   107667378.482  
G12  20482542.836   107636486.129  
G05  20103259.097   105643306.584  
G30  21494189.399   112952684.282  
G14  22651912.934   119036589.377  
G15  23589966.541   123966075.901  
S37  36894609.431   193882455.812  
G22  20816178.992   109389743.181  
G26  25173586.838   132288093.6222 
> 2008 05 26 06 00 46.9990000  0 10                     
G18  20388344.361   107141437.742  
G09  20488716.087   107668911.524  
G12  20482282.623   107635119.769  
G05  20102788.691   105640834.562  
G30  21493473.614   112948923.978  
G14  22651316.691   119033454.008  
G15  23590356.051   123968124.900  
S37  36894501.066   193881886.492  
G22  20815856.517   109388048.249  
G26  25174035.165   132290446.0592 
> 2008 05 26 06 00 47.9990000  0 10                     
G18  20388532.330   107142426.452  
G09  20489007.867   107670445.144  
G12  20482022.492   107633754.350  
G05  20102318.159   105638363.415  
G30  21492758.320   112945164.323  
G14  22650720.190   119030318.959  
G15  23590746.330   123970174.406  
S37  36894392.766   193881317.338  
G22  20815534.119   109386354.203  
G26  25174484.111   132292798.8362 
> 2008 05 26 06 00 48.9990000  0 10                     
G18  20388720.447   107143415.080  
G09  20489299.835   107671978.357  
G12  20481763.081   107632388.893  
G05  20101847.963   105635892.175  
G30  21492042.791   112941404.349  
G14  22650123.933   119027183.271  
G15  23591136.443   123972223.422  
S37  36894284.295   193880747.270  
G22  20815211.761   109384660.058  
G26  25174932.935   132295150.9812 
> 2008 05 26 06 00 49.9990000  0 10                     
G18  20388908.199   107144404.220  
G09  20489592.214   107673511.762  
G12  20481503.435   107631023.992  
G05  20101377.911   105633421.431  
G30  21491326.892   112937644.655  
G14  22649527.664   119024047.539  
G15  23591526.739   123974272.515  
S37  36894175.665   193880176.915  
G22  20814889.626   109382966.414  
G26  25175380.979   132297503.1472 
> 2008 05 26 06 00 50.9990000  0 10                     
G18  20389096.577   107145393.850  
G09  20489884.278   107675045.333  
G12  20481243.985   107629659.636  
G05  20100908.150   105630951.160  
G30  21490611.507   112933885.210  
G14  22648931.110   119020911.735  
G15  23591916.694   123976321.696  
S37  36894067.014   193879606.301  
G22  20814567.250   109381273.250  
G26  25175829.012   132299855.2532 
> 2008 05 26 06 00 51.9990000  0 10                     
G18  20389284.817   107146383.960  
G09  20490175.505   107676579.036  
G12  20480984.701   107628295.776  
G05  20100437.959   105628481.341  
G30  21489895.865   112930125.990  
G14  22648334.641   119017775.832  
G15  23592306.550   123978370.916  
S37  36893958.483   193879035.885  
G22  20814245.141   109379580.526  
G26  25176277.291   132302207.2702 
> 2008 05 26 06 00 52.9990000  0 10                     
G18  20389473.559   107147374.196  
G09  20490467.233   107678112.562  
G12  20480725.268   107626932.109  
G05  20099968.076   105626011.627  
G30  21489180.454   112926366.683  
G14  22647737.926   119014639.505  
G15  23592696.470   123980419.871  
S37  36893849.811   193878465.607  
G22  20813923.136   109377887.929  
G26  25176726.281   132304558.8532 
> 2008 05 26 06 00 53.9990000  0 10                     
G18  20389662.247   107148365.606  
G09  20490759.380   107679646.920  
G12  20480466.158   107625569.643  
G05  20099498.272   105623543.075  
G30  21488465.335   112922608.295  
G14  22647141.111   119011503.789  
G15  23593086.352   123982469.553  
S37  36893741.402   193877896.018  
G22  20813601.096   109376196.473  
G26  25177174.053   132306911.0792 
> 2008 05 26 06 00 54.9990000  0 10                     
G18  20389850.640   107149357.285  
G09  20491050.938   107681181.246  
G12  20480206.713   107624207.502  
G05  20099028.735   105621074.782  
G30  21487750.242   112918849.968  
G14  22646544.275   119008367.787  
G15  23593476.185   123984519.076  
S37  36893632.989   193877325.872  
G22  20813279.310   109374505.297  
G26  25177620.875   132309263.575  
> 2008 05 26 06 00 55.9990000  0 10                     
G18  20390039.486   107150349.108  
G09  20491342.841   107682715.367  
G12  20479947.498   107622845.537  
G05  20098559.193   105618606.621  
G30  21487035.425   112915091.530  
G14  22645947.385   119005231.361  
G15  23593866.193   123986568.345  
S37  36893524.365   193876755.071  
G22  20812957.488   109372814.226  
G26  25178068.212   132311615.146  
> 2008 05 26 06 00 56.9990000  0 10                     
G18  20390228.106   107151341.460  
G09  20491635.032   107684249.703  
G12  20479688.489   107621484.139  
G05  20098089.800   105616138.961  
G30  21486319.853   112911333.391  
G14  22645350.492   119002094.907  
G15  23594256.001   123988617.713  
S37  36893415.716   193876184.061  
G22  20812635.986   109371123.667  
G26  25178515.077   132313966.718  
> 2008 05 26 06 00 57.9990000  0 10                     
G18  20390417.026   107152333.271  
G09  20491926.534   107685783.164  
G12  20479429.485   107620122.257  
G05  20097619.857   105613670.762  
G30  21485604.787   112907574.463  
G14  22644753.390   118998957.346  
G15  23594645.219   123990666.112  
S37  36893306.727   193875611.943  
G22  20812314.047   109369432.563  
G26  25178962.135   132316317.199  
> 2008 05 26 06 00 58.9990000  0 10                     
G18  20390605.611   107153324.642  
G09  20492218.123   107687315.875  
G12  20479170.144   107618759.978  
G05  20097150.245   105611202.072  
G30  21484889.450   112903814.869  
G14  22644156.030   118995818.777  
G15  23595035.158   123992713.662  
S37  36893197.784   193875039.170  
G22  20811992.295   109367740.996  
G26  25179408.900   132318666.704  
> 2008 05 26 06 00 59.9990000  0 10                     
G18  20390794.404   107154316.592  
G09  20492509.598   107688848.823  
G12  20478910.937   107617398.327  
G05  20096680.489   105608733.977  
G30  21484174.291   112900055.616  
G14  22643558.512   118992680.241  
G15  23595424.406   123994761.367  
S37  36893088.852   193874466.479  
G22  20811670.434   109366050.002  
G26  25179856.087   132321016.276  
> 2008 05 26 06 01 00.9990000  0 10                     
G18  20390983.503   107155310.541  
G09  20492801.645   107690383.462  
G12  20478652.491   107616038.709  
G05  20096211.554   105606267.849  
G30  21483459.151   112896298.137  
G14  22642960.991   118989543.132  
G15  23595813.960   123996810.664  
S37  36892979.958   193873894.808  
G22  20811348.547   109364360.974  
G26  25180303.074   132323367.225  
> 2008 05 26 06 01 01.9990000  0 10                     
G18  20391172.842   107156304.490  
G09  20493093.975   107691917.782  
G12  20478393.909   107614679.157  
G05  20095742.191   105603801.715  
G30  21482744.037   112892540.422  
G14  22642364.294   118986405.472  
G15  23596203.633   123998859.514  
S37  36892871.043   193873322.277  
G22  20811027.306   109362671.947  
G26  25180749.486   132325717.739  
> 2008 05 26 06 01 02.9990000  0 10                     
G18  20391361.945   107157299.033  
G09  20493385.564   107693452.355  
G12  20478135.157   107613320.232  
G05  20095272.954   105601336.176  
G30  21482028.857   112888783.080  
G14  22641767.160   118983267.850  
G15  23596593.750   124000908.563  
S37  36892761.978   193872749.559  
G22  20810705.838   109360983.503  
G26  25181195.971   132328068.236  
> 2008 05 26 06 01 03.9990000  0 10                     
G18  20391551.175   107158293.781  
G09  20493677.706   107694986.829  
G12  20477876.780   107611961.573  
G05  20094803.587   105598870.819  
G30  21481313.685   112885025.695  
G14  22641169.983   118980129.881  
G15  23596983.378   124002957.386  
S37  36892652.919   193872176.466  
G22  20810384.688   109359295.252  
G26  25181642.951   132330418.430  
> 2008 05 26 06 01 04.9990000  0 10                     
G18  20391740.502   107159289.019  
G09  20493969.671   107696521.441  
G12  20477618.360   107610603.436  
G05  20094334.242   105596405.930  
G30  21480598.846   112881268.574  
G14  22640572.785   118976991.808  
G15  23597373.216   124005006.280  
S37  36892543.843   193871603.247  
G22  20810063.736   109357607.453  
G26  25182090.396   132332768.547  
> 2008 05 26 06 01 05.9990000  0 10                     
G18  20391930.063   107160285.127  
G09  20494261.804   107698056.620  
G12  20477360.441   107609246.225  
G05  20093865.288   105593941.906  
G30  21479883.971   112877512.093  
G14  22639975.498   118973854.082  
G15  23597763.495   124007055.621  
S37  36892434.826   193871030.430  
G22  20809742.777   109355920.524  
G26  25182538.173   132335119.056  
> 2008 05 26 06 01 06.9990000  0 10                     
G18  20392119.598   107161281.897  
G09  20494553.803   107699592.118  
G12  20477102.199   107607889.708  
G05  20093396.763   105591478.516  
G30  21479169.477   112873756.035  
G14  22639378.308   118970716.449  
G15  23598153.646   124009105.204  
S37  36892326.046   193870457.970  
G22  20809421.623   109354234.240  
G26  25182985.649   132337469.619  
> 2008 05 26 06 01 07.9990000  0 10                     
G18  20392309.531   107162278.291  
G09  20494846.108   107701126.939  
G12  20476843.923   107606532.871  
G05  20092928.142   105589014.756  
G30  21478454.589   112869999.377  
G14  22638781.280   118967577.886  
G15  23598543.611   124011154.000  
S37  36892217.049   193869884.685  
G22  20809100.819   109352547.564  
G26  25183432.858   132339819.312  
> 2008 05 26 06 01 08.9990000  0 10                     
G18  20392498.870   107163275.017  
G09  20495138.233   107702661.733  
G12  20476585.873   107605176.393  
G05  20092459.450   105586551.294  
G30  21477739.780   112866242.790  
G14  22638183.710   118964439.052  
G15  23598933.824   124013202.696  
S37  36892107.884   193869311.102  
G22  20808780.166   109350861.203  
G26  25183880.370   132342168.785  
> 2008 05 26 06 01 09.9990000  0 10                     
G18  20392688.960   107164272.023  
G09  20495430.555   107704196.493  
G12  20476327.833   107603820.255  
G05  20091990.947   105584088.101  
G30  21477025.211   112862486.264  
G14  22637586.651   118961299.988  
G15  23599323.797   124015251.271  
S37  36891998.545   193868736.825  
G22  20808459.187   109349175.106  
G26  25184327.924   132344518.004  
> 2008 05 26 06 01 10.9990000  0 10                     
G18  20392878.813   107165269.954  
G09  20495722.497   107705731.849  
G12  20476069.809   107602465.066  
G05  20091522.447   105581625.813  
G30  21476310.376   112858730.427  
G14  22636989.313   118958161.264  
G15  23599714.189   124017300.353  
S37  36891889.498   193868162.746  
G22  20808138.591   109347489.912  
G26  25184775.709   132346867.598  
> 2008 05 26 06 01 11.9990000  0 10                     
G18  20393069.121   107166268.139  
G09  20496014.644   107707267.121  
G12  20475812.095   107601110.190  
G05  20091053.621   105579163.760  
G30  21475595.768   112854974.595  
G14  22636391.778   118955022.238  
G15  23600104.511   124019349.247  
S37  36891780.208   193867588.337  
G22  20807818.070   109345804.944  
G26  25185222.684   132349216.911  
> 2008 05 26 06 01 12.9990000  0 10                     
G18  20393259.035   107167267.167  
G09  20496307.126   107708802.939  
G12  20475554.495   107599756.196  
G05  20090585.174   105576702.562  
G30  21474881.085   112851219.386  
G14  22635794.065   118951883.493  
G15  23600494.720   124021398.599  
S37  36891670.857   193867013.966  
G22  20807497.566   109344120.819  
G26  25185670.413   132351566.543  
> 2008 05 26 06 01 13.9990000  0 10                     
G18  20393449.099   107168266.448  
G09  20496599.627   107710338.669  
G12  20475296.637   107598402.505  
G05  20090116.880   105574241.579  
G30  21474166.407   112847464.204  
G14  22635196.800   118948744.445  
G15  23600884.261   124023447.769  
S37  36891561.522   193866439.353  
G22  20807177.468   109342436.925  
G26  25186117.937   132353915.862  
> 2008 05 26 06 01 14.9990000  0 10                     
G18  20393639.454   107169266.357  
G09  20496892.184   107711874.702  
G12  20475039.399   107597049.497  
G05  20089648.834   105571781.212  
G30  21473451.991   112843709.418  
G14  22634598.733   118945605.485  
G15  23601274.133   124025497.143  
S37  36891452.297   193865865.297  
G22  20806856.933   109340753.660  
G26  25186564.658   132356265.257  
> 2008 05 26 06 01 15.9990000  0 10                     
G18  20393829.409   107170266.024  
G09  20497184.432   107713410.173  
G12  20474781.533   107595696.279  
G05  20089180.589   105569320.587  
G30  21472737.440   112839954.154  
G14  22634001.130   118942465.704  
G15  23601663.819   124027545.867  
S37  36891342.968   193865290.612  
G22  20806536.342   109339070.135  
G26  25187010.769   132358613.887  
> 2008 05 26 06 01 16.9990000  0 10                     
G18  20394019.546   107171266.236  
G09  20497476.718   107714945.859  
G12  20474523.958   107594343.667  
G05  20088712.743   105566860.501  
G30  21472022.905   112836199.203  
G14  22633403.389   118939325.917  
G15  23602053.661   124029594.706  
S37  36891233.646   193864715.509  
G22  20806216.113   109337387.134  
G26  25187457.127   132360962.489  
> 2008 05 26 06 01 17.9990000  0 10                     
G18  20394209.958   107172266.839  
G09  20497768.613   107716481.616  
G12  20474266.454   107592991.496  
G05  20088244.864   105564400.774  
G30  21471308.306   112832444.402  
G14  22632805.672   118936185.955  
G15  23602443.573   124031643.529  
S37  36891123.994   193864139.783  
G22  20805895.888   109335704.529  
G26  25187903.225   132363310.965  
> 2008 05 26 06 01 18.9990000  0 10                     
G18  20394400.463   107173267.481  
G09  20498060.490   107718017.104  
G12  20474009.116   107591639.408  
G05  20087776.980   105561941.107  
G30  21470593.680   112828689.429  
G14  22632207.998   118933045.485  
G15  23602832.744   124033691.989  
S37  36891014.311   193863563.270  
G22  20805575.830   109334021.935  
G26  25188349.402   132365658.989  
> 2008 05 26 06 01 19.9990000  0 10                     
G18  20394590.744   107174267.996  
G09  20498352.903   107719552.129  
G12  20473751.647   107590287.237  
G05  20087308.481   105559481.275  
G30  21469879.120   112824934.093  
G14  22631610.271   118929904.333  
G15  23603222.259   124035739.908  
S37  36890904.449   193862986.272  
G22  20805255.501   109332339.209  
G26  25188795.138   132368006.302  
> 2008 05 26 06 01 20.9990000  0 10                     
G18  20394781.475   107175269.464  
G09  20498644.793   107721087.776  
G12  20473494.635   107588936.069  
G05  20086840.688   105557022.385  
G30  21469164.446   112821179.462  
G14  22631012.095   118926763.577  
G15  23603612.258   124037788.313  
S37  36890794.913   193862409.857  
G22  20804935.729   109330657.409  
G26  25189241.056   132370354.029  
> 2008 05 26 06 01 21.9990000  0 10                     
G18  20394971.848   107176270.849  
G09  20498936.953   107722623.021  
G12  20473237.449   107587584.862  
G05  20086372.747   105554563.412  
G30  21468450.130   112817424.534  
G14  22630414.359   118923622.171  
G15  23604001.860   124039836.287  
S37  36890685.251   193861833.035  
G22  20804615.831   109328975.531  
G26  25189687.366   132372701.144  
> 2008 05 26 06 01 22.9990000  0 10                     
G18  20395162.587   107177273.110  
G09  20499229.170   107724158.806  
G12  20472980.612   107586234.564  
G05  20085904.837   105552105.293  
G30  21467735.229   112813670.239  
G14  22629816.690   118920481.085  
G15  23604391.759   124041884.664  
S37  36890575.537   193861256.709  
G22  20804295.856   109327294.502  
G26  25190133.944   132375048.562  
> 2008 05 26 06 01 23.9990000  0 10                     
G18  20395353.257   107178275.470  
G09  20499521.448   107725694.376  
G12  20472723.763   107584884.425  
G05  20085437.158   105549647.267  
G30  21467020.870   112809915.811  
G14  22629218.784   118917339.525  
G15  23604781.968   124043932.721  
S37  36890465.837   193860680.031  
G22  20803976.159   109325613.555  
G26  25190580.705   132377395.627  
> 2008 05 26 06 01 24.9990000  0 10                     
G18  20395544.071   107179277.561  
G09  20499813.805   107727229.324  
G12  20472466.224   107583534.039  
G05  20084969.615   105547188.944  
G30  21466306.389   112806160.877  
G14  22628620.522   118914197.144  
G15  23605172.125   124045980.079  
S37  36890356.067   193860102.471  
G22  20803656.153   109323932.328  
G26  25191027.461   132379741.828  
> 2008 05 26 06 01 25.9990000  0 10                     
G18  20395734.605   107180279.530  
G09  20500105.306   107728763.842  
G12  20472209.003   107582183.581  
G05  20084501.673   105544730.473  
G30  21465591.715   112802405.585  
G14  22628022.424   118911054.074  
G15  23605561.631   124048026.930  
S37  36890245.787   193859523.578  
G22  20803336.486   109322250.962  
G26  25191474.396   132382087.384  
> 2008 05 26 06 01 26.9990000  0 10                     
G18  20395925.680   107181282.744  
G09  20500397.523   107730299.285  
G12  20471952.301   107580834.429  
G05  20084033.894   105542273.257  
G30  21464877.206   112798651.323  
G14  22627424.431   118907911.716  
G15  23605950.875   124050074.613  
S37  36890135.671   193858944.976  
G22  20803016.623   109320570.836  
G26  25191920.755   132384433.723  
> 2008 05 26 06 01 27.9990000  0 10                     
G18  20396116.791   107182286.250  
G09  20500689.998   107731834.690  
G12  20471695.451   107579485.607  
G05  20083566.254   105539816.306  
G30  21464162.755   112794897.116  
G14  22626826.700   118904769.081  
G15  23606340.582   124052122.163  
S37  36890025.229   193858365.990  
G22  20802696.878   109318890.986  
G26  25192367.049   132386779.686  
> 2008 05 26 06 01 28.9990000  0 10                     
G18  20396307.940   107183290.946  
G09  20500982.127   107733370.960  
G12  20471439.277   107578138.047  
G05  20083098.963   105537360.544  
G30  21463448.439   112791143.885  
G14  22626229.130   118901627.103  
G15  23606730.704   124054170.485  
S37  36889915.122   193857787.422  
G22  20802377.343   109317212.336  
G26  25192814.342   132389126.399  
> 2008 05 26 06 01 29.9990000  0 10                     
G18  20396499.085   107184295.168  
G09  20501274.340   107734906.436  
G12  20471182.541   107576790.051  
G05  20082631.525   105534904.298  
G30  21462734.110   112787389.948  
G14  22625631.168   118898484.072  
G15  23607120.389   124056217.925  
S37  36889804.645   193857207.603  
G22  20802057.860   109315533.196  
G26  25193262.019   132391472.060  
> 2008 05 26 06 01 30.9990000  0 10                     
G18  20396690.195   107185300.426  
G09  20501566.714   107736442.607  
G12  20470926.144   107575443.135  
G05  20082164.477   105532449.082  
G30  21462019.868   112783636.809  
G14  22625033.141   118895341.542  
G15  23607510.004   124058265.993  
S37  36889694.495   193856628.325  
G22  20801738.477   109313855.070  
G26  25193708.264   132393818.239  
> 2008 05 26 06 01 31.9990000  0 10                     
G18  20396881.419   107186305.711  
G09  20501858.595   107737978.513  
G12  20470669.792   107574096.302  
G05  20081697.122   105529993.883  
G30  21461305.831   112779883.473  
G14  22624434.991   118892198.467  
G15  23607899.951   124060313.654  
S37  36889584.027   193856048.726  
G22  20801419.256   109312176.966  
G26  25194154.605   132396163.872  
> 2008 05 26 06 01 32.9990000  0 10                     
G18  20397072.839   107187311.327  
G09  20502151.065   107739514.403  
G12  20470413.959   107572749.838  
G05  20081230.232   105527539.008  
G30  21460591.563   112776130.230  
G14  22623836.375   118889055.178  
G15  23608289.663   124062361.227  
S37  36889473.645   193855469.068  
G22  20801100.248   109310499.181  
G26  25194600.895   132398509.302  
> 2008 05 26 06 01 33.9990000  0 10                     
G18  20397264.237   107188317.395  
G09  20502443.618   107741050.419  
G12  20470157.523   107571403.875  
G05  20080762.980   105525084.569  
G30  21459877.357   112772377.218  
G14  22623238.251   118885911.772  
G15  23608679.117   124064408.827  
S37  36889363.277   193854889.332  
G22  20800781.105   109308821.826  
G26  25195047.302   132400854.638  
> 2008 05 26 06 01 34.9990000  0 10                     
G18  20397456.142   107189324.040  
G09  20502735.686   107742586.700  
G12  20469901.515   107570058.545  
G05  20080295.908   105522630.696  
G30  21459163.132   112768624.565  
G14  22622640.232   118882768.400  
G15  23609069.037   124066456.614  
S37  36889253.052   193854309.767  
G22  20800462.146   109307145.043  
G26  25195493.321   132403200.039  
> 2008 05 26 06 01 35.9990000  0 10                     
G18  20397647.732   107190330.874  
G09  20503028.170   107744122.848  
G12  20469645.237   107568713.441  
G05  20079829.010   105520176.984  
G30  21458448.991   112764871.862  
G14  22622041.633   118879624.642  
G15  23609458.832   124068504.154  
S37  36889142.741   193853730.119  
G22  20800142.811   109305468.432  
G26  25195938.707   132405545.034  
> 2008 05 26 06 01 36.9990000  0 10                     
G18  20397839.479   107191338.847  
G09  20503320.805   107745659.790  
G12  20469389.621   107567369.522  
G05  20079362.425   105517724.407  
G30  21457735.137   112761120.068  
G14  22621443.648   118876481.479  
G15  23609849.145   124070552.431  
S37  36889032.438   193853150.896  
G22  20799824.192   109303792.933  
G26  25196384.849   132407890.684  
> 2008 05 26 06 01 37.9990000  0 10                     
G18  20398031.296   107192346.639  
G09  20503613.415   107747196.236  
G12  20469133.954   107566025.476  
G05  20078895.981   105515271.647  
G30  21457021.245   112757367.871  
G14  22620845.582   118873337.556  
G15  23610238.721   124072600.103  
S37  36888921.970   193852570.802  
G22  20799505.446   109302117.258  
G26  25196830.715   132410235.590  
> 2008 05 26 06 01 38.9990000  0 10                     
G18  20398222.751   107193354.072  
G09  20503906.129   107748731.988  
G12  20468877.946   107564681.111  
G05  20078429.039   105512818.502  
G30  21456307.382   112753615.075  
G14  22620247.210   118870192.724  
G15  23610628.236   124074646.992  
S37  36888811.332   193851989.645  
G22  20799186.552   109300441.203  
G26  25197276.376   132412579.604  
> 2008 05 26 06 01 39.9990000  0 10                     
G18  20398414.564   107194362.051  
G09  20504198.442   107750267.955  
G12  20468622.196   107563337.340  
G05  20077962.250   105510365.892  
G30  21455593.432   112749862.586  
G14  22619648.745   118867047.869  
G15  23611018.144   124076693.976  
S37  36888700.553   193851408.053  
G22  20798867.632   109298765.671  
G26  25197722.984   132414923.623  
> 2008 05 26 06 01 40.9990000  0 10                     
G18  20398606.207   107195370.228  
G09  20504490.642   107751803.789  
G12  20468366.546   107561993.801  
G05  20077495.396   105507913.457  
G30  21454879.161   112746110.070  
G14  22619050.142   118863902.663  
G15  23611407.807   124078740.755  
S37  36888590.054   193850826.449  
G22  20798548.886   109297090.309  
G26  25198168.780   132417267.284  
> 2008 05 26 06 01 41.9990000  0 10                     
G18  20398798.242   107196378.373  
G09  20504782.628   107753339.277  
G12  20468111.057   107560650.311  
G05  20077028.528   105505461.017  
G30  21454165.106   112742357.307  
G14  22618451.670   118860756.883  
G15  23611797.152   124080787.143  
S37  36888479.106   193850244.136  
G22  20798230.053   109295414.937  
G26  25198614.132   132419610.428  
> 2008 05 26 06 01 42.9990000  0 10                     
G18  20398989.610   107197386.853  
G09  20505075.198   107754874.786  
G12  20467855.525   107559307.201  
G05  20076561.919   105503008.897  
G30  21453450.725   112738604.648  
G14  22617853.337   118857610.878  
G15  23612186.476   124082833.394  
S37  36888368.119   193849661.232  
G22  20797911.229   109293739.896  
G26  25199060.199   132421953.356  
> 2008 05 26 06 01 43.9990000  0 10                     
G18  20399181.500   107198395.564  
G09  20505367.057   107756410.197  
G12  20467599.682   107557964.356  
G05  20076095.299   105500556.975  
G30  21452736.858   112734851.983  
G14  22617254.808   118854464.542  
G15  23612575.817   124084879.468  
S37  36888257.257   193849077.877  
G22  20797592.391   109292065.052  
G26  25199506.654   132424295.960  
> 2008 05 26 06 01 44.9990000  0 10                     
G18  20399373.784   107199405.510  
G09  20505659.261   107757946.505  
G12  20467344.450   107556622.789  
G05  20075628.715   105498106.276  
G30  21452022.533   112731100.310  
G14  22616656.156   118851318.878  
G15  23612965.531   124086926.357  
S37  36888146.382   193848495.547  
G22  20797274.020   109290391.426  
G26  25199952.603   132426639.274  
> 2008 05 26 06 01 45.9990000  0 10                     
G18  20399566.177   107200415.885  
G09  20505951.491   107759482.913  
G12  20467088.957   107555281.706  
G05  20075162.354   105495655.995  
G30  21451308.697   112727348.858  
G14  22616057.522   118848173.082  
G15  23613355.374   124088973.258  
S37  36888035.408   193847912.925  
G22  20796955.715   109288718.224  
G26  25200399.123   132428982.484  
> 2008 05 26 06 01 46.9990000  0 10                     
G18  20399758.857   107201427.037  
G09  20506243.507   107761019.783  
G12  20466834.018   107553941.450  
G05  20074696.135   105493206.486  
G30  21450594.795   112723597.950  
G14  22615458.744   118845027.534  
G15  23613744.330   124091020.533  
S37  36887924.638   193847330.363  
G22  20796637.497   109287045.794  
G26  25200845.439   132431325.936  
> 2008 05 26 06 01 47.9990000  0 10                     
G18  20399951.215   107202438.535  
G09  20506536.060   107762556.658  
G12  20466579.511   107552601.602  
G05  20074229.957   105490757.335  
G30  21449881.339   112719847.164  
G14  22614859.787   118841881.765  
G15  23614133.657   124093067.742  
S37  36887814.056   193846747.724  
G22  20796319.349   109285373.699  
G26  25201291.772   132433669.217  
> 2008 05 26 06 01 48.9990000  0 10                     
G18  20400143.796   107203450.293  
G09  20506828.587   107764093.473  
G12  20466324.847   107551262.028  
G05  20073763.757   105488308.404  
G30  21449167.673   112716096.406  
G14  22614260.922   118838735.677  
G15  23614523.230   124095114.775  
S37  36887702.960   193846164.799  
G22  20796001.113   109283701.841  
G26  25201737.664   132436012.179  
> 2008 05 26 06 01 49.9990000  0 10                     
G18  20400336.250   107204462.849  
G09  20507121.301   107765630.762  
G12  20466070.169   107549923.320  
G05  20073298.050   105485860.282  
G30  21448453.841   112712346.225  
G14  22613661.965   118835589.859  
G15  23614912.531   124097162.215  
S37  36887592.107   193845581.940  
G22  20795682.991   109282030.782  
G26  25202183.828   132438355.449  
> 2008 05 26 06 01 50.9990000  0 10                     
G18  20400529.170   107205475.466  
G09  20507413.823   107767167.775  
G12  20465815.121   107548584.716  
G05  20072832.316   105483412.189  
G30  21447740.620   112708595.863  
G14  22613062.711   118832443.512  
G15  23615302.665   124099209.286  
S37  36887481.198   193844998.508  
G22  20795365.022   109280359.762  
G26  25202629.230   132440698.190  
> 2008 05 26 06 01 51.9990000  0 10                     
G18  20400722.305   107206488.667  
G09  20507706.158   107768705.037  
G12  20465560.710   107547246.741  
G05  20072366.662   105480964.668  
G30  21447026.710   112704845.859  
G14  22612463.881   118829297.215  
G15  23615692.124   124101256.512  
S37  36887370.145   193844414.972  
G22  20795046.835   109278689.309  
G26  25203074.146   132443040.948  
> 2008 05 26 06 01 52.9990000  0 10                     
G18  20400914.864   107207501.593  
G09  20507998.554   107770241.709  
G12  20465305.762   107545908.550  
G05  20071901.055   105478516.871  
G30  21446313.105   112701095.360  
G14  22611864.815   118826150.091  
G15  23616081.452   124103303.054  
S37  36887258.891   193843830.554  
G22  20794729.053   109277018.569  
G26  25203519.702   132445382.963  
> 2008 05 26 06 01 53.9990000  0 10                     
G18  20401108.020   107208515.603  
G09  20508291.185   107771779.146  
G12  20465051.473   107544571.483  
G05  20071435.387   105476070.144  
G30  21445599.439   112697345.719  
G14  22611266.037   118823003.480  
G15  23616471.525   124105350.252  
S37  36887147.685   193843246.527  
G22  20794411.333   109275348.909  
G26  25203964.247   132447725.462  
> 2008 05 26 06 01 54.9990000  0 10                     
G18  20401300.832   107209529.520  
G09  20508583.455   107773316.159  
G12  20464797.014   107543234.372  
G05  20070969.754   105473623.334  
G30  21444885.825   112693595.754  
G14  22610667.386   118819856.219  
G15  23616861.048   124107396.982  
S37  36887036.759   193842662.114  
G22  20794093.411   109273679.139  
G26  25204409.751   132450067.360  
> 2008 05 26 06 01 55.9990000  0 10                     
G18  20401494.079   107210544.165  
G09  20508876.269   107774853.569  
G12  20464542.920   107541898.038  
G05  20070504.404   105471177.234  
G30  21444172.735   112689846.284  
G14  22610069.100   118816709.139  
G15  23617250.860   124109443.998  
S37  36886925.492   193842077.916  
G22  20793776.048   109272010.096  
G26  25204854.823   132452409.512  
> 2008 05 26 06 01 56.9990000  0 10                     
G18  20401687.026   107211559.205  
G09  20509168.918   107776391.034  
G12  20464288.701   107540562.139  
G05  20070038.950   105468731.514  
G30  21443459.401   112686096.980  
G14  22609470.287   118813561.894  
G15  23617640.392   124111490.981  
S37  36886814.216   193841493.476  
G22  20793458.458   109270341.417  
G26  25205299.594   132454751.438  
> 2008 05 26 06 01 57.9990000  0 10                     
G18  20401879.921   107212575.078  
G09  20509461.396   107777929.023  
G12  20464034.630   107539227.132  
G05  20069573.404   105466286.621  
G30  21442745.970   112682348.303  
G14  22608871.335   118810414.942  
G15  23618029.930   124113538.405  
S37  36886702.910   193840909.119  
G22  20793141.183   109268673.580  
G26  25205745.705   132457093.689  
> 2008 05 26 06 01 58.9990000  0 10                     
G18  20402073.753   107213591.286  
G09  20509753.962   107779467.028  
G12  20463780.969   107537892.511  
G05  20069108.068   105463842.047  
G30  21442032.793   112678599.726  
G14  22608272.889   118807267.768  
G15  23618419.684   124115585.719  
S37  36886591.481   193840324.591  
G22  20792823.680   109267006.057  
G26  25206191.976   132459435.786  
> 2008 05 26 06 01 59.9990000  0 10                     
G18  20402267.080   107214608.156  
G09  20510046.825   107781005.357  
G12  20463527.038   107536558.600  
G05  20068643.308   105461398.112  
G30  21441319.288   112674851.579  
G14  22607674.185   118804120.694  
G15  23618809.500   124117633.297  
S37  36886480.294   193839740.096  
G22  20792506.165   109265339.190  
G26  25206638.214   132461777.938  
> 2008 05 26 06 02 00.9990000  0 10                     
G18  20402460.746   107215625.224  
G09  20510339.461   107782543.572  
G12  20463273.185   107535224.949  
G05  20068178.328   105458954.392  
G30  21440606.342   112671103.425  
G14  22607074.652   118800973.268  
G15  23619199.111   124119680.666  
S37  36886368.860   193839155.210  
G22  20792188.889   109263672.532  
G26  25207083.901   132464119.793  
> 2008 05 26 06 02 01.9990000  0 10                     
G18  20402654.579   107216642.985  
G09  20510632.036   107784082.149  
G12  20463019.821   107533892.024  
G05  20067713.206   105456511.350  
G30  21439893.051   112667355.724  
G14  22606475.085   118797825.990  
G15  23619588.509   124121728.299  
S37  36886257.663   193838570.643  
G22  20791871.936   109262006.547  
G26  25207529.257   132466461.824  
> 2008 05 26 06 02 02.9990000  0 10                     
G18  20402848.132   107217660.378  
G09  20510924.632   107785620.028  
G12  20462766.099   107532558.797  
G05  20067248.319   105454067.938  
G30  21439179.625   112663607.422  
G14  22605876.058   118794677.770  
G15  23619978.041   124123775.144  
S37  36886145.947   193837985.189  
G22  20791554.835   109260340.175  
G26  25207974.586   132468802.918  
> 2008 05 26 06 02 03.9990000  0 10                     
G18  20403041.516   107218678.068  
G09  20511217.076   107787157.873  
G12  20462511.985   107531225.905  
G05  20066783.493   105451624.808  
G30  21438466.583   112659859.186  
G14  22605276.826   118791529.303  
G15  23620367.827   124125821.874  
S37  36886034.537   193837399.075  
G22  20791237.677   109258674.101  
G26  25208419.175   132471143.797  
> 2008 05 26 06 02 04.9990000  0 10                     
G18  20403235.156   107219696.695  
G09  20511510.113   107788696.340  
G12  20462258.611   107529894.005  
G05  20066318.514   105449182.613  
G30  21437753.148   112656111.672  
G14  22604678.092   118788381.237  
G15  23620757.394   124127869.116  
S37  36885923.134   193836812.960  
G22  20790920.689   109257008.953  
G26  25208863.758   132473485.068  
> 2008 05 26 06 02 05.9990000  0 10                     
G18  20403428.801   107220715.840  
G09  20511803.093   107790234.995  
G12  20462005.130   107528562.678  
G05  20065853.780   105446740.942  
G30  21437040.059   112652364.483  
G14  22604078.647   118785233.133  
G15  23621147.036   124129916.507  
S37  36885811.563   193836226.620  
G22  20790604.505   109255344.327  
G26  25209309.001   132475826.306  
> 2008 05 26 06 02 06.9990000  0 10                     
G18  20403623.053   107221735.045  
G09  20512095.668   107791773.364  
G12  20461752.075   107527231.434  
G05  20065389.220   105444299.272  
G30  21436326.641   112648617.063  
G14  22603479.171   118782084.500  
G15  23621536.403   124131963.484  
S37  36885699.856   193835639.855  
G22  20790287.739   109253679.713  
G26  25209755.019   132478167.086  
> 2008 05 26 06 02 07.9990000  0 10                     
G18  20403817.164   107222754.178  
G09  20512388.548   107793311.341  
G12  20461498.794   107525900.156  
G05  20064924.617   105441857.524  
G30  21435613.228   112644869.361  
G14  22602879.568   118778935.212  
G15  23621925.765   124134009.972  
S37  36885588.112   193835052.551  
G22  20789970.760   109252015.011  
G26  25210199.821   132480507.134  
> 2008 05 26 06 02 08.9990000  0 10                     
G18  20404010.957   107223774.408  
G09  20512681.480   107794850.056  
G12  20461245.891   107524570.025  
G05  20064460.240   105439416.872  
G30  21434900.325   112641122.525  
G14  22602280.480   118775786.480  
G15  23622315.942   124136057.137  
S37  36885476.439   193834465.973  
G22  20789654.060   109250351.405  
G26  25210645.831   132482847.837  
> 2008 05 26 06 02 09.9990000  0 10                     
G18  20404205.222   107224795.403  
G09  20512974.535   107796389.245  
G12  20460993.021   107523240.719  
G05  20063995.960   105436976.969  
G30  21434187.689   112637376.228  
G14  22601681.301   118772637.984  
G15  23622705.550   124138104.671  
S37  36885364.868   193833879.556  
G22  20789337.640   109248688.553  
G26  25211090.650   132485188.689  
> 2008 05 26 06 02 10.9990000  0 10                     
G18  20404399.543   107225815.264  
G09  20513267.320   107797926.958  
G12  20460739.871   107521910.334  
G05  20063531.505   105434535.954  
G30  21433474.809   112633628.576  
G14  22601081.594   118769487.804  
G15  23623094.729   124140150.635  
S37  36885253.043   193833291.117  
G22  20789021.054   109247024.572  
G26  25211536.900   132487527.927  
> 2008 05 26 06 02 11.9990000  0 10                     
G18  20404593.742   107226835.526  
G09  20513560.138   107799464.743  
G12  20460486.951   107520580.389  
G05  20063067.119   105432095.307  
G30  21432761.535   112629881.089  
G14  22600482.301   118766337.436  
G15  23623483.769   124142196.582  
S37  36885140.882   193832702.198  
G22  20788704.136   109245360.977  
G26  25211982.112   132489867.049  
> 2008 05 26 06 02 12.9990000  0 10                     
G18  20404788.181   107227856.213  
G09  20513852.791   107801002.654  
G12  20460234.079   107519250.941  
G05  20062602.616   105429655.102  
G30  21432048.794   112626133.823  
G14  22599883.165   118763186.963  
G15  23623873.117   124144242.568  
S37  36885028.916   193832113.037  
G22  20788387.741   109243697.817  
G26  25212428.764   132492206.073  
> 2008 05 26 06 02 13.9990000  0 10                     
G18  20404982.585   107228877.126  
G09  20514145.192   107802540.439  
G12  20459981.091   107517921.751  
G05  20062138.401   105427215.100  
G30  21431335.661   112622386.551  
G14  22599283.734   118760036.154  
G15  23624262.668   124146288.340  
S37  36884916.895   193831523.480  
G22  20788070.863   109242034.861  
G26  25212874.278   132494544.776  
> 2008 05 26 06 02 14.9990000  0 10                     
G18  20405177.233   107229898.419  
G09  20514437.618   107804078.273  
G12  20459728.280   107516593.002  
G05  20061673.928   105424775.472  
G30  21430622.478   112618639.439  
G14  22598684.218   118756885.197  
G15  23624652.148   124148334.083  
S37  36884804.786   193830934.248  
G22  20787754.769   109240372.280  
G26  25213319.589   132496883.309  
> 2008 05 26 06 02 15.9990000  0 10                     
G18  20405371.236   107230920.207  
G09  20514730.132   107805616.283  
G12  20459475.496   107515264.798  
G05  20061209.936   105422336.335  
G30  21429909.205   112614892.597  
G14  22598084.066   118753734.151  
G15  23625041.645   124150379.910  
S37  36884692.651   193830345.203  
G22  20787438.663   109238710.188  
G26  25213765.918   132499221.782  
> 2008 05 26 06 02 16.9990000  0 10                     
G18  20405566.054   107231943.026  
G09  20515022.820   107807154.999  
G12  20459222.660   107513937.679  
G05  20060746.222   105419898.234  
G30  21429196.368   112611146.565  
G14  22597485.026   118750583.601  
G15  23625431.073   124152426.359  
S37  36884580.729   193829756.582  
G22  20787122.918   109237049.110  
G26  25214211.818   132501560.810  
> 2008 05 26 06 02 17.9990000  0 10                     
G18  20405761.200   107232966.439  
G09  20515315.853   107808693.990  
G12  20458970.512   107512611.211  
G05  20060282.377   105417460.711  
G30  21428483.491   112607400.907  
G14  22596885.741   118747433.095  
G15  23625820.212   124154472.962  
S37  36884468.747   193829167.873  
G22  20786806.659   109235388.638  
G26  25214658.056   132503899.911  
> 2008 05 26 06 02 18.9990000  0 10                     
G18  20405956.058   107233990.613  
G09  20515608.811   107810233.421  
G12  20458718.243   107511285.552  
G05  20059818.751   105415023.954  
G30  21427770.667   112603655.789  
G14  22596285.751   118744282.793  
G15  23626209.405   124156519.939  
S37  36884357.005   193828579.312  
G22  20786490.434   109233728.910  
G26  25215104.223   132506239.209  
> 2008 05 26 06 02 19.9990000  0 10                     
G18  20406151.016   107235014.566  
G09  20515901.386   107811772.307  
G12  20458466.145   107509959.733  
G05  20059354.855   105412586.987  
G30  21427057.983   112599910.241  
G14  22595686.205   118741131.748  
G15  23626598.785   124158566.305  
S37  36884244.813   193827989.777  
G22  20786174.756   109232068.973  
G26  25215550.059   132508577.731  
> 2008 05 26 06 02 20.9990000  0 10                     
G18  20406345.603   107236038.619  
G09  20516194.310   107813310.968  
G12  20458213.736   107508634.058  
G05  20058890.993   105410150.092  
G30  21426345.513   112596164.556  
G14  22595086.454   118737980.207  
G15  23626986.703   124160612.303  
S37  36884132.574   193827399.564  
G22  20785859.016   109230409.123  
G26  25215995.419   132510915.851  
> 2008 05 26 06 02 21.9990000  0 10                     
G18  20406540.540   107237062.793  
G09  20516486.963   107814849.430  
G12  20457961.340   107507308.558  
G05  20058427.603   105407713.318  
G30  21425632.789   112592418.782  
G14  22594486.591   118734828.280  
G15  23627375.202   124162658.030  
S37  36884020.360   193826808.966  
G22  20785543.399   109228749.390  
G26  25216440.810   132513253.558  
> 2008 05 26 06 02 22.9990000  0 10                     
G18  20406735.571   107238087.115  
G09  20516779.738   107816387.693  
G12  20457709.345   107505983.235  
G05  20057964.037   105405276.676  
G30  21424920.004   112588672.910  
G14  22593886.595   118731675.906  
G15  23627764.250   124164703.515  
S37  36883907.858   193826217.949  
G22  20785227.060   109227089.771  
G26  25216885.437   132515590.846  
> 2008 05 26 06 02 23.9990000  0 10                     
G18  20406930.634   107239112.258  
G09  20517072.357   107817926.459  
G12  20457457.347   107504658.805  
G05  20057500.293   105402840.855  
G30  21424207.119   112584927.649  
G14  22593286.378   118728523.820  
G15  23628153.648   124166749.368  
S37  36883795.528   193825627.102  
G22  20784911.600   109225430.991  
G26  25217330.985   132517928.470  
> 2008 05 26 06 02 24.9990000  0 10                     
G18  20407125.649   107240137.638  
G09  20517365.223   107819465.135  
G12  20457205.710   107503334.672  
G05  20057037.159   105400405.255  
G30  21423494.456   112581182.398  
G14  22592686.116   118725371.419  
G15  23628543.930   124168795.074  
S37  36883683.095   193825035.992  
G22  20784596.217   109223772.425  
G26  25217775.572   132520265.769  
> 2008 05 26 06 02 25.9990000  0 10                     
G18  20407321.043   107241164.114  
G09  20517658.213   107821004.589  
G12  20456953.864   107502011.679  
G05  20056573.494   105397970.761  
G30  21422781.484   112577438.030  
G14  22592086.112   118722219.553  
G15  23628933.009   124170841.456  
S37  36883570.816   193824445.332  
G22  20784280.870   109222114.944  
G26  25218220.221   132522603.602  
> 2008 05 26 06 02 26.9990000  0 10                     
G18  20407516.464   107242190.552  
G09  20517951.442   107822543.651  
G12  20456701.874   107500688.692  
G05  20056110.209   105395536.207  
G30  21422069.044   112573693.380  
G14  22591486.658   118719067.092  
G15  23629321.887   124172887.360  
S37  36883458.237   193823854.040  
G22  20783965.257   109220457.413  
G26  25218664.727   132524940.879  
> 2008 05 26 06 02 27.9990000  0 10                     
G18  20407711.566   107243216.483  
G09  20518244.126   107824081.899  
G12  20456450.081   107499365.258  
G05  20055646.796   105393101.152  
G30  21421356.434   112569948.031  
G14  22590886.567   118715913.595  
G15  23629710.866   124174932.377  
S37  36883345.574   193823261.519  
G22  20783649.591   109218799.387  
G26  25219108.844   132527277.115  
> 2008 05 26 06 02 28.9990000  0 10                     
G18  20407906.764   107244242.612  
G09  20518536.352   107825620.019  
G12  20456198.584   107498042.067  
G05  20055183.654   105390666.284  
G30  21420643.580   112566202.637  
G14  22590286.289   118712759.740  
G15  23630099.242   124176977.118  
S37  36883232.736   193822668.717  
G22  20783333.895   109217141.537  
G26  25219552.560   132529612.971  
> 2008 05 26 06 02 29.9990000  0 10                     
G18  20408102.354   107245269.600  
G09  20518829.105   107827158.674  
G12  20455946.711   107496719.801  
G05  20054720.159   105388232.286  
G30  21419930.987   112562457.910  
G14  22589685.495   118709606.193  
G15  23630488.600   124179022.371  
S37  36883120.121   193822076.351  
G22  20783018.835   109215484.552  
G26  25219995.380   132531949.212  
> 2008 05 26 06 02 30.9990000  0 10                     
G18  20408297.540   107246296.567  
G09  20519121.937   107828696.976  
G12  20455695.467   107495397.547  
G05  20054257.012   105385798.244  
G30  21419218.695   112558712.913  
G14  22589085.330   118706452.058  
G15  23630878.063   124181067.112  
S37  36883007.132   193821483.417  
G22  20782703.544   109213827.534  
G26  25220438.834   132534284.909  
> 2008 05 26 06 02 31.9990000  0 10                     
G18  20408493.069   107247324.288  
G09  20519414.560   107830235.719  
G12  20455443.730   107494076.124  
G05  20053794.106   105383364.979  
G30  21418506.364   112554968.462  
G14  22588485.156   118703298.159  
G15  23631266.649   124183112.294  
S37  36882894.442   193820890.626  
G22  20782388.598   109212171.271  
G26  25220883.261   132536620.759  
> 2008 05 26 06 02 32.9990000  0 10                     
G18  20408689.013   107248352.846  
G09  20519707.679   107831774.964  
G12  20455192.207   107492755.582  
G05  20053331.073   105380932.530  
G30  21417793.300   112551224.633  
G14  22587885.178   118700144.519  
G15  23631655.575   124185157.851  
S37  36882781.635   193820297.945  
G22  20782073.927   109210515.817  
G26  25221326.858   132538956.929  
> 2008 05 26 06 02 33.9990000  0 10                     
G18  20408884.848   107249381.421  
G09  20520000.324   107833313.922  
G12  20454940.714   107491435.112  
G05  20052868.162   105378500.102  
G30  21417081.017   112547480.595  
G14  22587285.205   118696990.339  
G15  23632044.828   124187203.005  
S37  36882668.750   193819704.681  
G22  20781758.737   109208860.397  
G26  25221770.666   132541292.553  
> 2008 05 26 06 02 34.9990000  0 10                     
G18  20409080.539   107250410.464  
G09  20520293.187   107834853.001  
G12  20454689.653   107490115.160  
G05  20052405.469   105376068.137  
G30  21416368.725   112543736.821  
G14  22586685.218   118693836.109  
G15  23632434.059   124189248.165  
S37  36882555.952   193819111.284  
G22  20781443.830   109207205.439  
G26  25222214.903   132543628.156  
> 2008 05 26 06 02 35.9990000  0 10                     
G18  20409276.143   107251440.075  
G09  20520586.098   107836392.322  
G12  20454438.580   107488795.830  
G05  20051942.899   105373636.717  
G30  21415656.307   112539993.377  
G14  22586085.136   118690681.874  
G15  23632823.736   124191293.562  
S37  36882443.137   193818517.772  
G22  20781129.242   109205551.031  
G26  25222658.523   132545963.769  
> 2008 05 26 06 02 36.9990000  0 10                     
G18  20409472.130   107252470.021  
G09  20520878.829   107837931.654  
G12  20454187.597   107487476.864  
G05  20051479.975   105371205.639  
G30  21414944.233   112536250.044  
G14  22585484.866   118687527.419  
G15  23633212.989   124193338.837  
S37  36882330.164   193817923.989  
G22  20780814.335   109203896.949  
G26  25223103.216   132548299.184  
> 2008 05 26 06 02 37.9990000  0 10                     
G18  20409668.244   107253499.951  
G09  20521172.181   107839470.629  
G12  20453936.689   107486157.947  
G05  20051017.130   105368774.522  
G30  21414231.680   112532506.474  
G14  22584884.203   118684372.385  
G15  23633602.012   124195383.733  
S37  36882217.082   193817329.651  
G22  20780499.241   109202242.840  
G26  25223548.787   132550634.010  
> 2008 05 26 06 02 38.9990000  0 10                     
G18  20409864.311   107254529.947  
G09  20521465.340   107841009.350  
G12  20453685.297   107484839.152  
G05  20050554.952   105366343.482  
G30  21413519.249   112528762.750  
G14  22584283.458   118681216.867  
G15  23633991.601   124197428.226  
S37  36882103.853   193816734.899  
G22  20780184.530   109200588.813  
G26  25223993.845   132552968.406  
> 2008 05 26 06 02 39.9990000  0 10                     
G18  20410060.647   107255560.941  
G09  20521758.185   107842548.748  
G12  20453434.458   107483521.398  
G05  20050092.455   105363913.451  
G30  21412806.825   112525019.807  
G14  22583683.022   118678061.795  
G15  23634380.718   124199473.353  
S37  36881990.683   193816140.433  
G22  20779869.946   109198935.777  
G26  25224438.577   132555303.293  
> 2008 05 26 06 02 40.9990000  0 10                     
G18  20410256.875   107256592.154  
G09  20522050.912   107844088.025  
G12  20453183.537   107482203.913  
G05  20049630.099   105361483.612  
G30  21412094.499   112521276.860  
G14  22583082.486   118674906.414  
G15  23634769.928   124201518.276  
S37  36881877.588   193815545.588  
G22  20779555.349   109197282.934  
G26  25224882.846   132557637.826  
> 2008 05 26 06 02 41.9990000  0 10                     
G18  20410453.042   107257623.489  
G09  20522343.662   107845627.099  
G12  20452933.101   107480886.605  
G05  20049167.738   105359053.894  
G30  21411382.653   112517533.818  
G14  22582482.085   118671750.576  
G15  23635158.876   124203562.874  
S37  36881764.119   193814950.087  
G22  20779241.023   109195630.213  
G26  25225327.531   132559971.986  
> 2008 05 26 06 02 42.9990000  0 10                     
G18  20410649.404   107258655.011  
G09  20522636.511   107847166.046  
G12  20452682.371   107479569.534  
G05  20048705.516   105356624.359  
G30  21410670.574   112513790.750  
G14  22581881.658   118668594.374  
G15  23635548.352   124205607.323  
S37  36881650.562   193814354.063  
G22  20778926.478   109193977.679  
G26  25225771.010   132562305.809  
> 2008 05 26 06 02 43.9990000  0 10                     
G18  20410845.741   107259687.177  
G09  20522929.387   107848705.296  
G12  20452432.096   107478253.167  
G05  20048243.138   105354195.462  
G30  21409958.257   112510048.099  
G14  22581281.449   118665438.278  
G15  23635937.008   124207651.960  
S37  36881536.974   193813757.664  
G22  20778612.082   109192325.783  
G26  25226215.651   132564639.687  
> 2008 05 26 06 02 44.9990000  0 10                     
G18  20411042.283   107260719.062  
G09  20523221.635   107850243.950  
G12  20452181.336   107476936.581  
G05  20047780.807   105351766.284  
G30  21409245.825   112506304.942  
G14  22580680.547   118662281.338  
G15  23636325.471   124209695.875  
S37  36881423.281   193813160.257  
G22  20778297.629   109190673.602  
G26  25226661.124   132566972.789  
> 2008 05 26 06 02 45.9990000  0 10                     
G18  20411238.501   107261751.185  
G09  20523514.257   107851782.501  
G12  20451930.908   107475620.264  
G05  20047318.359   105349337.326  
G30  21408533.459   112502561.796  
G14  22580080.020   118659124.090  
G15  23636713.408   124211739.641  
S37  36881309.572   193812562.768  
G22  20777982.992   109189021.640  
G26  25227105.264   132569305.549  
> 2008 05 26 06 02 46.9990000  0 10                     
G18  20411435.227   107262783.291  
G09  20523807.103   107853320.709  
G12  20451680.606   107474303.992  
G05  20046856.107   105346908.369  
G30  21407820.884   112498818.425  
G14  22579479.035   118655966.297  
G15  23637101.348   124213782.977  
S37  36881195.749   193811964.953  
G22  20777668.562   109187369.674  
G26  25227549.066   132571637.813  
> 2008 05 26 06 02 47.9990000  0 10                     
G18  20411631.511   107263815.584  
G09  20524099.773   107854858.791  
G12  20451430.200   107472987.978  
G05  20046393.807   105344479.604  
G30  21407108.880   112495075.036  
G14  22578877.674   118652808.129  
G15  23637490.191   124215826.088  
S37  36881081.903   193811367.039  
G22  20777353.907   109185717.883  
G26  25227992.638   132573969.698  
> 2008 05 26 06 02 48.9990000  0 10                     
G18  20411828.048   107264848.367  
G09  20524392.470   107856397.038  
G12  20451179.763   107471672.493  
G05  20045931.743   105342051.330  
G30  21406396.711   112491331.934  
G14  22578276.309   118649649.922  
G15  23637879.048   124217869.259  
S37  36880968.242   193810769.142  
G22  20777039.869   109184066.599  
G26  25228436.524   132576301.598  
> 2008 05 26 06 02 49.9990000  0 10                     
G18  20412024.808   107265881.933  
G09  20524685.315   107857935.726  
G12  20450929.601   107470357.846  
G05  20045469.901   105339623.816  
G30  21405684.654   112487589.361  
G14  22577675.262   118646491.919  
G15  23638268.345   124219912.800  
S37  36880854.510   193810171.240  
G22  20776725.844   109182416.070  
G26  25228878.886   132578633.687  
> 2008 05 26 06 02 50.9990000  0 10                     
G18  20412221.738   107266916.049  
G09  20524977.955   107859474.668  
G12  20450679.451   107469043.798  
G05  20045008.010   105337196.858  
G30  21404972.742   112483847.146  
G14  22577074.259   118643333.917  
G15  23638657.096   124221956.456  
S37  36880740.756   193809573.442  
G22  20776411.700   109180766.097  
G26  25229321.777   132580965.791  
> 2008 05 26 06 02 51.9990000  0 10                     
G18  20412418.615   107267950.700  
G09  20525270.726   107861013.791  
G12  20450429.521   107467730.341  
G05  20044546.548   105334770.423  
G30  21404260.411   112480105.223  
G14  22576473.361   118640175.897  
G15  23639045.926   124224000.266  
S37  36880627.067   193808975.864  
G22  20776097.888   109179116.642  
G26  25229764.760   132583297.907  
> 2008 05 26 06 02 52.9990000  0 10                     
G18  20412615.828   107268986.667  
G09  20525563.772   107862553.911  
G12  20450180.034   107466418.260  
G05  20044084.906   105332345.316  
G30  21403548.577   112476364.424  
G14  22575872.567   118637018.677  
G15  23639434.729   124226044.936  
S37  36880513.335   193808378.826  
G22  20775784.299   109177468.526  
G26  25230208.046   132585630.788  
> 2008 05 26 06 02 53.9990000  0 10                     
G18  20412813.059   107270023.521  
G09  20525856.839   107864094.582  
G12  20449930.566   107465107.121  
G05  20043623.553   105329921.101  
G30  21402837.249   112472624.296  
G14  22575271.978   118633861.765  
G15  23639823.991   124228090.118  
S37  36880399.726   193807781.915  
G22  20775471.294   109175821.274  
G26  25230651.802   132587963.961  
> 2008 05 26 06 02 54.9990000  0 10                     
G18  20413010.168   107271060.430  
G09  20526149.588   107865635.005  
G12  20449681.172   107463796.082  
G05  20043162.125   105327496.931  
G30  21402125.581   112468883.993  
G14  22574671.429   118630704.373  
G15  23640213.153   124230134.930  
S37  36880286.012   193807184.277  
G22  20775158.058   109174174.083  
G26  25231096.185   132590296.755  
> 2008 05 26 06 02 55.9990000  0 10                     
G18  20413207.521   107272097.774  
G09  20526442.704   107867175.522  
G12  20449431.655   107462485.538  
G05  20042700.990   105325073.190  
G30  21401413.438   112465143.915  
G14  22574070.806   118627546.855  
G15  23640602.816   124232179.760  
S37  36880172.215   193806586.556  
G22  20774844.551   109172527.327  
G26  25231540.228   132592629.432  
> 2008 05 26 06 02 56.9990000  0 10                     
G18  20413405.148   107273136.061  
G09  20526736.029   107868716.655  
G12  20449182.448   107461175.997  
G05  20042239.999   105322650.396  
G30  21400702.023   112461404.559  
G14  22573470.479   118624389.745  
G15  23640992.201   124234225.134  
S37  36880058.631   193805989.287  
G22  20774531.162   109170881.502  
G26  25231984.370   132594962.501  
> 2008 05 26 06 02 57.9990000  0 10                     
G18  20413603.099   107274174.562  
G09  20527029.568   107870257.684  
G12  20448933.385   107459866.720  
G05  20041778.781   105320227.818  
G30  21399990.220   112457665.197  
G14  22572869.756   118621232.288  
G15  23641381.598   124236270.311  
S37  36879944.769   193805391.451  
G22  20774218.219   109169235.897  
G26  25232428.264   132597295.283  
> 2008 05 26 06 02 58.9990000  0 10                     
G18  20413800.479   107275212.683  
G09  20527322.880   107871797.992  
G12  20448683.956   107458557.107  
G05  20041317.864   105317804.859  
G30  21399278.792   112453925.235  
G14  22572268.644   118618073.910  
G15  23641770.433   124238314.683  
S37  36879830.902   193804792.176  
G22  20773904.735   109167589.907  
G26  25232873.132   132599627.145  
> 2008 05 26 06 02 59.9990000  0 10                     
G18  20413998.011   107276251.195  
G09  20527615.756   107873338.371  
G12  20448434.911   107457247.951  
G05  20040856.506   105315382.280  
G30  21398567.141   112450185.444  
G14  22571667.480   118614915.368  
G15  23642159.363   124240359.022  
S37  36879716.900   193804192.638  
G22  20773591.420   109165944.291  
G26  25233317.799   132601958.803  
> 2008 05 26 06 03 00.9990000  0 10                     
G18  20414195.935   107277290.979  
G09  20527909.046   107874879.686  
G12  20448185.927   107455940.101  
G05  20040395.597   105312960.963  
G30  21397855.718   112446446.705  
G14  22571066.555   118611757.552  
G15  23642549.175   124242404.226  
S37  36879603.028   193803594.074  
G22  20773278.490   109164299.937  
G26  25233762.426   132604291.244  
> 2008 05 26 06 03 01.9990000  0 10                     
G18  20414393.790   107278331.717  
G09  20528202.650   107876421.640  
G12  20447937.052   107454633.281  
G05  20039935.147   105310540.615  
G30  21397144.063   112442708.703  
G14  22570465.356   118608600.150  
G15  23642938.978   124244449.964  
S37  36879489.240   193802996.105  
G22  20772965.799   109162656.552  
G26  25234207.572   132606624.131  
> 2008 05 26 06 03 02.9990000  0 10                     
G18  20414591.929   107279372.206  
G09  20528496.298   107877963.011  
G12  20447688.560   107453326.257  
G05  20039474.815   105308120.014  
G30  21396432.761   112438970.262  
G14  22569864.493   118605441.927  
G15  23643328.231   124246495.036  
S37  36879375.089   193802397.426  
G22  20772653.239   109161012.898  
G26  25234652.348   132608956.252  
> 2008 05 26 06 03 03.9990000  0 10                     
G18  20414789.726   107280412.536  
G09  20528789.392   107879503.919  
G12  20447439.886   107452019.150  
G05  20039014.072   105305699.264  
G30  21395721.534   112435231.445  
G14  22569263.520   118602283.021  
G15  23643717.545   124248539.557  
S37  36879261.214   193801798.097  
G22  20772340.453   109159369.105  
G26  25235095.754   132611287.635  
> 2008 05 26 06 03 04.9990000  0 10                     
G18  20414987.826   107281452.971  
G09  20529082.677   107881044.557  
G12  20447191.128   107450712.171  
G05  20038553.587   105303278.597  
G30  21395009.661   112431492.502  
G14  22568662.774   118599123.663  
G15  23644106.532   124250583.731  
S37  36879147.019   193801198.305  
G22  20772027.644   109157725.385  
G26  25235538.696   132613618.522  
> 2008 05 26 06 03 05.9990000  0 10                     
G18  20415186.204   107282494.535  
G09  20529376.343   107882586.037  
G12  20446942.798   107449406.397  
G05  20038093.101   105300859.064  
G30  21394298.621   112427754.479  
G14  22568062.247   118595964.884  
G15  23644495.934   124252628.637  
S37  36879032.912   193800598.645  
G22  20771715.342   109156082.815  
G26  25235981.261   132615950.098  
> 2008 05 26 06 03 06.9990000  0 10                     
G18  20415384.817   107283536.842  
G09  20529669.506   107884127.920  
G12  20446694.028   107448101.417  
G05  20037633.026   105298440.286  
G30  21393587.132   112424017.007  
G14  22567461.418   118592806.297  
G15  23644884.973   124254673.902  
S37  36878918.815   193799998.622  
G22  20771402.886   109154440.973  
G26  25236424.339   132618281.812  
> 2008 05 26 06 03 07.9990000  0 10                     
G18  20415583.126   107284579.546  
G09  20529963.198   107885669.880  
G12  20446446.099   107446796.899  
G05  20037172.619   105296021.899  
G30  21392876.114   112420279.694  
G14  22566860.586   118589647.578  
G15  23645273.240   124256719.122  
S37  36878804.869   193799398.477  
G22  20771090.196   109152799.532  
G26  25236866.500                3 
> 2008 05 26 06 03 08.9990000  0 10                     
G18  20415781.700   107285623.032  
G09  20530256.754   107887212.281  
G12  20446197.848   107445493.202  
G05  20036712.514   105293604.278  
G30  21392165.318   112416542.944  
G14  22566259.508   118586489.063  
G15  23645661.787   124258764.717  
S37  36878690.862   193798798.773  
G22  20770778.090   109151158.874  
G26  25237310.557   132622961.8933 
> 2008 05 26 06 03 09.9990000  0 10                     
G18  20415980.293   107286666.816  
G09  20530550.359   107888754.659  
G12  20445949.824   107444189.858  
G05  20036252.622   105291186.966  
G30  21391454.188   112412806.281  
G14  22565658.860   118583330.311  
G15  23646050.360   124260810.191  
S37  36878576.638   193798198.832  
G22  20770465.500   109149518.497  
G26  25237754.102   132625293.5462 
> 2008 05 26 06 03 10.9990000  0 10                     
G18  20416178.854   107287711.156  
G09  20530843.936   107890297.280  
G12  20445701.917   107442887.142  
G05  20035792.896   105288770.209  
G30  21390743.078   112409069.982  
G14  22565057.821   118580171.570  
G15  23646439.408   124262855.824  
S37  36878462.352   193797598.985  
G22  20770153.097   109147878.693  
G26  25238197.958   132627625.1822 
> 2008 05 26 06 03 11.9990000  0 10                     
G18  20416377.538   107288755.760  
G09  20531137.606   107891839.818  
G12  20445453.718   107441584.728  
G05  20035333.082   105286353.712  
G30  21390032.055   112405333.705  
G14  22564456.884   118577012.543  
G15  23646829.416   124264901.287  
S37  36878348.127   193796998.769  
G22  20769841.279   109146239.142  
G26  25238641.429   132629956.5652 
> 2008 05 26 06 03 12.9990000  0 10                     
G18  20416576.370   107289800.530  
G09  20531431.245   107893382.219  
G12  20445205.837   107440282.552  
G05  20034873.103   105283937.396  
G30  21389321.120   112401597.395  
G14  22563855.606   118573853.141  
G15  23647218.490   124266946.524  
S37  36878233.811   193796398.057  
G22  20769529.199   109144599.773  
G26  25239084.961   132632287.6342 
> 2008 05 26 06 03 13.9990000  0 10                     
G18  20416775.267   107290846.275  
G09  20531725.150   107894925.259  
G12  20444958.262   107438981.394  
G05  20034413.538   105281522.045  
G30  21388610.425   112397861.823  
G14  22563254.494   118570694.163  
G15  23647608.250   124268992.290  
S37  36878119.451   193795798.050  
G22  20769217.311   109142961.357  
G26  25239528.929   132634619.1222 
> 2008 05 26 06 03 14.9990000  0 10                     
G18  20416974.400   107291892.499  
G09  20532018.911   107896468.447  
G12  20444710.608   107437680.782  
G05  20033954.174   105279107.178  
G30  21387899.472   112394126.527  
G14  22562653.574   118567535.131  
G15  23647998.428   124271038.166  
S37  36878005.304   193795198.165  
G22  20768905.711   109141323.425  
G26  25239972.923   132636950.5382 
> 2008 05 26 06 03 15.9990000  0 10                     
G18  20417173.677   107292939.301  
G09  20532312.599   107898011.900  
G12  20444463.347   107436380.798  
G05  20033494.936   105276692.889  
G30  21387188.773   112390391.605  
G14  22562052.384   118564376.114  
G15  23648387.842   124273084.174  
S37  36877891.075   193794598.207  
G22  20768594.504   109139686.078  
G26  25240417.210   132639282.0152 
> 2008 05 26 06 03 16.9990000  0 10                     
G18  20417372.784   107293986.186  
G09  20532606.652   107899555.077  
G12  20444215.925   107435080.930  
G05  20033035.485   105274278.683  
G30  21386478.204   112386656.556  
G14  22561451.450   118561216.630  
G15  23648777.541   124275129.868  
S37  36877776.746   193793997.523  
G22  20768283.000   109138048.785  
G26  25240861.226   132641613.0012 
> 2008 05 26 06 03 17.9990000  0 10                     
G18  20417572.292   107295033.759  
G09  20532900.475   107901098.634  
G12  20443968.716   107433781.827  
G05  20032576.161   105271865.160  
G30  21385767.457   112382921.970  
G14  22560850.461   118558057.294  
G15  23649166.441   124277175.832  
S37  36877662.352   193793397.015  
G22  20767971.561   109136412.193  
G26  25241303.856   132643944.1532 
> 2008 05 26 06 03 18.9990000  0 10                     
G18  20417771.373   107296081.305  
G09  20533194.061   107902641.834  
G12  20443721.734   107432482.740  
G05  20032116.875   105269451.627  
G30  21385056.971   112379187.159  
G14  22560249.340   118554897.391  
G15  23649555.637   124279221.356  
S37  36877547.834   193792795.570  
G22  20767659.948   109134775.578  
G26  25241747.581   132646274.7763 
> 2008 05 26 06 03 19.9990000  0 10                     
G18  20417970.580   107297129.270  
G09  20533487.653   107904185.121  
G12  20443474.460   107431184.133  
G05  20031657.677   105267038.489  
G30  21384346.115   112375452.540  
G14  22559648.176   118551737.345  
G15  23649944.965   124281266.896  
S37  36877433.252   193792193.685  
G22  20767348.667   109133139.376  
G26  25242190.399   132648605.2552 
> 2008 05 26 06 03 20.9990000  0 10                     
G18  20418169.740   107298176.419  
G09  20533781.070   107905727.268  
G12  20443226.851   107429884.766  
G05  20031198.492   105264624.553  
G30  21383635.133   112371716.896  
G14  22559046.445   118548575.943  
G15  23650334.149   124283311.169  
S37  36877318.382   193791590.649  
G22  20767036.954   109131502.359  
G26  25242633.900   132650934.4132 
> 2008 05 26 06 03 21.9990000  0 10                     
G18  20418369.161   107299223.629  
G09  20534074.343   107907269.156  
G12  20442979.529   107428585.520  
G05  20030739.141   105262210.672  
G30  21382923.918   112367981.110  
G14  22558444.347   118545414.074  
G15  23650722.853   124285355.144  
S37  36877203.543   193790986.962  
G22  20766725.459   109129865.413  
G26  25243077.694   132653263.0692 
> 2008 05 26 06 03 22.9990000  0 10                     
G18  20418568.403   107300271.208  
G09  20534367.659   107908811.067  
G12  20442732.481   107427286.676  
G05  20030280.039   105259797.155  
G30  21382212.748   112364245.466  
G14  22557842.790   118542251.989  
G15  23651111.979   124287399.037  
S37  36877088.672   193790382.819  
G22  20766414.147   109128228.804  
G26  25243520.480   132655591.5442 
> 2008 05 26 06 03 23.9990000  0 10                     
G18  20418768.072   107301319.464  
G09  20534661.176   107910353.341  
G12  20442485.691   107425988.598  
G05  20029820.526   105257384.348  
G30  21381502.332   112360510.307  
G14  22557241.368   118539090.053  
G15  23651500.957   124289443.211  
S37  36876973.867   193789779.055  
G22  20766102.743   109126592.894  
G26  25243963.056   132657920.1452 
> 2008 05 26 06 03 24.9990000  0 10                     
G18  20418967.523   107302368.046  
G09  20534954.579   107911895.609  
G12  20442238.713   107424690.889  
G05  20029361.795   105254971.850  
G30  21380791.907   112356775.242  
G14  22556639.772   118535927.908  
G15  23651889.984   124291487.302  
S37  36876858.979   193789175.214  
G22  20765791.718   109124957.315  
G26  25244406.353   132660248.6532 
> 2008 05 26 06 03 25.9990000  0 10                     
G18  20419167.294   107303417.388  
G09  20535247.848   107913438.318  
G12  20441991.894   107423393.995  
G05  20028903.155   105252560.106  
G30  21380081.155   112353040.728  
G14  22556038.412   118532765.951  
G15  23652278.583   124293531.757  
S37  36876743.952   193788571.208  
G22  20765480.717   109123322.479  
G26  25244849.149   132662577.2263 
